[
  {
    "id":0,
    "name":"アイビス　上野御徒町",
    "address":"千代田区外神田６－９－８　シュパール千代田ビル１階",
    "lat":35.704877,
    "lon":139.770688
  },
  {
    "id":1,
    "name":"千代田区立障害者就労支援施設",
    "address":"千代田区九段南１－２－１",
    "lat":35.694002,
    "lon":139.753634
  },
  {
    "id":2,
    "name":"クローバーズ・ピア日本橋",
    "address":"中央区日本橋馬喰町１－５－４",
    "lat":35.692278,
    "lon":139.781477
  },
  {
    "id":3,
    "name":"さわやかワーク中央",
    "address":"中央区東日本橋２－２７－１２",
    "lat":35.695484,
    "lon":139.785752
  },
  {
    "id":4,
    "name":"アイビー",
    "address":"中央区新富１－１５－４　アルファ新富ビル３階",
    "lat":35.672714,
    "lon":139.775408
  },
  {
    "id":5,
    "name":"中央区立知的障害者生活支援施設レインボーハウス明石",
    "address":"中央区明石町１－６",
    "lat":35.669292,
    "lon":139.776716
  },
  {
    "id":6,
    "name":"中央区立福祉センター作業室",
    "address":"中央区明石町１２－１",
    "lat":35.666506,
    "lon":139.777035
  },
  {
    "id":7,
    "name":"アリストランプ",
    "address":"中央区築地３－１２－１１　ナカシゲビル４階",
    "lat":35.667517,
    "lon":139.773038
  },
  {
    "id":8,
    "name":"リバーサイドつつじ",
    "address":"中央区佃２－１７－８　佃区民館２階",
    "lat":35.664823,
    "lon":139.784926
  },
  {
    "id":9,
    "name":"港区立障害保健福祉センター　みなとワークアクティ",
    "address":"港区芝１－８－２３",
    "lat":35.651618,
    "lon":139.755574
  },
  {
    "id":10,
    "name":"みなと工房",
    "address":"港区芝浦１－１４－８　ベルハイム田町２０１",
    "lat":35.646927,
    "lon":139.75273
  },
  {
    "id":11,
    "name":"西麻布作業所",
    "address":"港区西麻布３－１９－１６",
    "lat":35.659619,
    "lon":139.725665
  },
  {
    "id":12,
    "name":"アイエスエフネットベネフィット青山",
    "address":"港区南青山１－４－２　八並ビル３階・７階",
    "lat":35.671315,
    "lon":139.724865
  },
  {
    "id":13,
    "name":"アプローズ南青山",
    "address":"港区南青山４－３－２４　青山ＮＫビル２階",
    "lat":35.666224,
    "lon":139.720154
  },
  {
    "id":14,
    "name":"風の子会高浜生活実習所",
    "address":"港区海岸３－３－１８　芝浦日新ビル５階",
    "lat":35.641036,
    "lon":139.753799
  },
  {
    "id":15,
    "name":"特定非営利活動法人工房ラピール",
    "address":"港区高輪１－４－８　港区地域生活支援センター３階",
    "lat":35.642988,
    "lon":139.734898
  },
  {
    "id":16,
    "name":"東京ワークショップ",
    "address":"新宿区四谷本塩町２－５",
    "lat":35.689219,
    "lon":139.728936
  },
  {
    "id":17,
    "name":"ファロ",
    "address":"新宿区新宿１－１６－１６　テェアーカテリーナ３階",
    "lat":35.689452,
    "lon":139.710912
  },
  {
    "id":18,
    "name":"わーくす　ここ・から",
    "address":"新宿区新宿７－３－２９",
    "lat":35.701003,
    "lon":139.712681
  },
  {
    "id":19,
    "name":"プラーナ新宿",
    "address":"新宿区新宿２－９－２３　ＳＶＡＸビルB館２階・８階",
    "lat":35.689477,
    "lon":139.709793
  },
  {
    "id":20,
    "name":"就労センター『風』",
    "address":"新宿区中落合４－２３－２５",
    "lat":35.717639,
    "lon":139.682994
  },
  {
    "id":21,
    "name":"就労センター「街」",
    "address":"新宿区中落合１－６－２１",
    "lat":35.716573,
    "lon":139.690738
  },
  {
    "id":22,
    "name":"みのり舎",
    "address":"新宿区中落合３－２８－１４　第２アビタシオン１０２・２０４・２０５",
    "lat":35.722664,
    "lon":139.685469
  },
  {
    "id":23,
    "name":"フレッシュスタート目白",
    "address":"新宿区下落合４－２０－１６　ソレイユ目白１０３",
    "lat":35.721726,
    "lon":139.697701
  },
  {
    "id":24,
    "name":"寒緋桜",
    "address":"新宿区上落合３－３０－６　ヴェルデ落合４、５階",
    "lat":35.714062,
    "lon":139.682469
  },
  {
    "id":25,
    "name":"西早稲田あした作業所",
    "address":"新宿区西早稲田２－１６－１",
    "lat":35.709536,
    "lon":139.712256
  },
  {
    "id":26,
    "name":"新宿区立新宿福祉作業所",
    "address":"新宿区戸山１－２２－２",
    "lat":35.703723,
    "lon":139.717434
  },
  {
    "id":27,
    "name":"新宿あした作業所",
    "address":"新宿区戸山１－２２－２（区立障害者福祉センター内）",
    "lat":35.703723,
    "lon":139.717434
  },
  {
    "id":28,
    "name":"新宿区立障害者福祉センター",
    "address":"新宿区戸山１－２２－２",
    "lat":35.703723,
    "lon":139.717434
  },
  {
    "id":29,
    "name":"シャロームみなみ風",
    "address":"新宿区弁天町３２－６",
    "lat":35.704142,
    "lon":139.727269
  },
  {
    "id":30,
    "name":"コンフィデンス早稲田",
    "address":"新宿区西早稲田２－１８－２２",
    "lat":35.710833,
    "lon":139.711539
  },
  {
    "id":31,
    "name":"新宿第二あした作業所",
    "address":"新宿区西早稲田３－１１－６　コアハイム西早稲田１０１",
    "lat":35.710533,
    "lon":139.713942
  },
  {
    "id":32,
    "name":"新宿区立高田馬場福祉作業所",
    "address":"新宿区高田馬場４－１０－２",
    "lat":35.712752,
    "lon":139.702868
  },
  {
    "id":33,
    "name":"オフィスクローバー",
    "address":"新宿区高田馬場３－１８－２５　第１康洋ビル７階",
    "lat":35.715246,
    "lon":139.697399
  },
  {
    "id":34,
    "name":"新宿西共同作業所・ラバンス",
    "address":"新宿区高田馬場２－１４－５　ＫＭビル１階",
    "lat":35.712966,
    "lon":139.706654
  },
  {
    "id":35,
    "name":"パイオニア",
    "address":"新宿区高田馬場１－９－２３",
    "lat":35.710091,
    "lon":139.709059
  },
  {
    "id":36,
    "name":"文京区立小石川福祉作業所",
    "address":"文京区小石川３－３０－６",
    "lat":35.714089,
    "lon":139.74865
  },
  {
    "id":37,
    "name":"工房わかぎり",
    "address":"文京区春日２－１９－３",
    "lat":35.711275,
    "lon":139.744525
  },
  {
    "id":38,
    "name":"ワークプレイスぶんぶん",
    "address":"文京区小日向２－１６－１５",
    "lat":35.710581,
    "lon":139.734582
  },
  {
    "id":39,
    "name":"アビーム",
    "address":"文京区千石４－３７－４　ウイスタリア千石１Ｆ",
    "lat":35.727651,
    "lon":139.741742
  },
  {
    "id":40,
    "name":"文京区立大塚福祉作業所",
    "address":"文京区大塚４－５０－１",
    "lat":35.72469,
    "lon":139.730815
  },
  {
    "id":41,
    "name":"ティ・リーフ",
    "address":"文京区本駒込２－２７－１０　本駒込ＳＩビル３階",
    "lat":35.730501,
    "lon":139.750144
  },
  {
    "id":42,
    "name":"ワークショップやまどり",
    "address":"文京区弥生２－９－６",
    "lat":35.714989,
    "lon":139.764124
  },
  {
    "id":43,
    "name":"銀杏企画Ⅱ",
    "address":"文京区本郷３－１６－４　本郷天理ビル３階",
    "lat":35.705168,
    "lon":139.761321
  },
  {
    "id":44,
    "name":"銀杏企画",
    "address":"文京区本郷５－２５－８　香川ビル",
    "lat":35.709953,
    "lon":139.759593
  },
  {
    "id":45,
    "name":"銀杏企画三丁目",
    "address":"文京区本郷３－２９－６　カリテス佐々木２階",
    "lat":35.706693,
    "lon":139.762057
  },
  {
    "id":46,
    "name":"ふる里学舎本郷",
    "address":"文京区本郷２－２１－７",
    "lat":35.704662,
    "lon":139.75911
  },
  {
    "id":47,
    "name":"耕房“輝”",
    "address":"台東区上野７－６－１０　ＭＳＫビル４階",
    "lat":35.713584,
    "lon":139.778742
  },
  {
    "id":48,
    "name":"たいとう福祉作業所",
    "address":"台東区三ノ輪１－２７－１１　三ノ輪福祉センター８Ｆ",
    "lat":35.729277,
    "lon":139.792193
  },
  {
    "id":49,
    "name":"たいとう第二福祉作業所",
    "address":"台東区北上野２－３２－３",
    "lat":35.719134,
    "lon":139.785267
  },
  {
    "id":50,
    "name":"かれん",
    "address":"台東区東上野６－２５－５　東京佐藤ビル",
    "lat":35.715323,
    "lon":139.783761
  },
  {
    "id":51,
    "name":"耕房“光”",
    "address":"台東区東上野６－１８－１７　カーサ・ミナガワ２階",
    "lat":35.714057,
    "lon":139.785106
  },
  {
    "id":52,
    "name":"すてっぷ　つばさ",
    "address":"台東区東上野３－８－７　矢口ビル２階",
    "lat":35.710496,
    "lon":139.780704
  },
  {
    "id":53,
    "name":"RECOVERY",
    "address":"台東区東上野６－２１－２　サニーハイツ東上野３０１",
    "lat":35.714845,
    "lon":139.783917
  },
  {
    "id":54,
    "name":"３Ｂ実用芸術研究所",
    "address":"台東区東上野３－９－８",
    "lat":35.710251,
    "lon":139.780126
  },
  {
    "id":55,
    "name":"たいとう第四福祉作業所",
    "address":"台東区今戸２－１８－２",
    "lat":35.721671,
    "lon":139.80316
  },
  {
    "id":56,
    "name":"おあしす",
    "address":"台東区今戸１－１８－１６",
    "lat":35.720082,
    "lon":139.80406
  },
  {
    "id":57,
    "name":"たいとう第三福祉作業所",
    "address":"台東区元浅草３－９－７",
    "lat":35.707349,
    "lon":139.786015
  },
  {
    "id":58,
    "name":"ラムダ",
    "address":"台東区寿３－１９－２　シュロス浅草３０２号室",
    "lat":35.707538,
    "lon":139.791203
  },
  {
    "id":59,
    "name":"こすもす浅草橋",
    "address":"台東区浅草橋１－３４－１０　稲垣ビル６階",
    "lat":35.698544,
    "lon":139.784579
  },
  {
    "id":60,
    "name":"ユニーク工芸",
    "address":"墨田区横川２－３－７　知野ビル１０２",
    "lat":35.703241,
    "lon":139.812813
  },
  {
    "id":61,
    "name":"空ゆけ未来工房",
    "address":"墨田区横川４－１１－２",
    "lat":35.70546,
    "lon":139.815204
  },
  {
    "id":62,
    "name":"カラコネオフィス",
    "address":"墨田区石原３－３０－１０　御谷湯ビル２０１",
    "lat":35.701541,
    "lon":139.804525
  },
  {
    "id":63,
    "name":"ユニークジョブサポート･ビー",
    "address":"墨田区錦糸３－８－２　ＩＫ第５ビル３階、４階",
    "lat":35.698711,
    "lon":139.814177
  },
  {
    "id":64,
    "name":"錦糸町就労支援センター　ひだまり工房",
    "address":"墨田区錦糸３－１１－３　錦糸町北口第２ビル",
    "lat":35.699197,
    "lon":139.813638
  },
  {
    "id":65,
    "name":"すみだふれあいセンター福祉作業所",
    "address":"墨田区緑４－３５－６",
    "lat":35.695795,
    "lon":139.807489
  },
  {
    "id":66,
    "name":"すみだ花工房",
    "address":"墨田区墨田２－１６－５",
    "lat":35.731729,
    "lon":139.817123
  },
  {
    "id":67,
    "name":"ルーパス",
    "address":"墨田区東向島３－３７－８",
    "lat":35.72158,
    "lon":139.817098
  },
  {
    "id":68,
    "name":"こらーるカフェ",
    "address":"墨田区向島３－２－１　向島パークハイツ１階",
    "lat":35.713335,
    "lon":139.807065
  },
  {
    "id":69,
    "name":"向島七福福祉作業所",
    "address":"墨田区向島３－３０－７",
    "lat":35.713255,
    "lon":139.810106
  },
  {
    "id":70,
    "name":"墨田福祉作業所",
    "address":"墨田区八広１－１６－２２",
    "lat":35.719811,
    "lon":139.822194
  },
  {
    "id":71,
    "name":"隅田作業所",
    "address":"墨田区八広３－１－５　ライフスペース９０　１０１号",
    "lat":35.718944,
    "lon":139.825033
  },
  {
    "id":72,
    "name":"墨田さんさんプラザ",
    "address":"墨田区立花四丁目３０番１６号",
    "lat":35.710119,
    "lon":139.834365
  },
  {
    "id":73,
    "name":"はあとぴーす",
    "address":"墨田区文花２－２－９　海老原ビル１階",
    "lat":35.707669,
    "lon":139.826877
  },
  {
    "id":74,
    "name":"江東区第二あすなろ作業所",
    "address":"江東区毛利２－１－１４",
    "lat":35.69074,
    "lon":139.816566
  },
  {
    "id":75,
    "name":"ピアワーク・オアシス",
    "address":"江東区毛利１－７－３　田中ビル",
    "lat":35.690634,
    "lon":139.812608
  },
  {
    "id":76,
    "name":"江東区こども発達扇橋センター",
    "address":"江東区扇橋３－７－２",
    "lat":35.682685,
    "lon":139.820443
  },
  {
    "id":77,
    "name":"ふれあい工房",
    "address":"江東区千石２－２－５",
    "lat":35.677278,
    "lon":139.815657
  },
  {
    "id":78,
    "name":"オアシス・プラス",
    "address":"江東区白河４－７－２",
    "lat":35.683066,
    "lon":139.809039
  },
  {
    "id":79,
    "name":"新生したまち作業所",
    "address":"江東区平野３－７－４　オーク・ミューラル２０１",
    "lat":35.678089,
    "lon":139.805278
  },
  {
    "id":80,
    "name":"ワークセンターつばさ",
    "address":"江東区佐賀２－７－４",
    "lat":35.679774,
    "lon":139.791593
  },
  {
    "id":81,
    "name":"Ｓｍｉｌｅ　Ｌａｂ　Ｔｏｋｙｏ",
    "address":"江東区木場１－４－５　イマス木場ビル５Ｂ",
    "lat":35.66867,
    "lon":139.804708
  },
  {
    "id":82,
    "name":"らふぁえる",
    "address":"江東区木場６－１０－６　ＴＫＹビル５階",
    "lat":35.668345,
    "lon":139.805822
  },
  {
    "id":83,
    "name":"若竹作業所",
    "address":"江東区塩浜２－５－２０　塩浜福祉プラザ内４階",
    "lat":35.661932,
    "lon":139.805383
  },
  {
    "id":84,
    "name":"自立センターあけぼの",
    "address":"江東区塩浜２－５－２０　塩浜福祉プラザ３Ｆ",
    "lat":35.661932,
    "lon":139.805383
  },
  {
    "id":85,
    "name":"ソフトパワー",
    "address":"江東区亀戸４－３８－４－１０１",
    "lat":35.702952,
    "lon":139.828244
  },
  {
    "id":86,
    "name":"サンフラワーワーキング",
    "address":"江東区大島１－６－９",
    "lat":35.688443,
    "lon":139.822329
  },
  {
    "id":87,
    "name":"すこやか作業所",
    "address":"江東区大島４－１－６－１４６",
    "lat":35.686555,
    "lon":139.8303
  },
  {
    "id":88,
    "name":"のびのび作業所デリバリー",
    "address":"江東区大島６－１－４－１０９、１１０、１１１",
    "lat":35.691207,
    "lon":139.832233
  },
  {
    "id":89,
    "name":"のびのび作業所フーズ",
    "address":"江東区大島８－３２－１３　マヒコビル１、２階",
    "lat":35.689907,
    "lon":139.841829
  },
  {
    "id":90,
    "name":"コミュニティワークＴ＆Ｋ",
    "address":"江東区大島８－３２－９",
    "lat":35.690288,
    "lon":139.841865
  },
  {
    "id":91,
    "name":"ゆめ工房",
    "address":"江東区北砂１－１４－４　１階",
    "lat":35.6792,
    "lon":139.824128
  },
  {
    "id":92,
    "name":"ゆめ工房北砂",
    "address":"江東区北砂１－１４－４　２階",
    "lat":35.6792,
    "lon":139.824128
  },
  {
    "id":93,
    "name":"のびのび作業所エコ",
    "address":"江東区北砂３－２２－２０",
    "lat":35.680983,
    "lon":139.831103
  },
  {
    "id":94,
    "name":"ネットワークゆめ工房",
    "address":"江東区北砂１－１７－４　稲見北砂ハイツ１階",
    "lat":35.679883,
    "lon":139.824745
  },
  {
    "id":95,
    "name":"ドリームクラブハウス",
    "address":"江東区北砂１－１５－８",
    "lat":35.678436,
    "lon":139.824851
  },
  {
    "id":96,
    "name":"江東区あすなろ作業所",
    "address":"江東区東砂３－３０－６　東砂福祉プラザ２・３階",
    "lat":35.681053,
    "lon":139.845296
  },
  {
    "id":97,
    "name":"ドリーム第２",
    "address":"江東区東砂６－２０－７",
    "lat":35.675198,
    "lon":139.840877
  },
  {
    "id":98,
    "name":"高齢障害者通所施設さくら分室",
    "address":"江東区東砂６－２－１４",
    "lat":35.669829,
    "lon":139.841935
  },
  {
    "id":99,
    "name":"第三あすなろ作業所",
    "address":"江東区南砂４－３－１０",
    "lat":35.674348,
    "lon":139.82777
  },
  {
    "id":100,
    "name":"のびのび共同作業所大河",
    "address":"江東区南砂３－５－１４　ＯＫ．ＢＬＤＧⅡ４・５階",
    "lat":35.672759,
    "lon":139.828689
  },
  {
    "id":101,
    "name":"コム・オアシス",
    "address":"江東区南砂３－４－６",
    "lat":35.673279,
    "lon":139.826778
  },
  {
    "id":102,
    "name":"就労継続支援Ｂ型",
    "address":"品川区北品川３－７－２１　北品川つばさの家４階",
    "lat":35.617874,
    "lon":139.740343
  },
  {
    "id":103,
    "name":"第二しいのき学園",
    "address":"品川区東品川３－１－８",
    "lat":35.617169,
    "lon":139.746909
  },
  {
    "id":104,
    "name":"さつき",
    "address":"品川区八潮５－３－８",
    "lat":35.603204,
    "lon":139.75194
  },
  {
    "id":105,
    "name":"品川区立西大井福祉園",
    "address":"品川区西大井５－７－２４",
    "lat":35.599259,
    "lon":139.716615
  },
  {
    "id":106,
    "name":"かもめ第二工房",
    "address":"品川区西大井１－８－７",
    "lat":35.600904,
    "lon":139.723103
  },
  {
    "id":107,
    "name":"ふれあい作業所西大井",
    "address":"品川区西大井４－９－９",
    "lat":35.596212,
    "lon":139.72022
  },
  {
    "id":108,
    "name":"就労継続支援B型　ガーデン",
    "address":"品川区上大崎１－２０－１２",
    "lat":35.633172,
    "lon":139.722055
  },
  {
    "id":109,
    "name":"かもめ第三工房",
    "address":"品川区西五反田２－２４－２",
    "lat":35.626012,
    "lon":139.7193
  },
  {
    "id":110,
    "name":"トット文化館",
    "address":"品川区西品川２－２－１６",
    "lat":35.614705,
    "lon":139.728539
  },
  {
    "id":111,
    "name":"ふれあい作業所西品川",
    "address":"品川区西品川１－２８－３",
    "lat":35.609319,
    "lon":139.727725
  },
  {
    "id":112,
    "name":"ブレス（学芸大学）",
    "address":"目黒区中央町２－３２－５　スマイルプラザ中央町",
    "lat":35.631511,
    "lon":139.688775
  },
  {
    "id":113,
    "name":"ＳＵＮ",
    "address":"目黒区中央町２－３２－５　スマイルプラザ中央町４Ｆ",
    "lat":35.631511,
    "lon":139.688775
  },
  {
    "id":114,
    "name":"フードコミュニティ目黒",
    "address":"目黒区中央町２－３２－５　スマイルプラザ中央町",
    "lat":35.631511,
    "lon":139.688775
  },
  {
    "id":115,
    "name":"おおぞら",
    "address":"目黒区中央町１－２５－２２",
    "lat":35.628733,
    "lon":139.690508
  },
  {
    "id":116,
    "name":"あかねの会目黒就労支援室",
    "address":"目黒区中央町２－３２－１４",
    "lat":35.631111,
    "lon":139.688497
  },
  {
    "id":117,
    "name":"しいの実社　学芸大学スマイルプラザ",
    "address":"目黒区中央町２－３２－５",
    "lat":35.631511,
    "lon":139.688775
  },
  {
    "id":118,
    "name":"しいの実社",
    "address":"目黒区目黒本町２－７－３",
    "lat":35.626628,
    "lon":139.693363
  },
  {
    "id":119,
    "name":"目黒区立目黒本町福祉工房",
    "address":"目黒区目黒本町１－１４－２４",
    "lat":35.628539,
    "lon":139.695649
  },
  {
    "id":120,
    "name":"目黒区高次脳機能障害者支援センターいきいき＊せかんど",
    "address":"目黒区碑文谷５－１２－１",
    "lat":35.624039,
    "lon":139.682773
  },
  {
    "id":121,
    "name":"ワークイン翔",
    "address":"目黒区平町２－２０－８　マイコート１０１",
    "lat":35.613135,
    "lon":139.679001
  },
  {
    "id":122,
    "name":"目黒区立かみよん工房",
    "address":"目黒区上目黒４－１－２６",
    "lat":35.641909,
    "lon":139.692041
  },
  {
    "id":123,
    "name":"目黒区立下目黒福祉工房",
    "address":"目黒区下目黒３－１０－２",
    "lat":35.627873,
    "lon":139.711501
  },
  {
    "id":124,
    "name":"のぞみ園",
    "address":"大田区大森南２－１５－１",
    "lat":35.562626,
    "lon":139.740312
  },
  {
    "id":125,
    "name":"大田区立大田福祉作業所",
    "address":"大田区大森西三丁目３番９号",
    "lat":35.574954,
    "lon":139.730637
  },
  {
    "id":126,
    "name":"社会福祉法人東京コロニー　東京都大田福祉工場",
    "address":"大田区大森西２－２２－２６",
    "lat":35.575279,
    "lon":139.728104
  },
  {
    "id":127,
    "name":"P.プロゼクト",
    "address":"大田区大森北３－５－３",
    "lat":35.584389,
    "lon":139.733378
  },
  {
    "id":128,
    "name":"おれんじルーム",
    "address":"大田区中央４－２０－３",
    "lat":35.580781,
    "lon":139.717782
  },
  {
    "id":129,
    "name":"まごめ園",
    "address":"大田区中馬込２－３－１９",
    "lat":35.594968,
    "lon":139.707083
  },
  {
    "id":130,
    "name":"大田区立うめのき園",
    "address":"大田区東糀谷五丁目１７番１４－１０１号",
    "lat":35.557583,
    "lon":139.744579
  },
  {
    "id":131,
    "name":"大田区立しいのき園",
    "address":"大田区西糀谷２丁目９番１２号",
    "lat":35.560307,
    "lon":139.737538
  },
  {
    "id":132,
    "name":"糀谷作業所",
    "address":"大田区本羽田１－１８－２１　日興ビル２０２号室",
    "lat":35.547208,
    "lon":139.727048
  },
  {
    "id":133,
    "name":"大田区立くすのき園",
    "address":"大田区南六郷三丁目２３番９号",
    "lat":35.541378,
    "lon":139.714571
  },
  {
    "id":134,
    "name":"みどり作業所",
    "address":"大田区東六郷１－２６－１３",
    "lat":35.551932,
    "lon":139.717801
  },
  {
    "id":135,
    "name":"大田区立はぎなか園",
    "address":"大田区萩中２－１２－２３",
    "lat":35.550575,
    "lon":139.732391
  },
  {
    "id":136,
    "name":"さわやかワークセンター",
    "address":"大田区西蒲田３－１９－１",
    "lat":35.568085,
    "lon":139.707859
  },
  {
    "id":137,
    "name":"樹林館",
    "address":"大田区西蒲田３－１９－１",
    "lat":35.568085,
    "lon":139.707859
  },
  {
    "id":138,
    "name":"とちの実作業所",
    "address":"大田区西蒲田１－１９－１９－１０２",
    "lat":35.570854,
    "lon":139.712111
  },
  {
    "id":139,
    "name":"ステップ夢",
    "address":"大田区西蒲田６－２４－５",
    "lat":35.565011,
    "lon":139.71087
  },
  {
    "id":140,
    "name":"ＥＮＴＡＳ",
    "address":"大田区西蒲田４－４－１－２階",
    "lat":35.56971,
    "lon":139.716764
  },
  {
    "id":141,
    "name":"アルファ企画",
    "address":"大田区西蒲田２－９－１６",
    "lat":35.569818,
    "lon":139.708853
  },
  {
    "id":142,
    "name":"クッキングワーク街の駅",
    "address":"大田区西蒲田３－１８－９",
    "lat":35.567777,
    "lon":139.708831
  },
  {
    "id":143,
    "name":"喫茶　色えんぴつ",
    "address":"大田区新蒲田２－１－１０－１０１",
    "lat":35.559414,
    "lon":139.708615
  },
  {
    "id":144,
    "name":"サンアップ",
    "address":"大田区仲六郷４－６－１５",
    "lat":35.544553,
    "lon":139.709513
  },
  {
    "id":145,
    "name":"大田区立志茂田福祉センター",
    "address":"大田区西六郷１－４－２７",
    "lat":35.55599,
    "lon":139.711135
  },
  {
    "id":146,
    "name":"大田区立上池台障害者福祉会館　身体障害者作業室　",
    "address":"大田区上池台５－５－１",
    "lat":35.59557,
    "lon":139.701558
  },
  {
    "id":147,
    "name":"はすの実作業所",
    "address":"大田区池上５－２８－１－１０８",
    "lat":35.573496,
    "lon":139.711917
  },
  {
    "id":148,
    "name":"みどりの歩み",
    "address":"大田区久が原２－１４－９",
    "lat":35.582647,
    "lon":139.697504
  },
  {
    "id":149,
    "name":"Beステーション凛",
    "address":"大田区下丸子４－６－１６",
    "lat":35.571499,
    "lon":139.682576
  },
  {
    "id":150,
    "name":"沙らの木",
    "address":"大田区東矢口３－１５－２３・２４",
    "lat":35.562483,
    "lon":139.705338
  },
  {
    "id":151,
    "name":"さぽーと・さら",
    "address":"大田区東矢口３－１２－１８　ベルス馬場１０１・１０２",
    "lat":35.562428,
    "lon":139.703946
  },
  {
    "id":152,
    "name":"世田谷区立下馬福祉工房",
    "address":"世田谷区下馬２－２０－１４",
    "lat":35.64064,
    "lon":139.675406
  },
  {
    "id":153,
    "name":"世田谷区立世田谷福祉作業所",
    "address":"世田谷区下馬二丁目３１番３４－１０１号",
    "lat":35.642948,
    "lon":139.678709
  },
  {
    "id":154,
    "name":"Ｎａｖｉｏけやき",
    "address":"世田谷区上馬３－７－８　トーヨーＢＬＤＧ",
    "lat":35.634421,
    "lon":139.663594
  },
  {
    "id":155,
    "name":"アディクションリハビリテーションセンター　すとぉりぃ",
    "address":"世田谷区桜新町１－８－６",
    "lat":35.62961,
    "lon":139.644192
  },
  {
    "id":156,
    "name":"上町工房",
    "address":"世田谷区世田谷３－９－１",
    "lat":35.645141,
    "lon":139.648617
  },
  {
    "id":157,
    "name":"ハーモニー",
    "address":"世田谷区世田谷３－４－１　アップビル２階",
    "lat":35.643686,
    "lon":139.646739
  },
  {
    "id":158,
    "name":"Ｃｒａｚｙ　Ｃａｔｓ",
    "address":"世田谷区梅丘１－２１－９　大津ビル２階",
    "lat":35.65561,
    "lon":139.654021
  },
  {
    "id":159,
    "name":"Factory藍",
    "address":"世田谷区若林５－２－９",
    "lat":35.646983,
    "lon":139.660421
  },
  {
    "id":160,
    "name":"リバティ世田谷",
    "address":"世田谷区三軒茶屋１－２９－１３　ハイツ三軒茶屋２Ｃ－２",
    "lat":35.64139,
    "lon":139.669598
  },
  {
    "id":161,
    "name":"エイト",
    "address":"世田谷区北沢５－２３－２７",
    "lat":35.669872,
    "lon":139.670756
  },
  {
    "id":162,
    "name":"大原福祉作業所",
    "address":"世田谷区大原１－２３－１３",
    "lat":35.667561,
    "lon":139.661404
  },
  {
    "id":163,
    "name":"白梅福祉作業所",
    "address":"世田谷区松原６－４３－１７",
    "lat":35.656198,
    "lon":139.649311
  },
  {
    "id":164,
    "name":"世田谷区立梅丘ウッドペッカーの森",
    "address":"世田谷区松原６－４－１",
    "lat":35.656904,
    "lon":139.652774
  },
  {
    "id":165,
    "name":"のぞみ園",
    "address":"世田谷区赤堤４－２７－１４",
    "lat":35.663595,
    "lon":139.640411
  },
  {
    "id":166,
    "name":"まごの手便",
    "address":"世田谷区赤堤４－３６－１９　関口ビル１階",
    "lat":35.664989,
    "lon":139.641161
  },
  {
    "id":167,
    "name":"風の谷プロジェクト",
    "address":"世田谷区船橋２－２１－２８",
    "lat":35.65212,
    "lon":139.618816
  },
  {
    "id":168,
    "name":"喫茶室パイン作業所Ⅰ",
    "address":"世田谷区上北沢２－１－１　都立松沢病院内",
    "lat":35.667094,
    "lon":139.618255
  },
  {
    "id":169,
    "name":"ワークランド・フレンドパーク",
    "address":"世田谷区上北沢３－１７－７",
    "lat":35.66841,
    "lon":139.625148
  },
  {
    "id":170,
    "name":"世田谷区立烏山福祉作業所",
    "address":"世田谷区北烏山１－２９－１５",
    "lat":35.67547,
    "lon":139.608405
  },
  {
    "id":171,
    "name":"ちぐさ企画",
    "address":"世田谷区北烏山１－８－２　ＮＴＫビル２階",
    "lat":35.673367,
    "lon":139.606936
  },
  {
    "id":172,
    "name":"さくら美術工房",
    "address":"世田谷区粕谷４－２０－１８　幸栄マンション２１１",
    "lat":35.665224,
    "lon":139.602947
  },
  {
    "id":173,
    "name":"すまいるフラワー",
    "address":"世田谷区給田４－１０－１９　ストレンジャーイズミ１階",
    "lat":35.66942,
    "lon":139.590959
  },
  {
    "id":174,
    "name":"喜多見夢工房",
    "address":"世田谷区喜多見９－１－３５",
    "lat":35.63716,
    "lon":139.589225
  },
  {
    "id":175,
    "name":"就労継続支援B型事業所　TODAY喜多見",
    "address":"世田谷区喜多見９－３－１３",
    "lat":35.637638,
    "lon":139.587442
  },
  {
    "id":176,
    "name":"にゃんこの館",
    "address":"世田谷区千歳台３－３－１６　ＨＮ千歳台ビル４階",
    "lat":35.650198,
    "lon":139.616555
  },
  {
    "id":177,
    "name":"ｎｉｃｏＲｅ",
    "address":"世田谷区祖師谷３－４－８　石田ビル１階",
    "lat":35.642915,
    "lon":139.606326
  },
  {
    "id":178,
    "name":"わくわく祖師谷",
    "address":"世田谷区祖師谷３－２１－１",
    "lat":35.642849,
    "lon":139.604615
  },
  {
    "id":179,
    "name":"世田谷更生館",
    "address":"世田谷区砧３－９－１１",
    "lat":35.63575,
    "lon":139.613559
  },
  {
    "id":180,
    "name":"世田谷区立砧工房",
    "address":"世田谷区砧４－３２－１４",
    "lat":35.643493,
    "lon":139.614531
  },
  {
    "id":181,
    "name":"泉の家",
    "address":"世田谷区岡本２－３３－２３",
    "lat":35.623694,
    "lon":139.616909
  },
  {
    "id":182,
    "name":"世田谷区立岡本福祉作業ホーム",
    "address":"世田谷区岡本２－３３－２４",
    "lat":35.623635,
    "lon":139.617132
  },
  {
    "id":183,
    "name":"社会就労センターパイ焼き窯",
    "address":"世田谷区等々力２－３６－１３",
    "lat":35.605635,
    "lon":139.647035
  },
  {
    "id":184,
    "name":"パイ焼き茶房",
    "address":"世田谷区等々力２－１８－１",
    "lat":35.605874,
    "lon":139.652609
  },
  {
    "id":185,
    "name":"One-Self（ワン－セルフ）",
    "address":"世田谷区奥沢８－１－３　奥沢レックス１Ｆ",
    "lat":35.602041,
    "lon":139.659925
  },
  {
    "id":186,
    "name":"アン",
    "address":"世田谷区中町２－２１－１２　なかまちＮＰＯセンター２０５",
    "lat":35.61382,
    "lon":139.644685
  },
  {
    "id":187,
    "name":"世田谷区立玉川福祉作業所",
    "address":"世田谷区玉川１－７－２",
    "lat":35.610121,
    "lon":139.628015
  },
  {
    "id":188,
    "name":"用賀福祉作業所",
    "address":"世田谷区用賀４－７－１",
    "lat":35.626913,
    "lon":139.630544
  },
  {
    "id":189,
    "name":"就労支援施設ゆに（ＵＮＩ）",
    "address":"世田谷区上用賀５－１４－１－１　２階",
    "lat":35.630337,
    "lon":139.626089
  },
  {
    "id":190,
    "name":"ワークセンターひかわ",
    "address":"渋谷区東３－１４－１３　渋谷区ひがし健康プラザ２階",
    "lat":35.650895,
    "lon":139.709739
  },
  {
    "id":191,
    "name":"福祉作業所おかし屋ぱれっと",
    "address":"渋谷区東２－１１－４",
    "lat":35.652359,
    "lon":139.710919
  },
  {
    "id":192,
    "name":"広尾ジョイワーク",
    "address":"渋谷区広尾４－２－１２",
    "lat":35.655159,
    "lon":139.722279
  },
  {
    "id":193,
    "name":"渋谷区立新橋作業所",
    "address":"渋谷区恵比寿１－２７－１０　新橋区民複合施設４Ｆ",
    "lat":35.647579,
    "lon":139.716347
  },
  {
    "id":194,
    "name":"すみれ工房",
    "address":"渋谷区恵比寿南２－２３－１２　エビスサニービル２階",
    "lat":35.642107,
    "lon":139.709153
  },
  {
    "id":195,
    "name":"ストライドクラブ",
    "address":"渋谷区松濤１－２９－１０　渋谷Ｅ－ＢＬＤ２０１",
    "lat":35.659824,
    "lon":139.694068
  },
  {
    "id":196,
    "name":"みどり工房",
    "address":"渋谷区千駄ヶ谷５－３－１２",
    "lat":35.682466,
    "lon":139.707921
  },
  {
    "id":197,
    "name":"むつみ工房",
    "address":"渋谷区幡ケ谷３－４４－１０　フォレスト３",
    "lat":35.679932,
    "lon":139.672425
  },
  {
    "id":198,
    "name":"ＴＥＮ　ＴＯＮＥ",
    "address":"渋谷区幡ヶ谷１－８－４　リッツパラシオ１００１",
    "lat":35.675572,
    "lon":139.672291
  },
  {
    "id":199,
    "name":"福祉作業所ふれんど",
    "address":"渋谷区笹塚２－３３－９",
    "lat":35.675077,
    "lon":139.663845
  },
  {
    "id":200,
    "name":"ワークささはた",
    "address":"渋谷区笹塚３－４８－１－１号棟",
    "lat":35.679877,
    "lon":139.668161
  },
  {
    "id":201,
    "name":"ワーク＆ショップ＜はらっぱ＞",
    "address":"渋谷区笹塚３－９－３　京王ビル２０３",
    "lat":35.677322,
    "lon":139.669372
  },
  {
    "id":202,
    "name":"ホープ就労支援センター渋谷",
    "address":"渋谷区笹塚２－１６－１",
    "lat":35.674413,
    "lon":139.666234
  },
  {
    "id":203,
    "name":"コロニーもみじやま支援センター",
    "address":"中野区中野５－３－３２",
    "lat":35.708118,
    "lon":139.672271
  },
  {
    "id":204,
    "name":"杉の子　城山",
    "address":"中野区中野１－６－１２",
    "lat":35.693609,
    "lon":139.682509
  },
  {
    "id":205,
    "name":"あとりえふぁんとむ",
    "address":"中野区東中野４－２－２　篠木ビル２階・３階",
    "lat":35.706541,
    "lon":139.685581
  },
  {
    "id":206,
    "name":"中野区仲町就労支援事業所",
    "address":"中野区中央３－１９－１",
    "lat":35.7004,
    "lon":139.674176
  },
  {
    "id":207,
    "name":"ワークセンター翔和",
    "address":"中野区中央１－３２－６　フォーチュンハウス２０１",
    "lat":35.697956,
    "lon":139.684231
  },
  {
    "id":208,
    "name":"中野区東部福祉作業センター",
    "address":"中野区中央２－２２－１０",
    "lat":35.700775,
    "lon":139.680934
  },
  {
    "id":209,
    "name":"カサ　デ　オリーバ",
    "address":"中野区本町５－３５－９",
    "lat":35.693653,
    "lon":139.668352
  },
  {
    "id":210,
    "name":"ふらっとなかの",
    "address":"中野区本町５－４０－１４",
    "lat":35.691709,
    "lon":139.668269
  },
  {
    "id":211,
    "name":"杉の子　弥生",
    "address":"中野区弥生町２－５－１１",
    "lat":35.691834,
    "lon":139.676388
  },
  {
    "id":212,
    "name":"中野区立弥生福祉作業所",
    "address":"中野区弥生町４－３６－１５",
    "lat":35.689801,
    "lon":139.67091
  },
  {
    "id":213,
    "name":"杉の子丸山",
    "address":"中野区丸山１－４－５",
    "lat":35.723135,
    "lon":139.655933
  },
  {
    "id":214,
    "name":"コロニー中野",
    "address":"中野区江原町２－６－７",
    "lat":35.72911,
    "lon":139.668348
  },
  {
    "id":215,
    "name":"すばるカンパニー",
    "address":"中野区若宮１－５４－１５",
    "lat":35.71993,
    "lon":139.650528
  },
  {
    "id":216,
    "name":"杉の子　大和",
    "address":"中野区大和町３－１８－２",
    "lat":35.711142,
    "lon":139.647859
  },
  {
    "id":217,
    "name":"koen　the　TAO",
    "address":"杉並区高円寺北３－６－２　１階",
    "lat":35.705329,
    "lon":139.645156
  },
  {
    "id":218,
    "name":"杉並・あしたの会福祉作業所",
    "address":"杉並区阿佐谷南３－１２－１　第三栄ビル",
    "lat":35.702479,
    "lon":139.62913
  },
  {
    "id":219,
    "name":"魔法陣",
    "address":"杉並区阿佐谷南３－９－２　新光ハイツ１－Ｄ",
    "lat":35.70137,
    "lon":139.631336
  },
  {
    "id":220,
    "name":"ワークショップ・かたつむり",
    "address":"杉並区和田１－５－１８　アテナビル２階",
    "lat":35.68902,
    "lon":139.663214
  },
  {
    "id":221,
    "name":"済美職業実習所",
    "address":"杉並区堀ノ内１－２６－６",
    "lat":35.686076,
    "lon":139.649174
  },
  {
    "id":222,
    "name":"けやき亭",
    "address":"杉並区成田東３－１－３",
    "lat":35.694546,
    "lon":139.640871
  },
  {
    "id":223,
    "name":"ゆい企画",
    "address":"杉並区成田東５－１５－２１　成宗マンション１階",
    "lat":35.702087,
    "lon":139.628827
  },
  {
    "id":224,
    "name":"あけぼの作業所",
    "address":"杉並区上井草４－３－１１",
    "lat":35.718106,
    "lon":139.597071
  },
  {
    "id":225,
    "name":"障害者就労支援センター　どんまい福祉工房",
    "address":"杉並区本天沼１－２４－９",
    "lat":35.713897,
    "lon":139.632099
  },
  {
    "id":226,
    "name":"マカナ",
    "address":"杉並区天沼２－３－９　伊藤ビル２階、３階",
    "lat":35.705311,
    "lon":139.623983
  },
  {
    "id":227,
    "name":"ワークみらい",
    "address":"杉並区天沼３－６－６　吉田ビル２０１",
    "lat":35.706383,
    "lon":139.618572
  },
  {
    "id":228,
    "name":"阿佐谷福祉工房",
    "address":"杉並区天沼１－１５－１８",
    "lat":35.707697,
    "lon":139.630027
  },
  {
    "id":229,
    "name":"作業所にしおぎ館",
    "address":"杉並区西荻北４－３１－１２　西荻マンション１階",
    "lat":35.709002,
    "lon":139.592913
  },
  {
    "id":230,
    "name":"リブレ",
    "address":"杉並区上荻１－５－８",
    "lat":35.705022,
    "lon":139.62187
  },
  {
    "id":231,
    "name":"パルテ",
    "address":"杉並区上荻１－１３－１０　共栄ビル３０３号室、３０２号室",
    "lat":35.70502,
    "lon":139.618136
  },
  {
    "id":232,
    "name":"工房ラルゴ",
    "address":"杉並区上荻４－２６－１１",
    "lat":35.711771,
    "lon":139.602829
  },
  {
    "id":233,
    "name":"チャレンジ",
    "address":"杉並区桃井４－４－３　スカイコート西荻窪２",
    "lat":35.712596,
    "lon":139.601465
  },
  {
    "id":234,
    "name":"パソコン工房ゆずりは",
    "address":"杉並区荻窪１－２０－１５",
    "lat":35.692924,
    "lon":139.619537
  },
  {
    "id":235,
    "name":"ひまわり作業所",
    "address":"杉並区松庵２－２２－２２",
    "lat":35.698328,
    "lon":139.592772
  },
  {
    "id":236,
    "name":"あすなろ作業所",
    "address":"杉並区方南１－３－４",
    "lat":35.674144,
    "lon":139.660248
  },
  {
    "id":237,
    "name":"杉並いずみ　第二",
    "address":"杉並区方南１－５２－２０",
    "lat":35.679749,
    "lon":139.657487
  },
  {
    "id":238,
    "name":"杉並いずみ　第一",
    "address":"杉並区和泉４－４４－４",
    "lat":35.681348,
    "lon":139.653504
  },
  {
    "id":239,
    "name":"アゲイン",
    "address":"杉並区永福１－２７－３１",
    "lat":35.67226,
    "lon":139.644652
  },
  {
    "id":240,
    "name":"地球儀",
    "address":"杉並区永福４－１－５　三永永福ビル２階",
    "lat":35.676707,
    "lon":139.643372
  },
  {
    "id":241,
    "name":"かいとー",
    "address":"杉並区浜田山３－１－９",
    "lat":35.679956,
    "lon":139.633339
  },
  {
    "id":242,
    "name":"Ｓ．Ｕストリート",
    "address":"杉並区上高井戸１－１－９",
    "lat":35.669635,
    "lon":139.615702
  },
  {
    "id":243,
    "name":"希望の家",
    "address":"杉並区久我山５－３６－１７",
    "lat":35.690557,
    "lon":139.60228
  },
  {
    "id":244,
    "name":"豊島区立駒込福祉作業所",
    "address":"豊島区駒込４－７－１",
    "lat":35.734978,
    "lon":139.742364
  },
  {
    "id":245,
    "name":"豊芯会ジョブトレーニング事業所",
    "address":"豊島区北大塚３－３４－７",
    "lat":35.735203,
    "lon":139.726684
  },
  {
    "id":246,
    "name":"だんでぃらいおん",
    "address":"豊島区池袋本町１－８－４　小川ビル２０３",
    "lat":35.738016,
    "lon":139.713657
  },
  {
    "id":247,
    "name":"自立支援センターまめの樹",
    "address":"豊島区東池袋５－５０－６　栄第一ビル２階",
    "lat":35.726798,
    "lon":139.728135
  },
  {
    "id":248,
    "name":"共同作業所オーク",
    "address":"豊島区池袋２－５３－１３　ルート池袋第２ビル４階・５階・６階",
    "lat":35.733836,
    "lon":139.709133
  },
  {
    "id":249,
    "name":"いけぶくろ茜の里",
    "address":"豊島区池袋４－１５－１０",
    "lat":35.739802,
    "lon":139.707719
  },
  {
    "id":250,
    "name":"こみっとプレイス",
    "address":"豊島区南池袋４－１０－５　１階",
    "lat":35.723176,
    "lon":139.717391
  },
  {
    "id":251,
    "name":"は～と豊島",
    "address":"豊島区南池袋４－２４－５　ロゼ南池袋２０１",
    "lat":35.723132,
    "lon":139.722507
  },
  {
    "id":252,
    "name":"豊島区立目白福祉作業所",
    "address":"豊島区目白５－２４－１２",
    "lat":35.725328,
    "lon":139.696882
  },
  {
    "id":253,
    "name":"ル・ピュル",
    "address":"豊島区長崎１－１８－９　阿部ビル",
    "lat":35.728725,
    "lon":139.693637
  },
  {
    "id":254,
    "name":"あおぞら作業所",
    "address":"豊島区南長崎５－９－１０　レジェンド南長崎１０１",
    "lat":35.727327,
    "lon":139.682605
  },
  {
    "id":255,
    "name":"就労継続支援Ｂ型　みつばちブンブン",
    "address":"豊島区南長崎６－３４－１３　風の樹ビル２号館",
    "lat":35.731952,
    "lon":139.679619
  },
  {
    "id":256,
    "name":"ワークスペース　のぞみ",
    "address":"豊島区南長崎５－１６－８　平和ビル２階",
    "lat":35.728649,
    "lon":139.682797
  },
  {
    "id":257,
    "name":"このはの家",
    "address":"豊島区南長崎５－１８－７　コーポ藤１階１０２",
    "lat":35.728552,
    "lon":139.68155
  },
  {
    "id":258,
    "name":"第二あゆみ福祉センター",
    "address":"北区東十条３－１４－２５",
    "lat":35.765407,
    "lon":139.729141
  },
  {
    "id":259,
    "name":"あゆみ福祉センター",
    "address":"北区東十条６－５－１９",
    "lat":35.770165,
    "lon":139.725733
  },
  {
    "id":260,
    "name":"東京都北区立王子福祉作業所",
    "address":"北区王子２－１９－２０",
    "lat":35.758664,
    "lon":139.736549
  },
  {
    "id":261,
    "name":"たいよう",
    "address":"北区豊島５－３－３５",
    "lat":35.765083,
    "lon":139.749889
  },
  {
    "id":262,
    "name":"あいアイ工房",
    "address":"北区田端新町３－３６－６　四季ビル１階",
    "lat":35.742056,
    "lon":139.76422
  },
  {
    "id":263,
    "name":"フリッカ・ビーウーマン",
    "address":"北区田端６－３－１８　ビラカミムラ３０２",
    "lat":35.738812,
    "lon":139.758987
  },
  {
    "id":264,
    "name":"東京都北区立たばた福祉作業所",
    "address":"北区西ケ原１－１９－１２",
    "lat":35.74278,
    "lon":139.747571
  },
  {
    "id":265,
    "name":"就労・生活支援センター飛鳥晴山苑",
    "address":"北区西ケ原４－５１－１",
    "lat":35.74141,
    "lon":139.735978
  },
  {
    "id":266,
    "name":"つばさ工房",
    "address":"北区西ケ原２－４０－１２　パーソナルハイツ１階",
    "lat":35.746421,
    "lon":139.741571
  },
  {
    "id":267,
    "name":"ワーク・イン・あすか",
    "address":"北区西ケ原１－１－１３　ヴェルテＮ１０１",
    "lat":35.739586,
    "lon":139.748038
  },
  {
    "id":268,
    "name":"第二ワーク・イン・あすか",
    "address":"北区西ケ原２－３５－８",
    "lat":35.747049,
    "lon":139.740202
  },
  {
    "id":269,
    "name":"ワーク・スペース・ポピー",
    "address":"北区十条仲原３－９－１",
    "lat":35.766446,
    "lon":139.720434
  },
  {
    "id":270,
    "name":"工房ヴイ",
    "address":"北区上十条２－１－１２",
    "lat":35.757492,
    "lon":139.722164
  },
  {
    "id":271,
    "name":"ワークハウスペガサス",
    "address":"北区神谷２－１７－２",
    "lat":35.770307,
    "lon":139.728349
  },
  {
    "id":272,
    "name":"来夢",
    "address":"北区赤羽南２－６－６　スカイブリッジ２１",
    "lat":35.772245,
    "lon":139.722733
  },
  {
    "id":273,
    "name":"第二ワークハウスペガサス",
    "address":"北区赤羽北１－２０－２",
    "lat":35.787226,
    "lon":139.714211
  },
  {
    "id":274,
    "name":"ヴイ長屋",
    "address":"北区桐ケ丘１－９－４－Ｅ２８Ａ－１０７",
    "lat":35.776164,
    "lon":139.708562
  },
  {
    "id":275,
    "name":"東京都北区立赤羽西福祉作業所",
    "address":"北区赤羽西５－７－５",
    "lat":35.775461,
    "lon":139.710509
  },
  {
    "id":276,
    "name":"りんりんりん",
    "address":"北区赤羽西２－３－２０",
    "lat":35.773245,
    "lon":139.721611
  },
  {
    "id":277,
    "name":"町屋あさがお　",
    "address":"荒川区町屋３－２８－２",
    "lat":35.748847,
    "lon":139.782374
  },
  {
    "id":278,
    "name":"荒川区立荒川福祉作業所",
    "address":"荒川区荒川１－５３ー９",
    "lat":35.732925,
    "lon":139.785108
  },
  {
    "id":279,
    "name":"荒川ひまわり",
    "address":"荒川区荒川１－１７－３－１０３",
    "lat":35.735664,
    "lon":139.787041
  },
  {
    "id":280,
    "name":"小台橋あさがお",
    "address":"荒川区荒川４－１９－１",
    "lat":35.737052,
    "lon":139.780828
  },
  {
    "id":281,
    "name":"ワークハウス荒川",
    "address":"荒川区西尾久７－５０－６",
    "lat":35.750027,
    "lon":139.751473
  },
  {
    "id":282,
    "name":"オフィスサプライ東京",
    "address":"荒川区西尾久５－２０－１８",
    "lat":35.747905,
    "lon":139.758487
  },
  {
    "id":283,
    "name":"ワークハウス荒川第２",
    "address":"荒川区西尾久７－５１－７",
    "lat":35.750229,
    "lon":139.751409
  },
  {
    "id":284,
    "name":"荒川ひまわり第２",
    "address":"荒川区東尾久３－２０－１０　ベルメゾンエス２階",
    "lat":35.747325,
    "lon":139.770542
  },
  {
    "id":285,
    "name":"作業所ボンエルフ",
    "address":"荒川区東日暮里３－８－１６　３階",
    "lat":35.729572,
    "lon":139.782417
  },
  {
    "id":286,
    "name":"ワン・ステップ",
    "address":"荒川区東日暮里１－１０－４",
    "lat":35.73145,
    "lon":139.788513
  },
  {
    "id":287,
    "name":"studio　753",
    "address":"荒川区東日暮里６－２２－１３　１階",
    "lat":35.731375,
    "lon":139.776928
  },
  {
    "id":288,
    "name":"東京都板橋区立加賀福祉園",
    "address":"板橋区加賀１－７－２",
    "lat":35.754192,
    "lon":139.718715
  },
  {
    "id":289,
    "name":"ＪＨＣ大山",
    "address":"板橋区大山金井町３８－１２－１０４",
    "lat":35.747637,
    "lon":139.70353
  },
  {
    "id":290,
    "name":"おおやま福祉作業所",
    "address":"板橋区大山金井町２１－１",
    "lat":35.746492,
    "lon":139.70688
  },
  {
    "id":291,
    "name":"こもね作業所",
    "address":"板橋区熊野町１４－８",
    "lat":35.742565,
    "lon":139.70695
  },
  {
    "id":292,
    "name":"東京都板橋区立小茂根福祉園",
    "address":"板橋区小茂根３－１２－２１",
    "lat":35.750313,
    "lon":139.678685
  },
  {
    "id":293,
    "name":"ひあしんす城北",
    "address":"板橋区小茂根４－１８－１４",
    "lat":35.749586,
    "lon":139.67473
  },
  {
    "id":294,
    "name":"愛輪の里　雅　小茂根",
    "address":"板橋区小茂根１－２６－６",
    "lat":35.746403,
    "lon":139.677321
  },
  {
    "id":295,
    "name":"りそうとひかり",
    "address":"板橋区舟渡３－２８－１４",
    "lat":35.795675,
    "lon":139.682952
  },
  {
    "id":296,
    "name":"東京都板橋区立蓮根福祉園",
    "address":"板橋区坂下２－８－１－１０１",
    "lat":35.781732,
    "lon":139.6832
  },
  {
    "id":297,
    "name":"Ｙ’ｓコート　ゆい",
    "address":"板橋区坂下１－３４－２５　公益財団法人東京ＹＷＣＡ板橋センターつくい館",
    "lat":35.780993,
    "lon":139.684505
  },
  {
    "id":298,
    "name":"ＪＨＣ志村",
    "address":"板橋区蓮根３－２－１５　ウエクサビル３階",
    "lat":35.786156,
    "lon":139.679306
  },
  {
    "id":299,
    "name":"とくまる福祉作業所",
    "address":"板橋区蓮根３－９－２６",
    "lat":35.787492,
    "lon":139.675581
  },
  {
    "id":300,
    "name":"Ｂｅｅｃｈ",
    "address":"板橋区清水町８１－１１",
    "lat":35.767101,
    "lon":139.704396
  },
  {
    "id":301,
    "name":"東京聴覚障害者支援センター",
    "address":"板橋区志村２－１９－５",
    "lat":35.775286,
    "lon":139.687852
  },
  {
    "id":302,
    "name":"東京都板橋区立前野福祉園",
    "address":"板橋区前野町４丁目１６番１号",
    "lat":35.771647,
    "lon":139.689869
  },
  {
    "id":303,
    "name":"まえの福祉作業所",
    "address":"板橋区前野町３－１７－１２",
    "lat":35.768503,
    "lon":139.69135
  },
  {
    "id":304,
    "name":"愛輪の里　雅　前野町",
    "address":"板橋区前野町２－３９－４　１０１",
    "lat":35.766317,
    "lon":139.690483
  },
  {
    "id":305,
    "name":"ときわの杜",
    "address":"板橋区常盤台３－２７－１２",
    "lat":35.761732,
    "lon":139.682873
  },
  {
    "id":306,
    "name":"愛輪の里　雅",
    "address":"板橋区東新町２－２０－１",
    "lat":35.754219,
    "lon":139.680748
  },
  {
    "id":307,
    "name":"東京都板橋区立高島平福祉園",
    "address":"板橋区高島平９－２５－１２",
    "lat":35.79048,
    "lon":139.668176
  },
  {
    "id":308,
    "name":"リトルハウス",
    "address":"板橋区高島平９－２４－４",
    "lat":35.790055,
    "lon":139.668082
  },
  {
    "id":309,
    "name":"東京都板橋福祉工場　就労継続支援Ｂ型事業所",
    "address":"板橋区高島平９－４２－７",
    "lat":35.791577,
    "lon":139.66929
  },
  {
    "id":310,
    "name":"東京都板橋区立徳丸福祉園",
    "address":"板橋区徳丸３－４１－１６",
    "lat":35.775607,
    "lon":139.656391
  },
  {
    "id":311,
    "name":"東京都板橋区立赤塚福祉園",
    "address":"板橋区赤塚６－１９－１４",
    "lat":35.776973,
    "lon":139.645084
  },
  {
    "id":312,
    "name":"ＪＨＣ秋桜",
    "address":"板橋区赤塚２－１５－２０",
    "lat":35.772835,
    "lon":139.644526
  },
  {
    "id":313,
    "name":"ＪＨＣ赤塚",
    "address":"板橋区赤塚１－８－１５",
    "lat":35.770955,
    "lon":139.646773
  },
  {
    "id":314,
    "name":"コア・デイケア・センター",
    "address":"板橋区赤塚４－３３－１１",
    "lat":35.786614,
    "lon":139.640723
  },
  {
    "id":315,
    "name":"ｆｔｌ　ビー・ワーク",
    "address":"板橋区成増２－２３－１　太郎第二ビル",
    "lat":35.778698,
    "lon":139.630574
  },
  {
    "id":316,
    "name":"たんぽぽ",
    "address":"練馬区練馬２－１４－９",
    "lat":35.742153,
    "lon":139.652871
  },
  {
    "id":317,
    "name":"かすたねっと桜台",
    "address":"練馬区練馬２－１－９",
    "lat":35.741336,
    "lon":139.65604
  },
  {
    "id":318,
    "name":"銀杏",
    "address":"練馬区練馬１－２６－６",
    "lat":35.739061,
    "lon":139.655212
  },
  {
    "id":319,
    "name":"共同作業所ホサナショップ",
    "address":"練馬区桜台１－１２－５－２０３",
    "lat":35.739431,
    "lon":139.662837
  },
  {
    "id":320,
    "name":"あんずの家",
    "address":"練馬区桜台１－８－２　ニュー桜台ビル",
    "lat":35.739195,
    "lon":139.662437
  },
  {
    "id":321,
    "name":"すのうべる",
    "address":"練馬区旭丘１－３３－４　森田方１階",
    "lat":35.733787,
    "lon":139.676297
  },
  {
    "id":322,
    "name":"えごのみ",
    "address":"練馬区栄町３６－１　グレースコートＢ１－Ｃ",
    "lat":35.739056,
    "lon":139.670661
  },
  {
    "id":323,
    "name":"ユニバースショップ",
    "address":"練馬区豊玉北５－６－２",
    "lat":35.735492,
    "lon":139.656046
  },
  {
    "id":324,
    "name":"ねりま事業所",
    "address":"練馬区豊玉中４－１０－６",
    "lat":35.731062,
    "lon":139.648947
  },
  {
    "id":325,
    "name":"すまいる・フォレスト",
    "address":"練馬区谷原５－２２－２　ＭＫＬビル３Ｆ",
    "lat":35.750212,
    "lon":139.608163
  },
  {
    "id":326,
    "name":"山彦作業所",
    "address":"練馬区富士見台２－１９－９",
    "lat":35.735733,
    "lon":139.62406
  },
  {
    "id":327,
    "name":"共同作業所ほっとすぺーす練馬",
    "address":"練馬区富士見台１－２６－１９　ロイヤルハイネス１０２号",
    "lat":35.735108,
    "lon":139.619079
  },
  {
    "id":328,
    "name":"ワークショップ石神井",
    "address":"練馬区石神井町７－１７－４",
    "lat":35.741754,
    "lon":139.596015
  },
  {
    "id":329,
    "name":"練馬区立白百合福祉作業所",
    "address":"練馬区石神井町５－１３－１０",
    "lat":35.737138,
    "lon":139.600614
  },
  {
    "id":330,
    "name":"ほっとすぺーす関町",
    "address":"練馬区石神井台７－１３－１４",
    "lat":35.730582,
    "lon":139.577991
  },
  {
    "id":331,
    "name":"やすらぎラウンジ",
    "address":"練馬区石神井台８－２２－６",
    "lat":35.737648,
    "lon":139.579891
  },
  {
    "id":332,
    "name":"やすらぎの杜",
    "address":"練馬区関町北５－７－１０",
    "lat":35.731907,
    "lon":139.571717
  },
  {
    "id":333,
    "name":"Ｈｏｔ　Ｊｏｂ",
    "address":"練馬区関町東１－１－８－２階",
    "lat":35.722833,
    "lon":139.585052
  },
  {
    "id":334,
    "name":"つくりっこの家クラブハウス",
    "address":"練馬区大泉学園町１－２３－５",
    "lat":35.762154,
    "lon":139.590831
  },
  {
    "id":335,
    "name":"大泉障害者支援ホーム",
    "address":"練馬区大泉学園町９－４－２",
    "lat":35.775805,
    "lon":139.594589
  },
  {
    "id":336,
    "name":"練馬区立かたくり福祉作業所",
    "address":"練馬区大泉町３－２７－１０",
    "lat":35.767067,
    "lon":139.59825
  },
  {
    "id":337,
    "name":"大泉学園実習ホーム",
    "address":"練馬区大泉町４－２０－６",
    "lat":35.761507,
    "lon":139.598261
  },
  {
    "id":338,
    "name":"練馬区立大泉福祉作業所",
    "address":"練馬区東大泉２－１１－２２",
    "lat":35.751636,
    "lon":139.59612
  },
  {
    "id":339,
    "name":"べるはうす",
    "address":"練馬区東大泉３－６６－１６　大泉ガーデン内",
    "lat":35.756521,
    "lon":139.588048
  },
  {
    "id":340,
    "name":"ねりま第二事業所",
    "address":"練馬区東大泉２－１－１５",
    "lat":35.749542,
    "lon":139.595714
  },
  {
    "id":341,
    "name":"トントゥハウス",
    "address":"練馬区東大泉３－１８－１５",
    "lat":35.751514,
    "lon":139.587159
  },
  {
    "id":342,
    "name":"あかねの会　就労支援室",
    "address":"練馬区春日町１－１８－３６",
    "lat":35.748918,
    "lon":139.647588
  },
  {
    "id":343,
    "name":"ねりま高松事業所",
    "address":"練馬区高松４－３１－１０",
    "lat":35.751587,
    "lon":139.623426
  },
  {
    "id":344,
    "name":"やすらぎ夢工房",
    "address":"練馬区土支田３－２９－２５",
    "lat":35.762452,
    "lon":139.60906
  },
  {
    "id":345,
    "name":"練馬区立北町福祉作業所",
    "address":"練馬区北町８－２－１２",
    "lat":35.76425,
    "lon":139.651026
  },
  {
    "id":346,
    "name":"やまびこ第二作業所",
    "address":"練馬区北町７－２０－３６",
    "lat":35.763189,
    "lon":139.650492
  },
  {
    "id":347,
    "name":"ウェルネス　アンド　ワークス",
    "address":"練馬区北町６－３５－１５　八鍬ビル１階",
    "lat":35.75749,
    "lon":139.649182
  },
  {
    "id":348,
    "name":"愛輪の里　雅　錦",
    "address":"練馬区錦１－１６－１０",
    "lat":35.757665,
    "lon":139.670308
  },
  {
    "id":349,
    "name":"アトリエ･ミック",
    "address":"足立区大谷田１－４１－８",
    "lat":35.779206,
    "lon":139.845667
  },
  {
    "id":350,
    "name":"足立区大谷田就労支援センター",
    "address":"足立区大谷田１－４４－３",
    "lat":35.779986,
    "lon":139.845286
  },
  {
    "id":351,
    "name":"綾瀬スマイル工房",
    "address":"足立区中川４－７－３",
    "lat":35.772393,
    "lon":139.844639
  },
  {
    "id":352,
    "name":"綾瀬共同作業所",
    "address":"足立区東綾瀬１－２３－５　雅マンション１０１",
    "lat":35.764982,
    "lon":139.82951
  },
  {
    "id":353,
    "name":"綾瀬ひまわり園",
    "address":"足立区綾瀬７－２－７",
    "lat":35.774837,
    "lon":139.824238
  },
  {
    "id":354,
    "name":"綾瀬なないろ園",
    "address":"足立区綾瀬７－１４－１２",
    "lat":35.773334,
    "lon":139.827141
  },
  {
    "id":355,
    "name":"すたっかぁと",
    "address":"足立区綾瀬２－３７－１",
    "lat":35.75935,
    "lon":139.829305
  },
  {
    "id":356,
    "name":"コレカラ堂",
    "address":"足立区谷中３－７－２１",
    "lat":35.778872,
    "lon":139.834934
  },
  {
    "id":357,
    "name":"アリス",
    "address":"足立区中央本町１－１８－１７",
    "lat":35.775106,
    "lon":139.805387
  },
  {
    "id":358,
    "name":"ラトリエＡＯＩ",
    "address":"足立区青井１－１７－７",
    "lat":35.774667,
    "lon":139.814072
  },
  {
    "id":359,
    "name":"ワーカーズコープ青井",
    "address":"足立区青井５－１０－２",
    "lat":35.776892,
    "lon":139.818005
  },
  {
    "id":360,
    "name":"はなさく第二共同作業所　",
    "address":"足立区柳原１－１－１５　柳原共同会館",
    "lat":35.746232,
    "lon":139.810797
  },
  {
    "id":361,
    "name":"メロディー竹の塚",
    "address":"足立区保木間１－１－１３　足立水道会館２０１",
    "lat":35.788999,
    "lon":139.804061
  },
  {
    "id":362,
    "name":"ボンサンス・千寿",
    "address":"足立区千住４－３－９",
    "lat":35.753386,
    "lon":139.801408
  },
  {
    "id":363,
    "name":"Ｓ．Ｇ．Ｓ．さんらいず",
    "address":"足立区千住元町１０－７",
    "lat":35.754566,
    "lon":139.792833
  },
  {
    "id":364,
    "name":"神明福祉作業所",
    "address":"足立区神明南２－６－１８",
    "lat":35.787796,
    "lon":139.833115
  },
  {
    "id":365,
    "name":"一粒の麦",
    "address":"足立区花畑４－３４－１６",
    "lat":35.805352,
    "lon":139.804797
  },
  {
    "id":366,
    "name":"のんの",
    "address":"足立区保木間１－１－３　東潤ビル２階",
    "lat":35.789201,
    "lon":139.802992
  },
  {
    "id":367,
    "name":"渕江作業所",
    "address":"足立区保木間３－４－１３　シオガマビル１階",
    "lat":35.796309,
    "lon":139.803209
  },
  {
    "id":368,
    "name":"花畑共同作業所",
    "address":"足立区東六月町５－２０",
    "lat":35.788632,
    "lon":139.804256
  },
  {
    "id":369,
    "name":"保木間作業所",
    "address":"足立区保塚町９－１４",
    "lat":35.787024,
    "lon":139.814002
  },
  {
    "id":370,
    "name":"葦の会作業所",
    "address":"足立区東伊興１－１４－７",
    "lat":35.804504,
    "lon":139.782616
  },
  {
    "id":371,
    "name":"希望の苑",
    "address":"足立区竹の塚７－１９－９",
    "lat":35.800822,
    "lon":139.795945
  },
  {
    "id":372,
    "name":"竹の塚ひまわり園",
    "address":"足立区竹の塚７－１９－７",
    "lat":35.8007,
    "lon":139.795551
  },
  {
    "id":373,
    "name":"足立区精神障がい者自立支援センター",
    "address":"足立区竹の塚６－１８－４",
    "lat":35.796617,
    "lon":139.792629
  },
  {
    "id":374,
    "name":"協立作業所",
    "address":"足立区梅島３－７－２１",
    "lat":35.775464,
    "lon":139.796732
  },
  {
    "id":375,
    "name":"就労継続支援Ｂ型事業所ＷＥＬ’Ｓ　ＦＬＡＴ",
    "address":"足立区舎人６－６－２２",
    "lat":35.815344,
    "lon":139.765964
  },
  {
    "id":376,
    "name":"諏訪木作業所",
    "address":"足立区西新井３－１０－１７",
    "lat":35.78787,
    "lon":139.783927
  },
  {
    "id":377,
    "name":"けい　SHARE",
    "address":"足立区西新井２－３２－１４　サンセール西新井１階",
    "lat":35.786012,
    "lon":139.779733
  },
  {
    "id":378,
    "name":"就労支援施設　ウィズユー",
    "address":"足立区興野２－１８－１２",
    "lat":35.769258,
    "lon":139.777984
  },
  {
    "id":379,
    "name":"ベルの会共同作業所",
    "address":"足立区西新井本町２－１５－７",
    "lat":35.777355,
    "lon":139.772278
  },
  {
    "id":380,
    "name":"萌作業所",
    "address":"足立区梅田２－１９－１",
    "lat":35.764585,
    "lon":139.801129
  },
  {
    "id":381,
    "name":"コスモス会",
    "address":"足立区本木西町１７－１８",
    "lat":35.762206,
    "lon":139.777912
  },
  {
    "id":382,
    "name":"谷在家福祉作業所",
    "address":"足立区谷在家３－１３－１",
    "lat":35.788325,
    "lon":139.765734
  },
  {
    "id":383,
    "name":"アトリエほっと・しかはま",
    "address":"足立区鹿浜７－２３－１３",
    "lat":35.785784,
    "lon":139.762174
  },
  {
    "id":384,
    "name":"かがやき夢工場",
    "address":"葛飾区小菅４－８－６　エバー綾瀬２階～４階",
    "lat":35.761244,
    "lon":139.82468
  },
  {
    "id":385,
    "name":"Craft",
    "address":"葛飾区東堀切１－１６－２２",
    "lat":35.749685,
    "lon":139.835294
  },
  {
    "id":386,
    "name":"第２あすなろの家",
    "address":"葛飾区宝町２－２－２７",
    "lat":35.744766,
    "lon":139.835164
  },
  {
    "id":387,
    "name":"レッツ・エンジョイ",
    "address":"葛飾区堀切２－６－４　ぷれじお華３階",
    "lat":35.743616,
    "lon":139.824423
  },
  {
    "id":388,
    "name":"就労継続支援B型事業所　天使のランドリー",
    "address":"葛飾区東立石２－１８－４",
    "lat":35.732561,
    "lon":139.848499
  },
  {
    "id":389,
    "name":"きね川福祉作業所",
    "address":"葛飾区東四つ木３－８－１０",
    "lat":35.729588,
    "lon":139.838278
  },
  {
    "id":390,
    "name":"就労支援センターファンタジア",
    "address":"葛飾区細田５－１６－１１",
    "lat":35.738242,
    "lon":139.876299
  },
  {
    "id":391,
    "name":"奥戸福祉館",
    "address":"葛飾区奥戸３－１７－４－１０１",
    "lat":35.730059,
    "lon":139.861187
  },
  {
    "id":392,
    "name":"しょうぶエバンズ",
    "address":"葛飾区奥戸１－１－１",
    "lat":35.728717,
    "lon":139.850907
  },
  {
    "id":393,
    "name":"シャイン",
    "address":"葛飾区奥戸２－１－８",
    "lat":35.733228,
    "lon":139.855923
  },
  {
    "id":394,
    "name":"あすなろの家",
    "address":"葛飾区新小岩３－２０－６",
    "lat":35.715325,
    "lon":139.866151
  },
  {
    "id":395,
    "name":"やすらぎリバーシティ",
    "address":"葛飾区新小岩１－５－２",
    "lat":35.71383,
    "lon":139.853847
  },
  {
    "id":396,
    "name":"グリーンカフェ",
    "address":"葛飾区新小岩１－４９－２　古屋ビル３階",
    "lat":35.71571,
    "lon":139.859621
  },
  {
    "id":397,
    "name":"西水元福祉館",
    "address":"葛飾区西水元３－１１－１",
    "lat":35.788404,
    "lon":139.847005
  },
  {
    "id":398,
    "name":"水元そよかぜ園",
    "address":"葛飾区水元５－１６－１１",
    "lat":35.789346,
    "lon":139.862899
  },
  {
    "id":399,
    "name":"叶夢",
    "address":"葛飾区南水元２－２３－２０　センチュリーライム１階",
    "lat":35.778014,
    "lon":139.858013
  },
  {
    "id":400,
    "name":"社会福祉法人東京コロニー　東京都葛飾福祉工場",
    "address":"葛飾区金町２－８－２０",
    "lat":35.764547,
    "lon":139.869124
  },
  {
    "id":401,
    "name":"あさひ",
    "address":"葛飾区金町６－５－８",
    "lat":35.768607,
    "lon":139.871704
  },
  {
    "id":402,
    "name":"かがやけ第２共同作業所",
    "address":"葛飾区新宿１－１－１５",
    "lat":35.757192,
    "lon":139.859466
  },
  {
    "id":403,
    "name":"就労支援施設ビオラ",
    "address":"葛飾区新宿３－９－１１",
    "lat":35.760231,
    "lon":139.86293
  },
  {
    "id":404,
    "name":"さくらハウス",
    "address":"葛飾区新宿２－１１－１１　コイズミハイツ１０１",
    "lat":35.763011,
    "lon":139.857808
  },
  {
    "id":405,
    "name":"葛飾しょうぶ園",
    "address":"葛飾区高砂二丁目８番１号",
    "lat":35.748865,
    "lon":139.863797
  },
  {
    "id":406,
    "name":"高砂福祉館",
    "address":"葛飾区高砂５－１０－１",
    "lat":35.751804,
    "lon":139.864011
  },
  {
    "id":407,
    "name":"就労移行支援施設すずかぜ",
    "address":"葛飾区亀有３－１６－１０　たちばなやビル２階",
    "lat":35.764161,
    "lon":139.848636
  },
  {
    "id":408,
    "name":"パランしょうぶ",
    "address":"葛飾区青戸８－２４－２７",
    "lat":35.757898,
    "lon":139.854803
  },
  {
    "id":409,
    "name":"青戸しょうぶ",
    "address":"葛飾区青戸五丁目２０番６号",
    "lat":35.750157,
    "lon":139.854317
  },
  {
    "id":410,
    "name":"白鳥福祉館",
    "address":"葛飾区白鳥４－８－１",
    "lat":35.752409,
    "lon":139.846395
  },
  {
    "id":411,
    "name":"もぐらの家",
    "address":"江戸川区春江町３－２１－６",
    "lat":35.69336,
    "lon":139.888819
  },
  {
    "id":412,
    "name":"トリコローレ",
    "address":"江戸川区江戸川２－８－９３　セントラルハウス１階",
    "lat":35.687334,
    "lon":139.903302
  },
  {
    "id":413,
    "name":"ＹＳＧ　土の夢",
    "address":"江戸川区西一之江４－１６－１１　前波ビル１階",
    "lat":35.694361,
    "lon":139.87424
  },
  {
    "id":414,
    "name":"エスプリドゥ",
    "address":"江戸川区東小松川１－１３－１－１Ｆ・３Ｆ",
    "lat":35.69874,
    "lon":139.86766
  },
  {
    "id":415,
    "name":"ＰＣ工房",
    "address":"江戸川区小松川１－５－２　トニワンビル３０５号室",
    "lat":35.688991,
    "lon":139.850273
  },
  {
    "id":416,
    "name":"イーストフライト",
    "address":"江戸川区小松川３－２－１　テクノタウン３０６",
    "lat":35.696756,
    "lon":139.847592
  },
  {
    "id":417,
    "name":"第二悠遊舎えどがわ",
    "address":"江戸川区平井１－６－１０　チェルシー泉１階",
    "lat":35.701628,
    "lon":139.848587
  },
  {
    "id":418,
    "name":"すみれ福祉作業所",
    "address":"江戸川区上一色３－２７－３　福島ビル１階・２階",
    "lat":35.730035,
    "lon":139.872811
  },
  {
    "id":419,
    "name":"東京光の村授産学園",
    "address":"江戸川区北小岩２－３３－３",
    "lat":35.737364,
    "lon":139.88754
  },
  {
    "id":420,
    "name":"第二オハナ",
    "address":"江戸川区上篠崎４－１０－７",
    "lat":35.709248,
    "lon":139.897265
  },
  {
    "id":421,
    "name":"さざんくろす篠崎",
    "address":"江戸川区上篠崎２－４－２１",
    "lat":35.711222,
    "lon":139.901159
  },
  {
    "id":422,
    "name":"エルムワークメイト",
    "address":"江戸川区南小岩６－５－９",
    "lat":35.730326,
    "lon":139.877574
  },
  {
    "id":423,
    "name":"小岩作業所",
    "address":"江戸川区南小岩３－９－６　テクノプラザビル１Ｆ",
    "lat":35.725791,
    "lon":139.885521
  },
  {
    "id":424,
    "name":"江戸川区立福祉作業所",
    "address":"江戸川区西小岩３－２５－１５",
    "lat":35.737678,
    "lon":139.877216
  },
  {
    "id":425,
    "name":"第三オハナ",
    "address":"江戸川区篠崎町２－２－１８",
    "lat":35.704854,
    "lon":139.905689
  },
  {
    "id":426,
    "name":"味噌工房わくわく",
    "address":"江戸川区篠崎町１－６－２２",
    "lat":35.709584,
    "lon":139.904639
  },
  {
    "id":427,
    "name":"元明館",
    "address":"江戸川区南篠崎町２－３４－６　第６ストークマンション１０２",
    "lat":35.692294,
    "lon":139.902304
  },
  {
    "id":428,
    "name":"ジョブアンティ",
    "address":"江戸川区鹿骨１－６１－８　１階",
    "lat":35.7106,
    "lon":139.890254
  },
  {
    "id":429,
    "name":"るーぷ",
    "address":"江戸川区春江町４－１８－１５　インスコート１０１",
    "lat":35.682902,
    "lon":139.877135
  },
  {
    "id":430,
    "name":"江戸川区立希望の家",
    "address":"江戸川区江戸川５－３２－６",
    "lat":35.673036,
    "lon":139.882976
  },
  {
    "id":431,
    "name":"菜の花作業所",
    "address":"江戸川区中葛西２－８－２　",
    "lat":35.673019,
    "lon":139.872238
  },
  {
    "id":432,
    "name":"江戸川かもめ第一事業所",
    "address":"江戸川区中葛西２－８－１",
    "lat":35.672919,
    "lon":139.872083
  },
  {
    "id":433,
    "name":"江戸川かもめ第二事業所",
    "address":"江戸川区中葛西２－８－２１",
    "lat":35.672927,
    "lon":139.872252
  },
  {
    "id":434,
    "name":"就労継続支援事業所　ワーク花きりん",
    "address":"江戸川区中葛西６－１０－７　江戸川ビル１階",
    "lat":35.661026,
    "lon":139.866411
  },
  {
    "id":435,
    "name":"江戸川かもめ第三事業所",
    "address":"江戸川区西葛西７－２８－１８",
    "lat":35.658976,
    "lon":139.862564
  },
  {
    "id":436,
    "name":"ワークスペースことのはBooks",
    "address":"江戸川区船堀２－２１－６　藤ビル１階",
    "lat":35.681928,
    "lon":139.861508
  },
  {
    "id":437,
    "name":"Ｓｏｒａ",
    "address":"八王子市戸吹町５５７",
    "lat":35.712368,
    "lon":139.282595
  },
  {
    "id":438,
    "name":"ESPRIT",
    "address":"八王子市戸吹町１１１－３－１Ｆ　　",
    "lat":35.706892,
    "lon":139.30028
  },
  {
    "id":439,
    "name":"ぽぷら八王子",
    "address":"八王子市戸吹町２１０４　株式会社エフピコ八王子ＰＷ工場内",
    "lat":35.711111,
    "lon":139.291511
  },
  {
    "id":440,
    "name":"あけぼの事業所",
    "address":"八王子市滝山町１－５３－１",
    "lat":35.689465,
    "lon":139.340677
  },
  {
    "id":441,
    "name":"滝山事業所",
    "address":"八王子市滝山町１－１２－１",
    "lat":35.687743,
    "lon":139.34268
  },
  {
    "id":442,
    "name":"梅坪事業所",
    "address":"八王子市梅坪町１１６－１",
    "lat":35.686909,
    "lon":139.339639
  },
  {
    "id":443,
    "name":"八王子福祉作業所",
    "address":"八王子市元本郷町４－１３－３",
    "lat":35.664459,
    "lon":139.313047
  },
  {
    "id":444,
    "name":"いちょう工房　そら",
    "address":"八王子市元本郷町２－１９－１",
    "lat":35.665709,
    "lon":139.318636
  },
  {
    "id":445,
    "name":"かたつむり食堂",
    "address":"八王子市元本郷町３－１６－１５",
    "lat":35.664995,
    "lon":139.31565
  },
  {
    "id":446,
    "name":"木馬工房",
    "address":"八王子市元本郷町３－１７－１３",
    "lat":35.665667,
    "lon":139.315147
  },
  {
    "id":447,
    "name":"ミナモ",
    "address":"八王子市元本郷町１－３１－１",
    "lat":35.66597,
    "lon":139.321244
  },
  {
    "id":448,
    "name":"ほっとスペース八王子",
    "address":"八王子市八幡町１３－２　ふくしまやビル２階",
    "lat":35.660645,
    "lon":139.328363
  },
  {
    "id":449,
    "name":"オープンスペース本郷町",
    "address":"八王子市小門町７５－７　エイビット小門町ビル１・２階",
    "lat":35.659423,
    "lon":139.323463
  },
  {
    "id":450,
    "name":"桜草　追分工房",
    "address":"八王子市追分町２２－４",
    "lat":35.661853,
    "lon":139.318002
  },
  {
    "id":451,
    "name":"いちょう企画",
    "address":"八王子市本町４－７　東屋ビル",
    "lat":35.661918,
    "lon":139.334223
  },
  {
    "id":452,
    "name":"ファースト・ステップ",
    "address":"八王子市八日町７－２",
    "lat":35.660768,
    "lon":139.32994
  },
  {
    "id":453,
    "name":"きゃとる",
    "address":"八王子市八日町１－４－１０１",
    "lat":35.659374,
    "lon":139.332768
  },
  {
    "id":454,
    "name":"クレヨンハウス",
    "address":"八王子市寺町６８－２２",
    "lat":35.655266,
    "lon":139.334807
  },
  {
    "id":455,
    "name":"デイサービスＴＲＹ",
    "address":"八王子市寺町６０－５",
    "lat":35.656954,
    "lon":139.334693
  },
  {
    "id":456,
    "name":"ピアわかくさ",
    "address":"八王子市横山町２０－１９　橋本ビル２階、３階",
    "lat":35.660518,
    "lon":139.336959
  },
  {
    "id":457,
    "name":"希望の里",
    "address":"八王子市上川町３８８９",
    "lat":35.707736,
    "lon":139.240319
  },
  {
    "id":458,
    "name":"グループＧ",
    "address":"八王子市西寺方町３６６　グランドソレイユ１階",
    "lat":35.674739,
    "lon":139.266159
  },
  {
    "id":459,
    "name":"ホープスカイ",
    "address":"八王子市下恩方町１７４８－１　グローブ武田ビル店舗Ｂ及び２０５号室",
    "lat":35.672295,
    "lon":139.259449
  },
  {
    "id":460,
    "name":"パン工房「うさぎとかめ」",
    "address":"八王子市大塚４２２－３",
    "lat":35.639975,
    "lon":139.421056
  },
  {
    "id":461,
    "name":"草夢",
    "address":"八王子市松が谷１１－５－１０２",
    "lat":35.627796,
    "lon":139.415109
  },
  {
    "id":462,
    "name":"かたくりの家",
    "address":"八王子市堀之内１２３６",
    "lat":35.63443,
    "lon":139.390869
  },
  {
    "id":463,
    "name":"由木工房",
    "address":"八王子市堀之内１２３６－１",
    "lat":35.63443,
    "lon":139.390869
  },
  {
    "id":464,
    "name":"夢畑",
    "address":"八王子市堀之内１０５２",
    "lat":35.63853,
    "lon":139.393519
  },
  {
    "id":465,
    "name":"ぷらさｄｅかたくり",
    "address":"八王子市松木１４－１１",
    "lat":35.625604,
    "lon":139.391486
  },
  {
    "id":466,
    "name":"まんじゅう屋遊夢",
    "address":"八王子市松木４８－１０　グランドール１０３、１０２",
    "lat":35.623685,
    "lon":139.394425
  },
  {
    "id":467,
    "name":"ひなげし",
    "address":"八王子市松木３５－７－１０２",
    "lat":35.62509,
    "lon":139.396719
  },
  {
    "id":468,
    "name":"パソコンサロン夢像",
    "address":"八王子市別所１－１１－８　アルデバラン１０１",
    "lat":35.622521,
    "lon":139.398353
  },
  {
    "id":469,
    "name":"夢来",
    "address":"八王子市別所１－３－１８　ラソネット２０１、２０２",
    "lat":35.624704,
    "lon":139.397341
  },
  {
    "id":470,
    "name":"いちょう工房　ゆぎ",
    "address":"八王子市下柚木２－１８－１６　ビーブル南大沢１０１",
    "lat":35.623393,
    "lon":139.378115
  },
  {
    "id":471,
    "name":"めだか販売店",
    "address":"八王子市子安町１－２－６　南口駅前ビル５Ｆ",
    "lat":35.654155,
    "lon":139.339367
  },
  {
    "id":472,
    "name":"ほほえみ（喫茶ほほえみ）",
    "address":"八王子市北野町５９６－３　北野余熱利用センター２階",
    "lat":35.655491,
    "lon":139.353477
  },
  {
    "id":473,
    "name":"すまいる工房",
    "address":"八王子市北野町５９３－１７　マンション浮羽１階",
    "lat":35.652894,
    "lon":139.352169
  },
  {
    "id":474,
    "name":"サポートセンター「なないろ」",
    "address":"八王子市北野町５３７－９",
    "lat":35.647742,
    "lon":139.351786
  },
  {
    "id":475,
    "name":"浅川園",
    "address":"八王子市川口町１５４３",
    "lat":35.68322,
    "lon":139.296842
  },
  {
    "id":476,
    "name":"きずな工房からまつ",
    "address":"八王子市川口町１５５９－８",
    "lat":35.685914,
    "lon":139.29817
  },
  {
    "id":477,
    "name":"HACHIOJI　FARMER'S　KITCHEN　ふぁむ",
    "address":"八王子市川口町３７２１－２",
    "lat":35.688569,
    "lon":139.287151
  },
  {
    "id":478,
    "name":"藍作業所",
    "address":"八王子市楢原町３８４－５",
    "lat":35.677232,
    "lon":139.31125
  },
  {
    "id":479,
    "name":"そらいろ作業所",
    "address":"八王子市上壱分方町２７４－１",
    "lat":35.680656,
    "lon":139.288396
  },
  {
    "id":480,
    "name":"八王子障害者総合支援センターとことこ",
    "address":"八王子市長房町３７４－１０　１階",
    "lat":35.655912,
    "lon":139.298554
  },
  {
    "id":481,
    "name":"ひのき工房",
    "address":"八王子市元八王子町２－１８３９－２",
    "lat":35.658517,
    "lon":139.278678
  },
  {
    "id":482,
    "name":"あらいと",
    "address":"八王子市並木町１４－２０",
    "lat":35.651707,
    "lon":139.301079
  },
  {
    "id":483,
    "name":"プレワーク",
    "address":"八王子市並木町３－３　グランドメゾン八王子１Ｆ",
    "lat":35.654323,
    "lon":139.305818
  },
  {
    "id":484,
    "name":"ビーイングスペース萌",
    "address":"八王子市東浅川町５２８－３　石井ビル",
    "lat":35.643763,
    "lon":139.293644
  },
  {
    "id":485,
    "name":"レストランあさかわ",
    "address":"八王子市東浅川町５５１－１　八王子市東浅川保健福祉センター内",
    "lat":35.645238,
    "lon":139.292025
  },
  {
    "id":486,
    "name":"ふきのとう",
    "address":"八王子市東浅川町６２５－５",
    "lat":35.643336,
    "lon":139.299619
  },
  {
    "id":487,
    "name":"れっつ",
    "address":"八王子市東浅川町５２５－５　第五小池ビル１階",
    "lat":35.643633,
    "lon":139.294869
  },
  {
    "id":488,
    "name":"ワークポート",
    "address":"八王子市千人町２－７－５",
    "lat":35.66002,
    "lon":139.311986
  },
  {
    "id":489,
    "name":"森のぱんやさん",
    "address":"八王子市千人町２－３－１",
    "lat":35.658262,
    "lon":139.31402
  },
  {
    "id":490,
    "name":"リサイクルわかくさ",
    "address":"八王子市日吉町１３－３０　仁命堂マンション２階",
    "lat":35.661609,
    "lon":139.312697
  },
  {
    "id":491,
    "name":"ハッピーフルーツ",
    "address":"八王子市裏高尾町３９７－１４",
    "lat":35.6405,
    "lon":139.266566
  },
  {
    "id":492,
    "name":"イル・ヴェント",
    "address":"八王子市緑町２９１－５",
    "lat":35.645844,
    "lon":139.321792
  },
  {
    "id":493,
    "name":"アイワークス",
    "address":"八王子市小比企町４８０－１　サニーヒルいそま２０７号",
    "lat":35.643828,
    "lon":139.320878
  },
  {
    "id":494,
    "name":"ココテラス",
    "address":"八王子市小比企町５３６－３",
    "lat":35.642186,
    "lon":139.31927
  },
  {
    "id":495,
    "name":"花音",
    "address":"立川市栄町４－３３－５　岡田ビル１階",
    "lat":35.712364,
    "lon":139.424331
  },
  {
    "id":496,
    "name":"キッチンさかえ",
    "address":"立川市栄町３－２",
    "lat":35.707831,
    "lon":139.422331
  },
  {
    "id":497,
    "name":"栄福祉作業所",
    "address":"立川市栄町５－３８－４",
    "lat":35.718155,
    "lon":139.42455
  },
  {
    "id":498,
    "name":"柏の葉",
    "address":"立川市柏町４－６６－３",
    "lat":35.730167,
    "lon":139.415472
  },
  {
    "id":499,
    "name":"立川けやき福祉作業所",
    "address":"立川市高松町３－２０－９　みくにローラー貸事務所１０１",
    "lat":35.70307,
    "lon":139.418254
  },
  {
    "id":500,
    "name":"リカバリーセンター転",
    "address":"立川市高松町１－１７－２０",
    "lat":35.708761,
    "lon":139.418015
  },
  {
    "id":501,
    "name":"アイル",
    "address":"立川市高松町３－２９－１５　浦野ハイツ１階、２０２号室",
    "lat":35.703548,
    "lon":139.420559
  },
  {
    "id":502,
    "name":"柿の木カンパニー",
    "address":"立川市曙町３－４－３　ウェルダン武藤ビル３階",
    "lat":35.700015,
    "lon":139.420401
  },
  {
    "id":503,
    "name":"ワークステーション立川",
    "address":"立川市富士見町７－３３－３",
    "lat":35.68981,
    "lon":139.39875
  },
  {
    "id":504,
    "name":"たんぽぽ",
    "address":"立川市富士見町１－１８－１０　ワコーレ立川１階１号室",
    "lat":35.69907,
    "lon":139.396286
  },
  {
    "id":505,
    "name":"立川こぶし福祉作業所",
    "address":"立川市羽衣町２－１７－１０　望月ビル",
    "lat":35.693536,
    "lon":139.428878
  },
  {
    "id":506,
    "name":"WORK　SPACE　hinata",
    "address":"立川市羽衣町２－４１－１　羽衣第一ビル１階",
    "lat":35.694049,
    "lon":139.426056
  },
  {
    "id":507,
    "name":"テン",
    "address":"立川市羽衣町２－５２－１１　１階",
    "lat":35.692816,
    "lon":139.4293
  },
  {
    "id":508,
    "name":"ワークショップモア",
    "address":"立川市錦町１－１７－１１　モアコート貴１階",
    "lat":35.69661,
    "lon":139.421854
  },
  {
    "id":509,
    "name":"ワークセンターまことくらぶ",
    "address":"立川市錦町６－２６－１５",
    "lat":35.684573,
    "lon":139.418182
  },
  {
    "id":510,
    "name":"いすきあ立川",
    "address":"立川市錦町２－１－２６　Ｎｂｕｉｌｄｉｎｇ２０２",
    "lat":35.695085,
    "lon":139.41441
  },
  {
    "id":511,
    "name":"たちかわーく",
    "address":"立川市錦町２－１２－９　１階",
    "lat":35.692238,
    "lon":139.413979
  },
  {
    "id":512,
    "name":"立川福祉作業所",
    "address":"立川市柴崎町３－１３－１１",
    "lat":35.693782,
    "lon":139.412327
  },
  {
    "id":513,
    "name":"しらゆり福祉作業所",
    "address":"立川市柴崎町３－１１－９",
    "lat":35.694668,
    "lon":139.413674
  },
  {
    "id":514,
    "name":"グループいもっこ",
    "address":"立川市一番町３－６－１",
    "lat":35.727867,
    "lon":139.381087
  },
  {
    "id":515,
    "name":"武蔵野福祉作業所",
    "address":"武蔵野市吉祥寺北町４－１２－２０",
    "lat":35.713284,
    "lon":139.566088
  },
  {
    "id":516,
    "name":"ワークセンターけやき",
    "address":"武蔵野市吉祥寺北町４－１１－１６",
    "lat":35.71575,
    "lon":139.565901
  },
  {
    "id":517,
    "name":"ワークステージりぷる",
    "address":"武蔵野市吉祥寺北町４－１２－１１　北町ほっと館１階",
    "lat":35.713426,
    "lon":139.565877
  },
  {
    "id":518,
    "name":"ライフサポートＭＥＷ、ワークショップＭＥＷ",
    "address":"武蔵野市中町３－４－９　ディアハイム武蔵野ビル１階",
    "lat":35.71224,
    "lon":139.564263
  },
  {
    "id":519,
    "name":"八幡作業所",
    "address":"武蔵野市八幡町４－５－５",
    "lat":35.719519,
    "lon":139.556194
  },
  {
    "id":520,
    "name":"ゆうあい製作所",
    "address":"武蔵野市緑町１－５－１６",
    "lat":35.714914,
    "lon":139.562093
  },
  {
    "id":521,
    "name":"ワークイン関前",
    "address":"武蔵野市関前３－４１－６",
    "lat":35.715578,
    "lon":139.550014
  },
  {
    "id":522,
    "name":"武蔵境ワーキングセンター",
    "address":"武蔵野市境南町３－１０－１",
    "lat":35.701635,
    "lon":139.541835
  },
  {
    "id":523,
    "name":"カバーヌ",
    "address":"武蔵野市境１－１７－６　興栄マンションむさしの１０６号",
    "lat":35.703882,
    "lon":139.546462
  },
  {
    "id":524,
    "name":"チャレンジャー",
    "address":"武蔵野市境南町４－２０－５",
    "lat":35.698446,
    "lon":139.536946
  },
  {
    "id":525,
    "name":"むうぷ舎中原",
    "address":"三鷹市牟礼７－５－１４－１階",
    "lat":35.682329,
    "lon":139.573194
  },
  {
    "id":526,
    "name":"すきっぷ",
    "address":"三鷹市牟礼３－８－１９",
    "lat":35.688084,
    "lon":139.581004
  },
  {
    "id":527,
    "name":"ぽけっと工房",
    "address":"三鷹市牟礼１－１８－１３　ハイツ白樺３号棟１階",
    "lat":35.684882,
    "lon":139.585243
  },
  {
    "id":528,
    "name":"むうぷ舎新川",
    "address":"三鷹市新川４－９－５",
    "lat":35.672142,
    "lon":139.570753
  },
  {
    "id":529,
    "name":"食茶房むうぷ",
    "address":"三鷹市新川６－９－２３",
    "lat":35.676949,
    "lon":139.567747
  },
  {
    "id":530,
    "name":"ワークセンター　いくせい工房",
    "address":"三鷹市新川３－１０－８－２階",
    "lat":35.678269,
    "lon":139.571716
  },
  {
    "id":531,
    "name":"ワークセンターゆうゆう舎",
    "address":"三鷹市新川３－１０－８　１階",
    "lat":35.678269,
    "lon":139.571716
  },
  {
    "id":532,
    "name":"リビングハウスマム",
    "address":"三鷹市上連雀２－１８－１６　１Ｆ",
    "lat":35.698861,
    "lon":139.556017
  },
  {
    "id":533,
    "name":"巣立ち工房",
    "address":"三鷹市下連雀４－１７－６　ミタカサンライズマンション１０２",
    "lat":35.693983,
    "lon":139.561064
  },
  {
    "id":534,
    "name":"三鷹ひまわり第一共同作業所",
    "address":"三鷹市下連雀４－８－２０",
    "lat":35.692895,
    "lon":139.562692
  },
  {
    "id":535,
    "name":"三鷹ひまわり第二共同作業所",
    "address":"三鷹市上連雀４－１－８　福祉コアかみれんＢ１",
    "lat":35.697155,
    "lon":139.558983
  },
  {
    "id":536,
    "name":"三鷹ひまわり第三共同作業所",
    "address":"三鷹市下連雀３－１１－８",
    "lat":35.697541,
    "lon":139.562972
  },
  {
    "id":537,
    "name":"ワークセンターゆめ",
    "address":"三鷹市下連雀４－１５－１８　下連雀複合施設１階",
    "lat":35.695361,
    "lon":139.561667
  },
  {
    "id":538,
    "name":"ワークセンタータートルステップ",
    "address":"三鷹市下連雀３－８－１３",
    "lat":35.698811,
    "lon":139.563713
  },
  {
    "id":539,
    "name":"巣立ち風",
    "address":"三鷹市野崎２－６－４２",
    "lat":35.68329,
    "lon":139.548488
  },
  {
    "id":540,
    "name":"工房　時",
    "address":"三鷹市野崎２－６－４１",
    "lat":35.683579,
    "lon":139.548593
  },
  {
    "id":541,
    "name":"未来工房にじ",
    "address":"三鷹市大沢１－６－３",
    "lat":35.670777,
    "lon":139.541422
  },
  {
    "id":542,
    "name":"いいあさファーム",
    "address":"青梅市成木３－３１５－７",
    "lat":35.829442,
    "lon":139.262636
  },
  {
    "id":543,
    "name":"ポラリスワーク",
    "address":"青梅市富岡１-１６８",
    "lat":35.830983,
    "lon":139.296226
  },
  {
    "id":544,
    "name":"ダックス",
    "address":"青梅市黒沢３－１７７８－１",
    "lat":35.80153,
    "lon":139.254993
  },
  {
    "id":545,
    "name":"ジョイントワークひこばえ",
    "address":"青梅市大門２－２６１－１",
    "lat":35.795681,
    "lon":139.29145
  },
  {
    "id":546,
    "name":"なかま亭",
    "address":"青梅市今寺４－６－２５",
    "lat":35.796515,
    "lon":139.298997
  },
  {
    "id":547,
    "name":"青梅市自立センター　就労支援事業所",
    "address":"青梅市今井五丁目２４３４番地の２",
    "lat":35.793435,
    "lon":139.328378
  },
  {
    "id":548,
    "name":"かすみの里",
    "address":"青梅市新町１－８－１",
    "lat":35.785674,
    "lon":139.297589
  },
  {
    "id":549,
    "name":"自立支援塾クリード新町",
    "address":"青梅市新町７－５４－６　クリード青梅新町",
    "lat":35.788297,
    "lon":139.313582
  },
  {
    "id":550,
    "name":"自立支援塾クリード青梅",
    "address":"青梅市野上町４－４－５　藤村ビル１階",
    "lat":35.788329,
    "lon":139.287553
  },
  {
    "id":551,
    "name":"自立支援塾ぱん工房",
    "address":"青梅市東青梅２－１８－５　セトル東青梅１０６・１０７",
    "lat":35.790259,
    "lon":139.27486
  },
  {
    "id":552,
    "name":"和気あいあいグリーンハウス",
    "address":"青梅市東青梅１－８－８　ケイ・コーナービル１階",
    "lat":35.789084,
    "lon":139.273527
  },
  {
    "id":553,
    "name":"青梅福祉作業所",
    "address":"青梅市千ケ瀬町３－３９３－４",
    "lat":35.785629,
    "lon":139.269202
  },
  {
    "id":554,
    "name":"わかたけ作業所",
    "address":"府中市紅葉丘１－２９－３",
    "lat":35.673918,
    "lon":139.512136
  },
  {
    "id":555,
    "name":"ギャロップ",
    "address":"府中市若松町１－９－１",
    "lat":35.669174,
    "lon":139.498853
  },
  {
    "id":556,
    "name":"童里夢工房",
    "address":"府中市緑町１－２６－１１",
    "lat":35.673851,
    "lon":139.485238
  },
  {
    "id":557,
    "name":"カンタービレ",
    "address":"府中市緑町３－１８－１３　ロイヤルプラザ東府中１階",
    "lat":35.67194,
    "lon":139.494087
  },
  {
    "id":558,
    "name":"府中ひまわり園",
    "address":"府中市押立町１－１７－１３",
    "lat":35.659686,
    "lon":139.509261
  },
  {
    "id":559,
    "name":"梅の木の家共同作業所",
    "address":"府中市清水が丘２－２－４　ダイトビル１、２Ｆ",
    "lat":35.667357,
    "lon":139.494793
  },
  {
    "id":560,
    "name":"わかまつ共同作業所",
    "address":"府中市清水が丘３－２－２０",
    "lat":35.667768,
    "lon":139.499465
  },
  {
    "id":561,
    "name":"集いの家",
    "address":"府中市南町１－４５－１",
    "lat":35.657533,
    "lon":139.470451
  },
  {
    "id":562,
    "name":"毎日ＣＡＭＰ",
    "address":"府中市本町１－１－２２　ブラーブハウス１階",
    "lat":35.668676,
    "lon":139.477911
  },
  {
    "id":563,
    "name":"西府いこいプラザ",
    "address":"府中市西府町３－２９－１７",
    "lat":35.678877,
    "lon":139.456862
  },
  {
    "id":564,
    "name":"作業所スクラム",
    "address":"府中市分梅町５－２５－１",
    "lat":35.661193,
    "lon":139.463676
  },
  {
    "id":565,
    "name":"コットンハウス",
    "address":"府中市住吉町２－１３－３　ベルメゾン住吉第２　１０１号室",
    "lat":35.658032,
    "lon":139.458746
  },
  {
    "id":566,
    "name":"プロジェクツけやきのもり",
    "address":"府中市住吉町１－６０－１０",
    "lat":35.660743,
    "lon":139.460032
  },
  {
    "id":567,
    "name":"むさし結いの家",
    "address":"府中市武蔵台１－８－１８　大貫ビル１階",
    "lat":35.687804,
    "lon":139.466872
  },
  {
    "id":568,
    "name":"レスポワール工房",
    "address":"府中市美好町１－３０－３　シャロンベテル矢代１階",
    "lat":35.672778,
    "lon":139.468553
  },
  {
    "id":569,
    "name":"ちえホーム",
    "address":"府中市栄町３－１２－１　メディカルビル・グレイス４階",
    "lat":35.687604,
    "lon":139.469405
  },
  {
    "id":570,
    "name":"FLAGS　design",
    "address":"府中市幸町２－１３－２９　府中ひだまり１０１号",
    "lat":35.678494,
    "lon":139.484671
  },
  {
    "id":571,
    "name":"ワークセンターこむたん",
    "address":"府中市寿町３－３－６",
    "lat":35.674747,
    "lon":139.473594
  },
  {
    "id":572,
    "name":"社会福祉法人府中市社会福祉協議会「は～もにぃ」",
    "address":"府中市寿町１－１　府中グリーンプラザ分館内",
    "lat":35.672784,
    "lon":139.478641
  },
  {
    "id":573,
    "name":"ワークショップさかえ",
    "address":"府中市晴見町３－１８－７　晴見町ハイツ",
    "lat":35.685855,
    "lon":139.477999
  },
  {
    "id":574,
    "name":"ぷーやんあしながくらぶ２号館",
    "address":"昭島市美堀町４－９－８",
    "lat":35.720325,
    "lon":139.352617
  },
  {
    "id":575,
    "name":"障害者就労プラザあいあい",
    "address":"昭島市美堀町３－８－１　昭島市環境コミュニケーションセンター",
    "lat":35.723219,
    "lon":139.354547
  },
  {
    "id":576,
    "name":"昭島ひまわりの家",
    "address":"昭島市拝島町２－５－１７",
    "lat":35.707779,
    "lon":139.341288
  },
  {
    "id":577,
    "name":"通所作業所こまくさ工房",
    "address":"昭島市緑町２－２９－６",
    "lat":35.714104,
    "lon":139.348645
  },
  {
    "id":578,
    "name":"食工房ゆいのもり",
    "address":"昭島市上川原町１－９－１５",
    "lat":35.709635,
    "lon":139.362719
  },
  {
    "id":579,
    "name":"ゆいのもりつつじが丘",
    "address":"昭島市つつじが丘３－５－６－１０８",
    "lat":35.71339,
    "lon":139.368094
  },
  {
    "id":580,
    "name":"ゆいのもり田中町",
    "address":"昭島市田中町１－１９－４",
    "lat":35.706535,
    "lon":139.354653
  },
  {
    "id":581,
    "name":"みしょう",
    "address":"昭島市昭和町４－７－１　昭島市保健福祉センター内",
    "lat":35.710835,
    "lon":139.364125
  },
  {
    "id":582,
    "name":"あきしま福祉作業所",
    "address":"昭島市昭和町５－８－２０",
    "lat":35.711821,
    "lon":139.359781
  },
  {
    "id":583,
    "name":"第１リサイクル洗びんセンター",
    "address":"昭島市武蔵野３－２－１９",
    "lat":35.718106,
    "lon":139.377712
  },
  {
    "id":584,
    "name":"第２リサイクル洗びんセンター",
    "address":"昭島市武蔵野３－２－１９",
    "lat":35.718106,
    "lon":139.377712
  },
  {
    "id":585,
    "name":"あんだんて",
    "address":"昭島市中神町１１５７番地３０",
    "lat":35.712079,
    "lon":139.377235
  },
  {
    "id":586,
    "name":"MIRAI",
    "address":"昭島市朝日町１－９－７　Ｋ・Ｋビル１０１号室",
    "lat":35.708116,
    "lon":139.373974
  },
  {
    "id":587,
    "name":"にこにこ食堂",
    "address":"昭島市朝日町１－５－１１",
    "lat":35.708027,
    "lon":139.375204
  },
  {
    "id":588,
    "name":"創造印刷",
    "address":"調布市東つつじケ丘２－２９－１",
    "lat":35.656341,
    "lon":139.576819
  },
  {
    "id":589,
    "name":"だいち調布事業所",
    "address":"調布市東つつじケ丘１－２－７　１階",
    "lat":35.658654,
    "lon":139.575692
  },
  {
    "id":590,
    "name":"だいち調布第２事業所",
    "address":"調布市西つつじケ丘４－２７－９－１０５",
    "lat":35.654113,
    "lon":139.576158
  },
  {
    "id":591,
    "name":"ゆうわーく",
    "address":"調布市西つつじケ丘３－３２－２０　宝陽ビル２階",
    "lat":35.65861,
    "lon":139.573661
  },
  {
    "id":592,
    "name":"わかば第一事業所",
    "address":"調布市深大寺北町５－３５－２６",
    "lat":35.680646,
    "lon":139.550229
  },
  {
    "id":593,
    "name":"第２ポピーの家",
    "address":"調布市八雲台２－１１－２４",
    "lat":35.653333,
    "lon":139.560449
  },
  {
    "id":594,
    "name":"ぴいす",
    "address":"調布市深大寺元町４－７－１２",
    "lat":35.668541,
    "lon":139.542411
  },
  {
    "id":595,
    "name":"めじろ作業所",
    "address":"調布市国領町１－３－１　調布セントラルアパート１階",
    "lat":35.651016,
    "lon":139.55118
  },
  {
    "id":596,
    "name":"わかば第二事業所",
    "address":"調布市国領町２－１８－１　アトラック国領１階",
    "lat":35.652102,
    "lon":139.559463
  },
  {
    "id":597,
    "name":"就労継続支援B型事業所ファーストステップ",
    "address":"調布市染地３－１－９４６",
    "lat":35.638321,
    "lon":139.560233
  },
  {
    "id":598,
    "name":"しごと場大好き",
    "address":"調布市布田３－２０－１",
    "lat":35.647883,
    "lon":139.547709
  },
  {
    "id":599,
    "name":"クッキングハウス",
    "address":"調布市布田１－１０－５　稲毛家ビル１階",
    "lat":35.654249,
    "lon":139.546405
  },
  {
    "id":600,
    "name":"旭出調布福祉作業所",
    "address":"調布市小島町３－２６－１",
    "lat":35.647014,
    "lon":139.53578
  },
  {
    "id":601,
    "name":"はあと・ふる・えりあ",
    "address":"調布市小島町１－２２－７",
    "lat":35.654638,
    "lon":139.540153
  },
  {
    "id":602,
    "name":"調布くすの木作業所",
    "address":"調布市小島町３－７２－２６",
    "lat":35.648281,
    "lon":139.541334
  },
  {
    "id":603,
    "name":"リフレッシュ工房",
    "address":"調布市小島町１－４－１８　メゾン調布１０２号室",
    "lat":35.655688,
    "lon":139.541736
  },
  {
    "id":604,
    "name":"調布市知的障害者援護施設すまいる",
    "address":"調布市西町２９０－４",
    "lat":35.668166,
    "lon":139.523932
  },
  {
    "id":605,
    "name":"シェア",
    "address":"調布市下石原１－４２－１１",
    "lat":35.656301,
    "lon":139.534207
  },
  {
    "id":606,
    "name":"リサイクルショップ　不思議屋",
    "address":"調布市下石原１－５－５",
    "lat":35.657621,
    "lon":139.534801
  },
  {
    "id":607,
    "name":"こひつじ舎",
    "address":"調布市上石原１－３６－７",
    "lat":35.659098,
    "lon":139.532071
  },
  {
    "id":608,
    "name":"爽々苑",
    "address":"調布市上石原３－７－８",
    "lat":35.653688,
    "lon":139.525719
  },
  {
    "id":609,
    "name":"高次脳機能障がい者活動センター調布ドリーム",
    "address":"調布市飛田給２－２２－７",
    "lat":35.65972,
    "lon":139.523921
  },
  {
    "id":610,
    "name":"原町田スクエア",
    "address":"町田市原町田５－４－１９",
    "lat":35.544781,
    "lon":139.449459
  },
  {
    "id":611,
    "name":"喫茶けやき",
    "address":"町田市原町田４－２８－１　町田市立国際版画美術館内",
    "lat":35.543923,
    "lon":139.455259
  },
  {
    "id":612,
    "name":"ラ・ドロン",
    "address":"町田市森野３－１９－１３",
    "lat":35.552285,
    "lon":139.439143
  },
  {
    "id":613,
    "name":"しんわ町田事業所",
    "address":"町田市森野６－１９５－５　横山第３ビル１階",
    "lat":35.554052,
    "lon":139.427705
  },
  {
    "id":614,
    "name":"クローバーの会",
    "address":"町田市本町田２５０７－４　町田木曽住宅ハ－１６－１０３",
    "lat":35.567189,
    "lon":139.435948
  },
  {
    "id":615,
    "name":"黎音",
    "address":"町田市本町田３４８６　藤の台団地１－５０－１０１",
    "lat":35.569967,
    "lon":139.447817
  },
  {
    "id":616,
    "name":"町田市美術工芸館",
    "address":"町田市忠生３－６－２２",
    "lat":35.57746,
    "lon":139.419097
  },
  {
    "id":617,
    "name":"町田おかしの家",
    "address":"町田市忠生２－７－９",
    "lat":35.579391,
    "lon":139.425913
  },
  {
    "id":618,
    "name":"富士清掃サービス",
    "address":"町田市忠生３－１８－１　コーポラス坂の上１０２",
    "lat":35.578077,
    "lon":139.414442
  },
  {
    "id":619,
    "name":"富士作業所",
    "address":"町田市忠生２－２６－１２",
    "lat":35.579274,
    "lon":139.420513
  },
  {
    "id":620,
    "name":"森工房",
    "address":"町田市忠生４－２３－６",
    "lat":35.580168,
    "lon":139.412764
  },
  {
    "id":621,
    "name":"就労継続支援事業Ｂ型なないろ",
    "address":"町田市木曽西２－１７－１６",
    "lat":35.570011,
    "lon":139.415397
  },
  {
    "id":622,
    "name":"ボワ・アルモニー",
    "address":"町田市木曽西２－９－１８",
    "lat":35.570872,
    "lon":139.412648
  },
  {
    "id":623,
    "name":"第２赤い屋根",
    "address":"町田市玉川学園２－７－１３",
    "lat":35.562357,
    "lon":139.462449
  },
  {
    "id":624,
    "name":"福祉レストランフレンズ",
    "address":"町田市南成瀬５－１２　町田市立総合体育館内",
    "lat":35.536526,
    "lon":139.479019
  },
  {
    "id":625,
    "name":"ベロニカ苑Ⅱ",
    "address":"町田市西成瀬１－５１－２８",
    "lat":35.543321,
    "lon":139.466036
  },
  {
    "id":626,
    "name":"町田市大賀藕絲館",
    "address":"町田市下小山田町３２６７",
    "lat":35.585004,
    "lon":139.409159
  },
  {
    "id":627,
    "name":"花の家",
    "address":"町田市下小山田町３２６７－２",
    "lat":35.585665,
    "lon":139.410634
  },
  {
    "id":628,
    "name":"町田ゆめ工房",
    "address":"町田市相原町２９８３－１５７",
    "lat":35.607947,
    "lon":139.31323
  },
  {
    "id":629,
    "name":"エッグドーム・スローワールド",
    "address":"町田市相原町４３４２",
    "lat":35.615007,
    "lon":139.297265
  },
  {
    "id":630,
    "name":"ひあたり野津田",
    "address":"町田市野津田町１８３２－５",
    "lat":35.587448,
    "lon":139.436506
  },
  {
    "id":631,
    "name":"ワークショップ七国山",
    "address":"町田市野津田町３４４５－３",
    "lat":35.579099,
    "lon":139.443772
  },
  {
    "id":632,
    "name":"町田リス園　",
    "address":"町田市金井町７３３－１",
    "lat":35.578086,
    "lon":139.449764
  },
  {
    "id":633,
    "name":"クラフト工房Ｌａ　Ｍａｎｏ",
    "address":"町田市金井５－１４－１８",
    "lat":35.578545,
    "lon":139.461566
  },
  {
    "id":634,
    "name":"こころみ",
    "address":"町田市山崎町９９６",
    "lat":35.579844,
    "lon":139.441806
  },
  {
    "id":635,
    "name":"かがやき",
    "address":"町田市山崎町１２１４－１",
    "lat":35.576064,
    "lon":139.439606
  },
  {
    "id":636,
    "name":"ノーマライゼーションK",
    "address":"町田市山崎町２２００　山﨑団地名店街３－１８－１０４・１０５",
    "lat":35.569734,
    "lon":139.433179
  },
  {
    "id":637,
    "name":"小金井市福祉共同作業所",
    "address":"小金井市梶野町５－１０－５８",
    "lat":35.70164,
    "lon":139.526469
  },
  {
    "id":638,
    "name":"小金井聖ヨハネ支援センター",
    "address":"小金井市梶野町５－８－９",
    "lat":35.704004,
    "lon":139.524258
  },
  {
    "id":639,
    "name":"フラワー工房さくら",
    "address":"小金井市本町６－５－３　シャトー小金井",
    "lat":35.699243,
    "lon":139.503958
  },
  {
    "id":640,
    "name":"あん工房",
    "address":"小金井市本町３－８－１　第二佐藤ビル",
    "lat":35.705667,
    "lon":139.508304
  },
  {
    "id":641,
    "name":"にこにこファクトリー",
    "address":"小金井市本町１－１４－１５",
    "lat":35.700184,
    "lon":139.509893
  },
  {
    "id":642,
    "name":"パン工房ノアノア",
    "address":"小金井市本町四丁目１番１号",
    "lat":35.705706,
    "lon":139.506974
  },
  {
    "id":643,
    "name":"小金井生活実習所",
    "address":"小金井市桜町２－４－３",
    "lat":35.709733,
    "lon":139.502679
  },
  {
    "id":644,
    "name":"共同作業所　希望の家",
    "address":"小金井市東町２－２４－１７",
    "lat":35.699324,
    "lon":139.533002
  },
  {
    "id":645,
    "name":"スペース楽",
    "address":"小金井市東町４－１０－１４　第２黒沢コーポ１F",
    "lat":35.695307,
    "lon":139.523948
  },
  {
    "id":646,
    "name":"ワークセンター「あい」",
    "address":"小金井市東町４－１７－１",
    "lat":35.695496,
    "lon":139.524573
  },
  {
    "id":647,
    "name":"木馬の会（ライブワークス）",
    "address":"小金井市前原町１－８－５　サンテラス前原１０１",
    "lat":35.689408,
    "lon":139.508766
  },
  {
    "id":648,
    "name":"手づくり工房　たいさんぼく",
    "address":"小金井市貫井南町４－１１－１１　グランバレイ１０２・１０５",
    "lat":35.695937,
    "lon":139.491373
  },
  {
    "id":649,
    "name":"ゆめ工房さくら",
    "address":"小金井市貫井北町２－１８－６",
    "lat":35.70763,
    "lon":139.496088
  },
  {
    "id":650,
    "name":"小金井聖ヨハネワークセンター",
    "address":"小金井市貫井北町２－１３－６",
    "lat":35.706339,
    "lon":139.497761
  },
  {
    "id":651,
    "name":"のぞみ作業所",
    "address":"小平市大沼町２－１２－５",
    "lat":35.742762,
    "lon":139.495767
  },
  {
    "id":652,
    "name":"ワークセンター夢の樹",
    "address":"小平市大沼町２－１－３",
    "lat":35.738679,
    "lon":139.492543
  },
  {
    "id":653,
    "name":"小平福祉園",
    "address":"小平市花小金井８－１－１０",
    "lat":35.731692,
    "lon":139.50204
  },
  {
    "id":654,
    "name":"リズム工房",
    "address":"小平市花小金井１－６－１３",
    "lat":35.730328,
    "lon":139.513277
  },
  {
    "id":655,
    "name":"８７５Ｂｅａｎｓ",
    "address":"小平市花小金井南町１－１４－２",
    "lat":35.723071,
    "lon":139.512572
  },
  {
    "id":656,
    "name":"小平第二みどり作業所",
    "address":"小平市天神町３－７－１６",
    "lat":35.730861,
    "lon":139.499506
  },
  {
    "id":657,
    "name":"あしたば作業所",
    "address":"小平市鈴木町２－１８７－３",
    "lat":35.723609,
    "lon":139.506895
  },
  {
    "id":658,
    "name":"おだまき",
    "address":"小平市小川東町４－２－１　小平元気村おがわ東",
    "lat":35.740151,
    "lon":139.474067
  },
  {
    "id":659,
    "name":"サングリーン",
    "address":"小平市小川町１－９４３",
    "lat":35.727774,
    "lon":139.456502
  },
  {
    "id":660,
    "name":"あさやけ鷹の台作業所",
    "address":"小平市小川町１－４１１－１",
    "lat":35.729982,
    "lon":139.436459
  },
  {
    "id":661,
    "name":"クラブハウスはばたき",
    "address":"小平市小川町１－４０７－１１",
    "lat":35.729473,
    "lon":139.434893
  },
  {
    "id":662,
    "name":"あさやけ第二作業所",
    "address":"小平市小川町２－１１５９",
    "lat":35.729391,
    "lon":139.467729
  },
  {
    "id":663,
    "name":"食事サービスセンターなごみ",
    "address":"小平市美園町１－４－１",
    "lat":35.73716,
    "lon":139.486452
  },
  {
    "id":664,
    "name":"ｐｌａｎｓ",
    "address":"小平市仲町４２５－１２　アカシアビル２０１",
    "lat":35.729964,
    "lon":139.487863
  },
  {
    "id":665,
    "name":"バウム",
    "address":"小平市学園西町３－２４－１８",
    "lat":35.7266,
    "lon":139.477164
  },
  {
    "id":666,
    "name":"たんぽぽひのセンター",
    "address":"日野市栄町２－１７－１　都営日野栄町二丁目アパート２号棟１階",
    "lat":35.683703,
    "lon":139.391234
  },
  {
    "id":667,
    "name":"スローワールドふれあいの森",
    "address":"日野市日野本町６－１－３",
    "lat":35.680786,
    "lon":139.403792
  },
  {
    "id":668,
    "name":"たんぽぽたかはたセンター",
    "address":"日野市高幡８６４－１５",
    "lat":35.663891,
    "lon":139.409439
  },
  {
    "id":669,
    "name":"やまぼうし平山台",
    "address":"日野市平山２－１－１",
    "lat":35.640974,
    "lon":139.387136
  },
  {
    "id":670,
    "name":"ハートリボン",
    "address":"日野市東豊田１－１７－１",
    "lat":35.663335,
    "lon":139.394618
  },
  {
    "id":671,
    "name":"あおいとり日野",
    "address":"日野市東平山３－１－２７",
    "lat":35.654883,
    "lon":139.378492
  },
  {
    "id":672,
    "name":"くつろぎ",
    "address":"日野市大坂上１－５－３１",
    "lat":35.675934,
    "lon":139.390707
  },
  {
    "id":673,
    "name":"指定障害者支援施設　光の家栄光園",
    "address":"日野市旭が丘１－１７－１７",
    "lat":35.656652,
    "lon":139.372803
  },
  {
    "id":674,
    "name":"工房夢ふうせん",
    "address":"日野市旭が丘２－４２－１２",
    "lat":35.662388,
    "lon":139.368826
  },
  {
    "id":675,
    "name":"光の家就労ホーム",
    "address":"日野市旭が丘３－６－６",
    "lat":35.658402,
    "lon":139.368293
  },
  {
    "id":676,
    "name":"つばさ",
    "address":"日野市旭が丘２－４２－５",
    "lat":35.663135,
    "lon":139.369165
  },
  {
    "id":677,
    "name":"あきつの園",
    "address":"東村山市諏訪町１－３－１０　社会福祉センター内",
    "lat":35.76549,
    "lon":139.466672
  },
  {
    "id":678,
    "name":"コロニー東村山",
    "address":"東村山市秋津町２－２２－９",
    "lat":35.768765,
    "lon":139.487895
  },
  {
    "id":679,
    "name":"けやき第一作業所",
    "address":"東村山市秋津町２－３２－１５",
    "lat":35.770684,
    "lon":139.488795
  },
  {
    "id":680,
    "name":"かりん",
    "address":"東村山市秋津町２－３７－４７",
    "lat":35.771484,
    "lon":139.489564
  },
  {
    "id":681,
    "name":"トーコロ青葉ワークセンター",
    "address":"東村山市青葉町２－３９－１０",
    "lat":35.765318,
    "lon":139.490695
  },
  {
    "id":682,
    "name":"久米川共同作業所",
    "address":"東村山市久米川町２－２１－１４",
    "lat":35.765334,
    "lon":139.479151
  },
  {
    "id":683,
    "name":"なごみの里　就労継続支援Ｂ型",
    "address":"東村山市恩多町５－３８－４",
    "lat":35.757261,
    "lon":139.488229
  },
  {
    "id":684,
    "name":"共同作業所セサミ萩　",
    "address":"東村山市萩山町２－２－２",
    "lat":35.740446,
    "lon":139.477175
  },
  {
    "id":685,
    "name":"える・ぽいん",
    "address":"東村山市萩山町２－１０－１５",
    "lat":35.741137,
    "lon":139.479
  },
  {
    "id":686,
    "name":"けやき第二作業所",
    "address":"東村山市栄町３－１７－４",
    "lat":35.745834,
    "lon":139.46905
  },
  {
    "id":687,
    "name":"飛翔クラブ",
    "address":"東村山市栄町２－９－３２　晃正プラザ３０３",
    "lat":35.749458,
    "lon":139.471716
  },
  {
    "id":688,
    "name":"平成の里",
    "address":"東村山市本町２－８－２　プイラムビル２０７",
    "lat":35.763412,
    "lon":139.466755
  },
  {
    "id":689,
    "name":"みどりの森",
    "address":"東村山市諏訪町１－２７－２",
    "lat":35.770103,
    "lon":139.468635
  },
  {
    "id":690,
    "name":"ラ・メール",
    "address":"東村山市野口町１－３－２８",
    "lat":35.762357,
    "lon":139.465397
  },
  {
    "id":691,
    "name":"東村山生活実習所",
    "address":"東村山市富士見町１－５－１１",
    "lat":35.741489,
    "lon":139.459607
  },
  {
    "id":692,
    "name":"福祉事業センター",
    "address":"東村山市富士見町２－７－５",
    "lat":35.740203,
    "lon":139.452535
  },
  {
    "id":693,
    "name":"お弁当くらぶ",
    "address":"東村山市富士見町５－５－４４",
    "lat":35.74462,
    "lon":139.462281
  },
  {
    "id":694,
    "name":"ひなたの道",
    "address":"東村山市廻田町１－１５－１",
    "lat":35.755265,
    "lon":139.454854
  },
  {
    "id":695,
    "name":"十二月",
    "address":"東村山市廻田町３－１６－８",
    "lat":35.760387,
    "lon":139.448113
  },
  {
    "id":696,
    "name":"仲間の家",
    "address":"東村山市廻田町３－４－５",
    "lat":35.757018,
    "lon":139.448152
  },
  {
    "id":697,
    "name":"希望園",
    "address":"国分寺市戸倉４－１４－７",
    "lat":35.708365,
    "lon":139.455209
  },
  {
    "id":698,
    "name":"オハナ農園",
    "address":"国分寺市新町１－１８－９",
    "lat":35.711709,
    "lon":139.450601
  },
  {
    "id":699,
    "name":"食彩工房プラスワン",
    "address":"国分寺市戸倉３－２－１９",
    "lat":35.708821,
    "lon":139.454331
  },
  {
    "id":700,
    "name":"ともしび工房",
    "address":"国分寺市西恋ケ窪４－１０－２",
    "lat":35.70628,
    "lon":139.465102
  },
  {
    "id":701,
    "name":"さつき共同作業所",
    "address":"国分寺市東元町３－４－１９　本多ビル１階",
    "lat":35.694767,
    "lon":139.480465
  },
  {
    "id":702,
    "name":"ビーパス",
    "address":"国分寺市西元町３－６－１４",
    "lat":35.689448,
    "lon":139.469341
  },
  {
    "id":703,
    "name":"国分寺市障害者センター",
    "address":"国分寺市泉町２－３－８",
    "lat":35.696398,
    "lon":139.468855
  },
  {
    "id":704,
    "name":"福祉作業所天成舎",
    "address":"国立市富士見台１－４１－１５　マンション辰巳",
    "lat":35.683671,
    "lon":139.45156
  },
  {
    "id":705,
    "name":"ともにードリーム",
    "address":"国立市富士見台３－４－４　ロイヤル国立３Ｆ",
    "lat":35.686942,
    "lon":139.44018
  },
  {
    "id":706,
    "name":"うめの木作業所",
    "address":"国立市西２－２０－１０　第２村上ビル２階",
    "lat":35.693372,
    "lon":139.436072
  },
  {
    "id":707,
    "name":"デイセンターたまぷらねっと“わ”",
    "address":"国立市西２－１１－２３　関ビル第２",
    "lat":35.693719,
    "lon":139.43718
  },
  {
    "id":708,
    "name":"就労センター拝島駅作業所",
    "address":"福生市熊川１３９５－１",
    "lat":35.721836,
    "lon":139.341637
  },
  {
    "id":709,
    "name":"就労センター　第２拝島駅作業所",
    "address":"福生市熊川１６４６－１　サンライズマルヤマＡ",
    "lat":35.723783,
    "lon":139.345148
  },
  {
    "id":710,
    "name":"ジョブスペース游",
    "address":"福生市福生字武蔵野２３５１－１",
    "lat":35.739606,
    "lon":139.337988
  },
  {
    "id":711,
    "name":"麦わら帽子",
    "address":"福生市大字福生２１２５－３",
    "lat":35.744127,
    "lon":139.334232
  },
  {
    "id":712,
    "name":"わーくあっぷ",
    "address":"福生市武蔵野台１－１１－７",
    "lat":35.747866,
    "lon":139.334718
  },
  {
    "id":713,
    "name":"ワークひなた",
    "address":"狛江市岩戸北１－７－９－１０７",
    "lat":35.636174,
    "lon":139.579914
  },
  {
    "id":714,
    "name":"ひかり作業所",
    "address":"狛江市岩戸南３－１１－９",
    "lat":35.6301,
    "lon":139.591758
  },
  {
    "id":715,
    "name":"就労支援事業所メイ",
    "address":"狛江市元和泉２－３５－１　あいとぴあセンター３階",
    "lat":35.6333,
    "lon":139.567777
  },
  {
    "id":716,
    "name":"こまえ工房",
    "address":"狛江市東和泉１－３２－２１",
    "lat":35.6304,
    "lon":139.575946
  },
  {
    "id":717,
    "name":"ライブリィ工房",
    "address":"東大和市清水２－８５０－１",
    "lat":35.753568,
    "lon":139.445005
  },
  {
    "id":718,
    "name":"第２あとりえトントン",
    "address":"東大和市向原４－３３－９　ブルーバード１０１・２０６",
    "lat":35.736362,
    "lon":139.443864
  },
  {
    "id":719,
    "name":"就労支援事業所ＮＯＡＨ",
    "address":"東大和市南街５－８９－１０　Ｙビル１Ｆ",
    "lat":35.734253,
    "lon":139.433157
  },
  {
    "id":720,
    "name":"あとりえトントン　",
    "address":"東大和市南街５－６９－６　ハイネスオマタ１０１～１０３、２０２",
    "lat":35.735209,
    "lon":139.433551
  },
  {
    "id":721,
    "name":"第三みんなの家",
    "address":"東大和市中央２－１１２２－５",
    "lat":35.744508,
    "lon":139.430473
  },
  {
    "id":722,
    "name":"かたつむりの会作業所",
    "address":"東大和市中央２－８３０－４",
    "lat":35.746974,
    "lon":139.430848
  },
  {
    "id":723,
    "name":"グランデ",
    "address":"東大和市中央３－８５５－５　中央ビル２０２・２０３",
    "lat":35.744666,
    "lon":139.428079
  },
  {
    "id":724,
    "name":"東大和市総合福祉センターは～とふる",
    "address":"東大和市桜が丘２－５３－６",
    "lat":35.734917,
    "lon":139.41938
  },
  {
    "id":725,
    "name":"食工房ぱる",
    "address":"東大和市奈良橋２－５５２－３",
    "lat":35.752765,
    "lon":139.42712
  },
  {
    "id":726,
    "name":"第一みんなの家",
    "address":"東大和市奈良橋６－７２８－２",
    "lat":35.748549,
    "lon":139.424637
  },
  {
    "id":727,
    "name":"第二みんなの家",
    "address":"東大和市奈良橋１－２７６－２",
    "lat":35.754445,
    "lon":139.423643
  },
  {
    "id":728,
    "name":"ＰＡＣＥ",
    "address":"東大和市奈良橋５－８１４－１４",
    "lat":35.747402,
    "lon":139.42804
  },
  {
    "id":729,
    "name":"清瀬どんぐりの家",
    "address":"清瀬市野塩４－２３０－１",
    "lat":35.77475,
    "lon":139.500036
  },
  {
    "id":730,
    "name":"清瀬福祉作業所",
    "address":"清瀬市中清戸３－４３８－１",
    "lat":35.779784,
    "lon":139.528627
  },
  {
    "id":731,
    "name":"ライフパートナーこぶし",
    "address":"清瀬市上清戸１－１５－１８",
    "lat":35.774521,
    "lon":139.52525
  },
  {
    "id":732,
    "name":"セルプ清瀬",
    "address":"清瀬市松山２－１８－２",
    "lat":35.774134,
    "lon":139.511501
  },
  {
    "id":733,
    "name":"ベーカリーショップどんぐり",
    "address":"清瀬市松山３－１８－３５",
    "lat":35.767538,
    "lon":139.515759
  },
  {
    "id":734,
    "name":"スマイルアーク",
    "address":"清瀬市松山１－１２－１５",
    "lat":35.77191,
    "lon":139.517862
  },
  {
    "id":735,
    "name":"就労継続支援Ｂ型事業所　マザアス",
    "address":"清瀬市松山１－４－２０　松東ビル２０３号",
    "lat":35.77126,
    "lon":139.520373
  },
  {
    "id":736,
    "name":"清瀬育成園ひだまりの里きよせ",
    "address":"清瀬市梅園３－１－３０",
    "lat":35.769584,
    "lon":139.502644
  },
  {
    "id":737,
    "name":"パン工房モナモナ",
    "address":"東久留米市神宝町２－１４－２３",
    "lat":35.768738,
    "lon":139.544282
  },
  {
    "id":738,
    "name":"くるめパソコン作業所",
    "address":"東久留米市氷川台１－２－１２",
    "lat":35.7648,
    "lon":139.534666
  },
  {
    "id":739,
    "name":"広域地域ケアセンター　バオバブ",
    "address":"東久留米市大門町２－１３－１１",
    "lat":35.763722,
    "lon":139.54289
  },
  {
    "id":740,
    "name":"えいぶる",
    "address":"東久留米市大門町２－１３－１１",
    "lat":35.763722,
    "lon":139.54289
  },
  {
    "id":741,
    "name":"ぶどうの郷",
    "address":"東久留米市大門町１－２－４",
    "lat":35.763825,
    "lon":139.535802
  },
  {
    "id":742,
    "name":"すばる",
    "address":"東久留米市前沢５－５－８",
    "lat":35.740594,
    "lon":139.512052
  },
  {
    "id":743,
    "name":"ピープルファースト東久留米",
    "address":"東久留米市滝山４－１－４０",
    "lat":35.744662,
    "lon":139.505689
  },
  {
    "id":744,
    "name":"就労支援事業所　コイノニア",
    "address":"東久留米市滝山５－１－１６　",
    "lat":35.746209,
    "lon":139.503261
  },
  {
    "id":745,
    "name":"しおん学園（忘れな草）",
    "address":"東久留米市下里７－８　久留米下里住宅１０号棟１０１号",
    "lat":35.760594,
    "lon":139.503119
  },
  {
    "id":746,
    "name":"きぼう工房東くるめ",
    "address":"東久留米市下里２－１６－２１",
    "lat":35.752181,
    "lon":139.505733
  },
  {
    "id":747,
    "name":"久留米リカバリーハウス",
    "address":"東久留米市本町１－１０－２２",
    "lat":35.757725,
    "lon":139.535255
  },
  {
    "id":748,
    "name":"まあぶる",
    "address":"東久留米市中央町２－１－４７",
    "lat":35.757061,
    "lon":139.523162
  },
  {
    "id":749,
    "name":"第二どんぐりの家",
    "address":"東久留米市中央町１－３－８",
    "lat":35.754856,
    "lon":139.528347
  },
  {
    "id":750,
    "name":"どんぐりの家",
    "address":"東久留米市中央町６－２－５５",
    "lat":35.755506,
    "lon":139.517846
  },
  {
    "id":751,
    "name":"ジョイナス",
    "address":"武蔵村山市神明４－１２１　麻生ビル１階",
    "lat":35.748934,
    "lon":139.402914
  },
  {
    "id":752,
    "name":"ひなた和楽館",
    "address":"武蔵村山市中央４－５５－５",
    "lat":35.758661,
    "lon":139.38941
  },
  {
    "id":753,
    "name":"武蔵村山市立のぞみ福祉園",
    "address":"武蔵村山市本町５－２２－１",
    "lat":35.76208,
    "lon":139.38731
  },
  {
    "id":754,
    "name":"えのき園",
    "address":"武蔵村山市学園３－８４－１",
    "lat":35.743321,
    "lon":139.403714
  },
  {
    "id":755,
    "name":"村山たんぽぽ",
    "address":"武蔵村山市学園３－５９－３　コロコロセンター１階",
    "lat":35.745029,
    "lon":139.405686
  },
  {
    "id":756,
    "name":"共同作業所かたくり第１",
    "address":"武蔵村山市緑が丘１４６０－４６－１９",
    "lat":35.743477,
    "lon":139.407886
  },
  {
    "id":757,
    "name":"結(ゆい)緑が丘",
    "address":"武蔵村山市大南２－４７－１７",
    "lat":35.74063,
    "lon":139.404126
  },
  {
    "id":758,
    "name":"あかつき授産所",
    "address":"武蔵村山市伊奈平１－６４－１",
    "lat":35.74547,
    "lon":139.377814
  },
  {
    "id":759,
    "name":"スペース・まどか",
    "address":"武蔵村山市伊奈平１－６４－１",
    "lat":35.74547,
    "lon":139.377814
  },
  {
    "id":760,
    "name":"ひまわりハウス",
    "address":"武蔵村山市残堀１－２８－３",
    "lat":35.747964,
    "lon":139.377217
  },
  {
    "id":761,
    "name":"ワークセンター　れすと",
    "address":"多摩市和田１８７０－２",
    "lat":35.64695,
    "lon":139.433824
  },
  {
    "id":762,
    "name":"ちいろばの家",
    "address":"多摩市東寺方１－１６－３",
    "lat":35.648227,
    "lon":139.442542
  },
  {
    "id":763,
    "name":"遊夢",
    "address":"多摩市貝取４－３－１－１０７、１０９",
    "lat":35.61459,
    "lon":139.438525
  },
  {
    "id":764,
    "name":"どんぐりパン／空",
    "address":"多摩市諏訪５－６－３－１０５、１０６",
    "lat":35.622384,
    "lon":139.451593
  },
  {
    "id":765,
    "name":"あしたや",
    "address":"多摩市諏訪５－６－３－１０１",
    "lat":35.622384,
    "lon":139.451593
  },
  {
    "id":766,
    "name":"コラボたま　ワークセンターつくし",
    "address":"多摩市永山６－１３－１",
    "lat":35.612399,
    "lon":139.445802
  },
  {
    "id":767,
    "name":"若人塾",
    "address":"多摩市永山３－９　東永山複合施設内",
    "lat":35.623381,
    "lon":139.449454
  },
  {
    "id":768,
    "name":"工房マテリアル",
    "address":"多摩市永山３－９　東永山複合施設Ａ棟１０２",
    "lat":35.623381,
    "lon":139.449454
  },
  {
    "id":769,
    "name":"ワークス多摩（工房レスト）",
    "address":"多摩市永山４－２－３－１０３",
    "lat":35.620895,
    "lon":139.449193
  },
  {
    "id":770,
    "name":"暉望（色えんぴつの家）",
    "address":"多摩市永山３－９　東永山複合施設内",
    "lat":35.623381,
    "lon":139.449454
  },
  {
    "id":771,
    "name":"アートひまわり",
    "address":"多摩市南野３－１５－１　５階",
    "lat":35.612536,
    "lon":139.412677
  },
  {
    "id":772,
    "name":"ぐり－んぴーす工房",
    "address":"多摩市落合３－１７－１－１０１",
    "lat":35.616492,
    "lon":139.430197
  },
  {
    "id":773,
    "name":"AROMA",
    "address":"多摩市落合１－３－７　ハルシオンコート２０２",
    "lat":35.627221,
    "lon":139.4287
  },
  {
    "id":774,
    "name":"草むらde夢（夢うさぎ）",
    "address":"多摩市落合１－４６－１　ココリア多摩センター５階５０５",
    "lat":35.622376,
    "lon":139.424852
  },
  {
    "id":775,
    "name":"しごとば＆のんびりカフェ　風の家",
    "address":"多摩市愛宕１－１－１－１０１、１０３",
    "lat":35.634682,
    "lon":139.436068
  },
  {
    "id":776,
    "name":"就労支援センター　ぽわん",
    "address":"多摩市愛宕４－１７－９　１階",
    "lat":35.628279,
    "lon":139.428142
  },
  {
    "id":777,
    "name":"わくわく",
    "address":"稲城市大丸６０－１１　サンパレス２階",
    "lat":35.641758,
    "lon":139.500288
  },
  {
    "id":778,
    "name":"リノール",
    "address":"稲城市東長沼２１０６－５　マスヤビルディング３０６号室",
    "lat":35.638654,
    "lon":139.504208
  },
  {
    "id":779,
    "name":"コラボいなぎ　いなぎワークセンター",
    "address":"稲城市坂浜１０２９－１",
    "lat":35.622891,
    "lon":139.485355
  },
  {
    "id":780,
    "name":"社会福祉法人　稲城市社会福祉協議会　エイトピア工房",
    "address":"稲城市平尾１－９－１　複合施設ふれんど平尾内",
    "lat":35.613836,
    "lon":139.49238
  },
  {
    "id":781,
    "name":"羽村市福祉センター",
    "address":"羽村市栄町２－１８－１",
    "lat":35.770621,
    "lon":139.313052
  },
  {
    "id":782,
    "name":"福祉作業所ひばり園",
    "address":"羽村市栄町３－３－１",
    "lat":35.772354,
    "lon":139.31293
  },
  {
    "id":783,
    "name":"福祉作業所スマイル工房　",
    "address":"羽村市羽中３－８－１１",
    "lat":35.760958,
    "lon":139.307405
  },
  {
    "id":784,
    "name":"やまぐちや",
    "address":"あきる野市戸倉５７８",
    "lat":35.72988,
    "lon":139.201434
  },
  {
    "id":785,
    "name":"こすもす福祉作業所",
    "address":"あきる野市平沢１７５－４",
    "lat":35.732525,
    "lon":139.301915
  },
  {
    "id":786,
    "name":"あきる野福祉工房",
    "address":"あきる野市雨間１８１５",
    "lat":35.716102,
    "lon":139.29661
  },
  {
    "id":787,
    "name":"秋川虹の家",
    "address":"あきる野市油平２５８－１９",
    "lat":35.722545,
    "lon":139.28602
  },
  {
    "id":788,
    "name":"わらべ　あきる野事業所",
    "address":"あきる野市上代継８４－６",
    "lat":35.730411,
    "lon":139.27824
  },
  {
    "id":789,
    "name":"サンワーク田無",
    "address":"西東京市緑町１－８－３－１０２",
    "lat":35.735492,
    "lon":139.537497
  },
  {
    "id":790,
    "name":"さくらの園",
    "address":"西東京市西原町４－５－６　西東京市西原総合教育施設内",
    "lat":35.737214,
    "lon":139.528381
  },
  {
    "id":791,
    "name":"たなし工房",
    "address":"西東京市田無町３－３－７　海老沢第１ビル８０１号",
    "lat":35.731506,
    "lon":139.54067
  },
  {
    "id":792,
    "name":"富士町作業所",
    "address":"西東京市田無町５－５－１２",
    "lat":35.731809,
    "lon":139.536209
  },
  {
    "id":793,
    "name":"ほうや福祉作業所",
    "address":"西東京市ひばりが丘３－１－２３",
    "lat":35.745766,
    "lon":139.537066
  },
  {
    "id":794,
    "name":"コミュニティルーム友訪",
    "address":"西東京市住吉町６－１１－１６",
    "lat":35.745369,
    "lon":139.552676
  },
  {
    "id":795,
    "name":"ＩＯＮ　第１事業所　就労継続支援Ｂ型",
    "address":"西東京市保谷町３－２５－８",
    "lat":35.729468,
    "lon":139.550838
  },
  {
    "id":796,
    "name":"ワークステーション　ウーノ（手づくり工房めぇ）",
    "address":"西東京市保谷町３－８－７",
    "lat":35.73026,
    "lon":139.554452
  },
  {
    "id":797,
    "name":"パッソ西東京",
    "address":"西東京市柳沢６－１１－１３",
    "lat":35.727643,
    "lon":139.549011
  },
  {
    "id":798,
    "name":"ラシーネ西東京",
    "address":"西東京市新町４－７－１",
    "lat":35.711411,
    "lon":139.537685
  },
  {
    "id":799,
    "name":"瑞穂町精神障害者共同作業所",
    "address":"西多摩郡瑞穂町駒形富士山１７８－１",
    "lat":35.78754,
    "lon":139.363005
  },
  {
    "id":800,
    "name":"瑞穂町福祉作業所",
    "address":"西多摩郡瑞穂町箱根ケ崎８３１－２",
    "lat":35.781104,
    "lon":139.344665
  },
  {
    "id":801,
    "name":"日の出リハビリ",
    "address":"西多摩郡日の出町平井２１８－１",
    "lat":35.737501,
    "lon":139.248709
  },
  {
    "id":802,
    "name":"ワークスタディ日の出",
    "address":"西多摩郡日の出町平井２１８－１",
    "lat":35.737501,
    "lon":139.248709
  },
  {
    "id":803,
    "name":"就労　日の出舎",
    "address":"西多摩郡日の出町平井３０３０",
    "lat":35.748197,
    "lon":139.258566
  },
  {
    "id":804,
    "name":"ひのきのその",
    "address":"西多摩郡檜原村５３５４－６",
    "lat":35.725814,
    "lon":139.159673
  },
  {
    "id":805,
    "name":"さかみち．ワークショップ奥多摩",
    "address":"西多摩郡奥多摩町海沢５６４",
    "lat":35.799398,
    "lon":139.117041
  },
  {
    "id":806,
    "name":"黒潮作業所",
    "address":"大島町元町字赤禿２８－５",
    "lat":34.775072,
    "lon":139.355078
  },
  {
    "id":807,
    "name":"波浮港福祉作業所",
    "address":"大島町差木地字クダッチ",
    "lat":34.682392,
    "lon":139.43205
  },
  {
    "id":808,
    "name":"のびのび",
    "address":"八丈島八丈町大賀郷４４３６－３５",
    "lat":33.117943,
    "lon":139.768244
  },
  {
    "id":809,
    "name":"ちょんこめ作業所",
    "address":"八丈島八丈町三根２－１",
    "lat":33.11272,
    "lon":139.79335
  },
  {
    "id":810,
    "name":"フェニックス",
    "address":"八丈島八丈町三根２－１",
    "lat":33.11272,
    "lon":139.79335
  }
]