[
  {
    "id":0,
    "name":"クオッカ",
    "address":"千代田区九段北１－３－５",
    "lat":35.696183,
    "lon":139.751456
  },
  {
    "id":1,
    "name":"フロー・ネット",
    "address":"中央区日本橋小伝馬町１－１　日本橋末広ビル２階",
    "lat":35.68977,
    "lon":139.777441
  },
  {
    "id":2,
    "name":"ナチュラルプランツ･サポート",
    "address":"中央区日本橋大伝馬町１７－１　城野ビルⅡ３階",
    "lat":35.690526,
    "lon":139.782232
  },
  {
    "id":3,
    "name":"中央区立知的障害者生活支援施設レインボーハウス明石",
    "address":"中央区明石町１－６",
    "lat":35.669292,
    "lon":139.776716
  },
  {
    "id":4,
    "name":"就労継続支援Ａ型事業所かがやき",
    "address":"港区新橋３－１６－３　港区立生涯学習センター内",
    "lat":35.665622,
    "lon":139.757115
  },
  {
    "id":5,
    "name":"えがおワークス",
    "address":"港区浜松町１－２１－４　崇城大学会館５階",
    "lat":35.657754,
    "lon":139.757454
  },
  {
    "id":6,
    "name":"アトリエ・レダクラフト",
    "address":"港区麻布十番４－４－１　ツイン一の橋ビル２１０８、２０３１",
    "lat":35.653767,
    "lon":139.737161
  },
  {
    "id":7,
    "name":"Future　Design　Lab　Omotesando",
    "address":"港区南青山３－８－２７　芝崎４１０ビル３階",
    "lat":35.666435,
    "lon":139.715324
  },
  {
    "id":8,
    "name":"くじら",
    "address":"新宿区四谷４－３２－１　吉岡ビル５階",
    "lat":35.68946,
    "lon":139.71487
  },
  {
    "id":9,
    "name":"あしか",
    "address":"新宿区新宿１－２－８　国久ビル５階Ａ室",
    "lat":35.687963,
    "lon":139.712687
  },
  {
    "id":10,
    "name":"東京都育成会　クリーンサービス",
    "address":"新宿区新宿５－１８－１６　ＳＨＩＮＪＵＫＵ５－１ビル２階",
    "lat":35.694434,
    "lon":139.70651
  },
  {
    "id":11,
    "name":"ストローク・サービス",
    "address":"新宿区西落合２－２０－１６　ＰＯＥＭビル１階",
    "lat":35.720217,
    "lon":139.674509
  },
  {
    "id":12,
    "name":"ワークプレイスぶんぶん",
    "address":"文京区小日向２－１６－１５",
    "lat":35.710581,
    "lon":139.734582
  },
  {
    "id":13,
    "name":"ベジティア",
    "address":"文京区本郷１－１０－１４　加奈利屋館ビル１階",
    "lat":35.704154,
    "lon":139.757872
  },
  {
    "id":14,
    "name":"こうめ",
    "address":"台東区雷門２－１９－１３",
    "lat":35.710463,
    "lon":139.797255
  },
  {
    "id":15,
    "name":"HOPE",
    "address":"台東区三筋１－４－１６　康江ビル２階",
    "lat":35.703391,
    "lon":139.78654
  },
  {
    "id":16,
    "name":"ヒューマングロー錦糸町",
    "address":"江東区毛利１－２１－２",
    "lat":35.692834,
    "lon":139.814902
  },
  {
    "id":17,
    "name":"エコミラ江東",
    "address":"江東区潮見１－２９－７",
    "lat":35.655003,
    "lon":139.811894
  },
  {
    "id":18,
    "name":"ヒューマングロー亀戸",
    "address":"江東区亀戸１－３１－７",
    "lat":35.694709,
    "lon":139.825678
  },
  {
    "id":19,
    "name":"阿梨ヶ舎",
    "address":"江東区北砂５－２０　１３号棟１０６",
    "lat":35.684016,
    "lon":139.832927
  },
  {
    "id":20,
    "name":"ライフアーク北砂",
    "address":"江東区北砂２－１５－３１　山東ビル紫庭マンション２階",
    "lat":35.68275,
    "lon":139.826756
  },
  {
    "id":21,
    "name":"すまいる・さぽーと品川",
    "address":"品川区東品川１－１７－２",
    "lat":35.621363,
    "lon":139.745034
  },
  {
    "id":22,
    "name":"福祉工場しながわ",
    "address":"品川区東大井１－３－１０",
    "lat":35.605795,
    "lon":139.743968
  },
  {
    "id":23,
    "name":"めぐろ",
    "address":"目黒区東山３－１６－３　ウェル東山ビル",
    "lat":35.649789,
    "lon":139.684702
  },
  {
    "id":24,
    "name":"カフェレストランわれもこう目黒店",
    "address":"目黒区目黒２－４－３６　目黒区民センター１階",
    "lat":35.635452,
    "lon":139.707868
  },
  {
    "id":25,
    "name":"社会福祉法人東京コロニー　東京都大田福祉工場",
    "address":"大田区大森西２－２２－２６",
    "lat":35.575279,
    "lon":139.728104
  },
  {
    "id":26,
    "name":"明日楽",
    "address":"大田区西蒲田６－８－９",
    "lat":35.566144,
    "lon":139.710234
  },
  {
    "id":27,
    "name":"ひだまり",
    "address":"大田区蒲田本町１－８－９",
    "lat":35.556226,
    "lon":139.716306
  },
  {
    "id":28,
    "name":"プレスト池上",
    "address":"大田区池上３－３２－１７　第２６下川ビルＡ館３０１",
    "lat":35.573698,
    "lon":139.701673
  },
  {
    "id":29,
    "name":"しごとも",
    "address":"世田谷区等々力６－１０－１９",
    "lat":35.611826,
    "lon":139.655903
  },
  {
    "id":30,
    "name":"Ｓｃｏｐｏ",
    "address":"世田谷区上用賀３－１４－１７　グラン・ペルフェクティオ１階",
    "lat":35.633998,
    "lon":139.631632
  },
  {
    "id":31,
    "name":"ローランズプラスⅡ",
    "address":"渋谷区千駄ヶ谷３－５４－１５　ベルズ原宿ビル１階",
    "lat":35.674981,
    "lon":139.705913
  },
  {
    "id":32,
    "name":"ホープ就労支援センター渋谷",
    "address":"渋谷区笹塚２－１６－１",
    "lat":35.674413,
    "lon":139.666234
  },
  {
    "id":33,
    "name":"コロニー中野",
    "address":"中野区江原町２－６－７",
    "lat":35.72911,
    "lon":139.668348
  },
  {
    "id":34,
    "name":"ワクわーく",
    "address":"中野区白鷺一丁目３０番６号　深澤ビル４階",
    "lat":35.721496,
    "lon":139.63737
  },
  {
    "id":35,
    "name":"パン工房　プクプク",
    "address":"杉並区南荻窪４－１－１５　春日屋ビル",
    "lat":35.698929,
    "lon":139.617162
  },
  {
    "id":36,
    "name":"ローランズプラス",
    "address":"豊島区駒込１－１９－１５　直江ビル１階、２階",
    "lat":35.735476,
    "lon":139.752024
  },
  {
    "id":37,
    "name":"豊芯会フードサービス事業部",
    "address":"豊島区北大塚３－３４－７",
    "lat":35.735203,
    "lon":139.726684
  },
  {
    "id":38,
    "name":"自立支援センターまめの樹",
    "address":"豊島区西池袋５－２６－１６　ＣＨＩＢＡビル５階",
    "lat":35.732677,
    "lon":139.699906
  },
  {
    "id":39,
    "name":"ダイニング　街なか",
    "address":"北区上十条２－２８－６",
    "lat":35.759986,
    "lon":139.722098
  },
  {
    "id":40,
    "name":"わくわく配食サービス",
    "address":"北区赤羽南２－６－６　スカイブリッジビル１階、地下１階",
    "lat":35.772245,
    "lon":139.722733
  },
  {
    "id":41,
    "name":"うきま幸朋苑ブレッド＆バター",
    "address":"北区浮間５－１３－１",
    "lat":35.78474,
    "lon":139.692446
  },
  {
    "id":42,
    "name":"カフェフレンド",
    "address":"荒川区南千住７－２６－２",
    "lat":35.735633,
    "lon":139.799137
  },
  {
    "id":43,
    "name":"オフィスサプライ東京",
    "address":"荒川区西尾久５－２０－１８",
    "lat":35.747905,
    "lon":139.758487
  },
  {
    "id":44,
    "name":"作業所スカイ",
    "address":"荒川区西日暮里５－２－２０　サンリバー西日暮里１０２",
    "lat":35.733974,
    "lon":139.770951
  },
  {
    "id":45,
    "name":"ウィズミー",
    "address":"板橋区板橋４－３８－４",
    "lat":35.751123,
    "lon":139.719565
  },
  {
    "id":46,
    "name":"ポプラＡプラス療育センター店",
    "address":"板橋区小茂根１－１－１０",
    "lat":35.747517,
    "lon":139.682715
  },
  {
    "id":47,
    "name":"東京都板橋福祉工場　就労継続支援Ａ型事業所",
    "address":"板橋区高島平９－４２－７",
    "lat":35.791577,
    "lon":139.66929
  },
  {
    "id":48,
    "name":"かすたねっと",
    "address":"練馬区練馬２－１－９",
    "lat":35.741336,
    "lon":139.65604
  },
  {
    "id":49,
    "name":"銀杏",
    "address":"練馬区練馬１－２６－６",
    "lat":35.739061,
    "lon":139.655212
  },
  {
    "id":50,
    "name":"すくらむ事業所",
    "address":"練馬区豊玉北４－１１－７　ＢＳ第２ビル",
    "lat":35.735251,
    "lon":139.659309
  },
  {
    "id":51,
    "name":"ワークスタジオ　Ｗｅｌ",
    "address":"練馬区貫井一丁目１３番１３号",
    "lat":35.739222,
    "lon":139.634828
  },
  {
    "id":52,
    "name":"赤オニの家",
    "address":"練馬区西大泉３－１－３　コーポ豊島１階　店舗",
    "lat":35.754266,
    "lon":139.583804
  },
  {
    "id":53,
    "name":"あかねっこ弁当",
    "address":"練馬区春日町３－１３－１",
    "lat":35.749054,
    "lon":139.641613
  },
  {
    "id":54,
    "name":"こぶし事業所",
    "address":"練馬区北町７－２０－３６",
    "lat":35.763189,
    "lon":139.650492
  },
  {
    "id":55,
    "name":"綾瀬ひまわり園",
    "address":"足立区綾瀬７－２－７",
    "lat":35.774837,
    "lon":139.824238
  },
  {
    "id":56,
    "name":"ラトリエ　ソサイエティ",
    "address":"足立区中央本町４－４－１２",
    "lat":35.775853,
    "lon":139.805965
  },
  {
    "id":57,
    "name":"のんの",
    "address":"足立区保木間１－１－３　東潤ビル１階",
    "lat":35.789201,
    "lon":139.802992
  },
  {
    "id":58,
    "name":"クリスタルサービス足立",
    "address":"足立区保木間一丁目１０番１８号　淵江プラザビル２階",
    "lat":35.78969,
    "lon":139.806056
  },
  {
    "id":59,
    "name":"竹の塚ひまわり園クリーンチーム",
    "address":"足立区竹の塚７－１９－７",
    "lat":35.8007,
    "lon":139.795551
  },
  {
    "id":60,
    "name":"大滝チャレンジド",
    "address":"足立区梅島３－２４－４",
    "lat":35.776877,
    "lon":139.793129
  },
  {
    "id":61,
    "name":"アイリス",
    "address":"足立区梅島１－１６－６　ジュネス小野田１階",
    "lat":35.773328,
    "lon":139.799401
  },
  {
    "id":62,
    "name":"フリージア",
    "address":"足立区梅島１－１９－１０　ホワイトテラス梅島",
    "lat":35.772786,
    "lon":139.800768
  },
  {
    "id":63,
    "name":"クリーニングフランセ",
    "address":"足立区栗原３－２５－１２",
    "lat":35.78121,
    "lon":139.783736
  },
  {
    "id":64,
    "name":"谷在家福祉作業所",
    "address":"足立区谷在家３－１３－１",
    "lat":35.788325,
    "lon":139.765734
  },
  {
    "id":65,
    "name":"きせん事業所",
    "address":"葛飾区東金町１－３５－１０",
    "lat":35.772776,
    "lon":139.871632
  },
  {
    "id":66,
    "name":"アップドラフト",
    "address":"葛飾区東金町１－４２－１０　金町ビル３階",
    "lat":35.770421,
    "lon":139.871282
  },
  {
    "id":67,
    "name":"社会福祉法人東京コロニー　東京都葛飾福祉工場",
    "address":"葛飾区金町２－８－２０",
    "lat":35.764547,
    "lon":139.869124
  },
  {
    "id":68,
    "name":"ファーストプランニング",
    "address":"葛飾区柴又６－１２－１８　２階",
    "lat":35.756028,
    "lon":139.87711
  },
  {
    "id":69,
    "name":"ぽむの樹",
    "address":"葛飾区青戸５－２－９　青戸ハイツ１０１、２０５",
    "lat":35.74769,
    "lon":139.853828
  },
  {
    "id":70,
    "name":"東京ソテリアエンプロイメント",
    "address":"江戸川区松島２－９－２",
    "lat":35.708966,
    "lon":139.859091
  },
  {
    "id":71,
    "name":"ラピス",
    "address":"江戸川区東小松川２－１０－５",
    "lat":35.69884,
    "lon":139.866818
  },
  {
    "id":72,
    "name":"イーストフライト",
    "address":"江戸川区小松川３－２－１　テクノタウン３０６",
    "lat":35.696756,
    "lon":139.847592
  },
  {
    "id":73,
    "name":"ワークワーク東京",
    "address":"江戸川区東葛西３－１７－４１",
    "lat":35.665968,
    "lon":139.885895
  },
  {
    "id":74,
    "name":"タオ江戸川",
    "address":"江戸川区東葛西１－４５－１１",
    "lat":35.670486,
    "lon":139.882115
  },
  {
    "id":75,
    "name":"ぽぷら八王子",
    "address":"八王子市戸吹町２１０４　株式会社エフピコ八王子ＰＷ工場内",
    "lat":35.711111,
    "lon":139.291511
  },
  {
    "id":76,
    "name":"ハートエース",
    "address":"八王子市子安町１－１５－１　テクノビル２階",
    "lat":35.653785,
    "lon":139.342389
  },
  {
    "id":77,
    "name":"アース",
    "address":"八王子市片倉町７０６－６",
    "lat":35.640301,
    "lon":139.340593
  },
  {
    "id":78,
    "name":"リーフ",
    "address":"八王子市千人町２－３－１６　プラザ西八王子２Ｆ",
    "lat":35.658256,
    "lon":139.313467
  },
  {
    "id":79,
    "name":"シエル",
    "address":"八王子市初沢町１２３１－１７　高尾力栄ビル２０２",
    "lat":35.641549,
    "lon":139.285245
  },
  {
    "id":80,
    "name":"立川おりおん",
    "address":"立川市曙町２－９－１　菊屋ビルディング５０２",
    "lat":35.701026,
    "lon":139.415601
  },
  {
    "id":81,
    "name":"はちす",
    "address":"立川市一番町１－４１－１１",
    "lat":35.725048,
    "lon":139.38295
  },
  {
    "id":82,
    "name":"マジェルカ",
    "address":"武蔵野市吉祥寺本町３－３－１１　中田ビル",
    "lat":35.704894,
    "lon":139.573529
  },
  {
    "id":83,
    "name":"ワークセンターけやき",
    "address":"武蔵野市西久保２－２７－６",
    "lat":35.708604,
    "lon":139.554842
  },
  {
    "id":84,
    "name":"三鷹ひまわり第一共同作業所",
    "address":"三鷹市下連雀４－８－２０",
    "lat":35.692895,
    "lon":139.562692
  },
  {
    "id":85,
    "name":"ワークショップハーモニー",
    "address":"三鷹市大沢１－１－４３",
    "lat":35.678579,
    "lon":139.541005
  },
  {
    "id":86,
    "name":"自立支援塾ぱん工房",
    "address":"青梅市東青梅２－１８－５　セトル東青梅１０６・１０７",
    "lat":35.790259,
    "lon":139.27486
  },
  {
    "id":87,
    "name":"アルホープ",
    "address":"青梅市東青梅５－３－４　アルトポンテ２階",
    "lat":35.785646,
    "lon":139.282326
  },
  {
    "id":88,
    "name":"西府いこいプラザ",
    "address":"府中市西府町３－２９－１７",
    "lat":35.678877,
    "lon":139.456862
  },
  {
    "id":89,
    "name":"らぷらんど調布",
    "address":"調布市小島町３－３３－１　１０２及び２０２",
    "lat":35.645981,
    "lon":139.53643
  },
  {
    "id":90,
    "name":"スワンカフェ＆ベーカリー町田１号店",
    "address":"町田市中町３－７－１７",
    "lat":35.552136,
    "lon":139.448087
  },
  {
    "id":91,
    "name":"スワンカフェ＆ベーカリー町田２号店",
    "address":"町田市木曽西２－１７－２１　ショッピングセンター３０５内",
    "lat":35.569489,
    "lon":139.415311
  },
  {
    "id":92,
    "name":"みくま",
    "address":"小平市大沼町２－１－１２",
    "lat":35.738182,
    "lon":139.492193
  },
  {
    "id":93,
    "name":"ディーセント・ワーク平山台",
    "address":"日野市平山２－１－１",
    "lat":35.640974,
    "lon":139.387136
  },
  {
    "id":94,
    "name":"コロニー東村山",
    "address":"東村山市秋津町２－２２－９",
    "lat":35.768765,
    "lon":139.487895
  },
  {
    "id":95,
    "name":"ともにー",
    "address":"国立市泉１－１６－４",
    "lat":35.672633,
    "lon":139.437836
  },
  {
    "id":96,
    "name":"ステップアップともにー",
    "address":"国立市泉１－１２－３",
    "lat":35.673072,
    "lon":139.439133
  },
  {
    "id":97,
    "name":"スマイルアーク",
    "address":"清瀬市松山１－１２－１５",
    "lat":35.77191,
    "lon":139.517862
  },
  {
    "id":98,
    "name":"就労支援事業所　コイノニア",
    "address":"東久留米市滝山５－１－１６　さはら文具ビル",
    "lat":35.746209,
    "lon":139.503261
  },
  {
    "id":99,
    "name":"きぼう工房東くるめ",
    "address":"東久留米市下里２－１６－２１",
    "lat":35.752181,
    "lon":139.505733
  },
  {
    "id":100,
    "name":"草むらde夢（畑deきっちん）",
    "address":"多摩市落合１－４６－１　ココリア多摩センター６階６０４",
    "lat":35.622376,
    "lon":139.424852
  },
  {
    "id":101,
    "name":"Ｅ’ｓ　Ｃａｆｅ",
    "address":"多摩市落合１－４７　ニューシティ多摩センタービル８階",
    "lat":35.621786,
    "lon":139.423737
  },
  {
    "id":102,
    "name":"ベネッセソシアス稲城センター",
    "address":"稲城市押立１０３３－１",
    "lat":35.647164,
    "lon":139.513337
  },
  {
    "id":103,
    "name":"プロシード",
    "address":"あきる野市下代継９４－６",
    "lat":35.727103,
    "lon":139.281845
  }
]