{
  "facilityType": "ccd",
  "generatedAt": "2025-08-15T03:05:02.938Z",
  "facilities": [
    {
      "id": 0,
      "name": "相談支援事業所　Ｍｏｉ",
      "address": "千代田区神田神保町２－３　神田古書センタービル６階",
      "lat": 35.695697,
      "lon": 139.757239,
      "geohash": "xn77h6",
      "neighbors": [
        "xn77h7",
        "xn77hd",
        "xn77hd",
        "xn77h7",
        "xn77he"
      ],
      "precision": 6
    },
    {
      "id": 1,
      "name": "特定非営利活動法人ホープ",
      "address": "千代田区富士見２－３－７　タカオカビル１０１",
      "lat": 35.699613,
      "lon": 139.745153,
      "geohash": "xn775f",
      "neighbors": [
        "xn775g",
        "xn77h4",
        "xn77h4",
        "xn775g",
        "xn77h5"
      ],
      "precision": 6
    },
    {
      "id": 2,
      "name": "中央区立福祉センター",
      "address": "中央区明石町１２番１号",
      "lat": 35.666506,
      "lon": 139.777035,
      "geohash": "xn76us",
      "neighbors": [
        "xn76ut",
        "xn76uu",
        "xn76uu",
        "xn76ut",
        "xn76uv"
      ],
      "precision": 6
    },
    {
      "id": 3,
      "name": "中央区立知的障害者生活支援施設レインボーハウス明石",
      "address": "中央区明石町１－６",
      "lat": 35.669292,
      "lon": 139.776716,
      "geohash": "xn76ut",
      "neighbors": [
        "xn76uw",
        "xn76uv",
        "xn76uv",
        "xn76uw",
        "xn76uy"
      ],
      "precision": 6
    },
    {
      "id": 4,
      "name": "中央区立福祉センター障害児相談支援事業所",
      "address": "中央区明石町１２－１",
      "lat": 35.666506,
      "lon": 139.777035,
      "geohash": "xn76us",
      "neighbors": [
        "xn76ut",
        "xn76uu",
        "xn76uu",
        "xn76ut",
        "xn76uv"
      ],
      "precision": 6
    },
    {
      "id": 5,
      "name": "相談支援事業所ヒューマングロー東銀座",
      "address": "中央区築地４－１２－２　ライオンズマンション７０１",
      "lat": 35.66557,
      "lon": 139.771222,
      "geohash": "xn76us",
      "neighbors": [
        "xn76ut",
        "xn76uu",
        "xn76uu",
        "xn76ut",
        "xn76uv"
      ],
      "precision": 6
    },
    {
      "id": 6,
      "name": "新橋はつらつ太陽",
      "address": "港区新橋６－１９－２",
      "lat": 35.661192,
      "lon": 139.753738,
      "geohash": "xn76u5",
      "neighbors": [
        "xn76uh",
        "xn76u7",
        "xn76u7",
        "xn76uh",
        "xn76uk"
      ],
      "precision": 6
    },
    {
      "id": 7,
      "name": "コスモスケアステーション",
      "address": "港区新橋６－５－４　ＤＩＫマンション新橋８０３号",
      "lat": 35.662134,
      "lon": 139.754418,
      "geohash": "xn76uh",
      "neighbors": [
        "xn76uj",
        "xn76uk",
        "xn76uk",
        "xn76uj",
        "xn76um"
      ],
      "precision": 6
    },
    {
      "id": 8,
      "name": "ケアネスト",
      "address": "港区芝大門１－１１－９",
      "lat": 35.658312,
      "lon": 139.752779,
      "geohash": "xn76u5",
      "neighbors": [
        "xn76uh",
        "xn76u7",
        "xn76u7",
        "xn76uh",
        "xn76uk"
      ],
      "precision": 6
    },
    {
      "id": 9,
      "name": "港区立障害保健福祉センター　地域活動支援センター",
      "address": "港区芝１－８－２３",
      "lat": 35.651618,
      "lon": 139.755574,
      "geohash": "xn76u4",
      "neighbors": [
        "xn76u5",
        "xn76u6",
        "xn76u6",
        "xn76u5",
        "xn76u7"
      ],
      "precision": 6
    },
    {
      "id": 10,
      "name": "特定非営利活動法人　みなと障がい者福祉事業団",
      "address": "港区芝１－８－２３　港区立障害福祉保健センター内",
      "lat": 35.651618,
      "lon": 139.755574,
      "geohash": "xn76u4",
      "neighbors": [
        "xn76u5",
        "xn76u6",
        "xn76u6",
        "xn76u5",
        "xn76u7"
      ],
      "precision": 6
    },
    {
      "id": 11,
      "name": "社会福祉法人　家庭授産奨励会　西麻布作業所",
      "address": "港区西麻布３－１９－１６",
      "lat": 35.659619,
      "lon": 139.725665,
      "geohash": "xn76ge",
      "neighbors": [
        "xn76gs",
        "xn76gg",
        "xn76gg",
        "xn76gs",
        "xn76gu"
      ],
      "precision": 6
    },
    {
      "id": 12,
      "name": "ＧＩＦＴライフプランナー",
      "address": "港区麻布十番２－１３－２　アザブクマイビル３０２",
      "lat": 35.655001,
      "lon": 139.735225,
      "geohash": "xn76gf",
      "neighbors": [
        "xn76gg",
        "xn76u4",
        "xn76u4",
        "xn76gg",
        "xn76u5"
      ],
      "precision": 6
    },
    {
      "id": 13,
      "name": "ハッピーテラスケアサポート芝浦",
      "address": "港区芝浦４－１２－３１",
      "lat": 35.640017,
      "lon": 139.749103,
      "geohash": "xn76u0",
      "neighbors": [
        "xn76u1",
        "xn76u2",
        "xn76u2",
        "xn76u1",
        "xn76u3"
      ],
      "precision": 6
    },
    {
      "id": 14,
      "name": "訪問介護事業所エブリィ",
      "address": "港区三田２－１１－７－２０２",
      "lat": 35.650176,
      "lon": 139.744478,
      "geohash": "xn76gc",
      "neighbors": [
        "xn76gf",
        "xn76u1",
        "xn76u1",
        "xn76gf",
        "xn76u4"
      ],
      "precision": 6
    },
    {
      "id": 15,
      "name": "ケアコーディネーション",
      "address": "港区三田２－２－２７－４０４",
      "lat": 35.649735,
      "lon": 139.738578,
      "geohash": "xn76gc",
      "neighbors": [
        "xn76gf",
        "xn76u1",
        "xn76u1",
        "xn76gf",
        "xn76u4"
      ],
      "precision": 6
    },
    {
      "id": 16,
      "name": "有限会社すばる介護センター",
      "address": "港区高輪３丁目２番３号　Ｔ３２３プレイスビル２Ｆ",
      "lat": 35.635553,
      "lon": 139.732682,
      "geohash": "xn76ex",
      "neighbors": [
        "xn76g8",
        "xn76ez",
        "xn76ez",
        "xn76g8",
        "xn76gb"
      ],
      "precision": 6
    },
    {
      "id": 17,
      "name": "麻布メンタルヘルス指定相談支援事業所",
      "address": "港区高輪１－４－８",
      "lat": 35.642988,
      "lon": 139.734898,
      "geohash": "xn76g8",
      "neighbors": [
        "xn76g9",
        "xn76gb",
        "xn76gb",
        "xn76g9",
        "xn76gc"
      ],
      "precision": 6
    },
    {
      "id": 18,
      "name": "港区立精神障害者地域活動支援センター",
      "address": "港区高輪１－４－８",
      "lat": 35.642988,
      "lon": 139.734898,
      "geohash": "xn76g8",
      "neighbors": [
        "xn76g9",
        "xn76gb",
        "xn76gb",
        "xn76g9",
        "xn76gc"
      ],
      "precision": 6
    },
    {
      "id": 19,
      "name": "プロキオン",
      "address": "新宿区若葉１－４",
      "lat": 35.686641,
      "lon": 139.724125,
      "geohash": "xn7758",
      "neighbors": [
        "xn7759",
        "xn775b",
        "xn775b",
        "xn7759",
        "xn775c"
      ],
      "precision": 6
    },
    {
      "id": 20,
      "name": "新宿区立子ども総合センター",
      "address": "新宿区新宿７－３－２９",
      "lat": 35.701003,
      "lon": 139.712681,
      "geohash": "xn7755",
      "neighbors": [
        "xn775h",
        "xn7757",
        "xn7757",
        "xn775h",
        "xn775k"
      ],
      "precision": 6
    },
    {
      "id": 21,
      "name": "相談支援事業所　Ｋａｉｅｎ新宿",
      "address": "新宿区西新宿６－２－３　新宿アイランドアネックス２０７",
      "lat": 35.693615,
      "lon": 139.69413,
      "geohash": "xn774c",
      "neighbors": [
        "xn774f",
        "xn7751",
        "xn7751",
        "xn774f",
        "xn7754"
      ],
      "precision": 6
    },
    {
      "id": 22,
      "name": "ホートンケアサービス",
      "address": "新宿区西新宿４－３２－１１　新宿セントビラ永谷７１３号",
      "lat": 35.687071,
      "lon": 139.688862,
      "geohash": "xn7748",
      "neighbors": [
        "xn7749",
        "xn774b",
        "xn774b",
        "xn7749",
        "xn774c"
      ],
      "precision": 6
    },
    {
      "id": 23,
      "name": "新宿区基幹相談支援センター",
      "address": "新宿区歌舞伎町１丁目４－１　新宿区役所本庁舎２階障害者福祉課",
      "lat": 35.69389,
      "lon": 139.703463,
      "geohash": "xn7751",
      "neighbors": [
        "xn7754",
        "xn7753",
        "xn7753",
        "xn7754",
        "xn7756"
      ],
      "precision": 6
    },
    {
      "id": 24,
      "name": "社会福祉支援研究所",
      "address": "新宿区高田馬場１－４－２１",
      "lat": 35.711094,
      "lon": 139.70957,
      "geohash": "xn775j",
      "neighbors": [
        "xn775n",
        "xn775m",
        "xn775m",
        "xn775n",
        "xn775q"
      ],
      "precision": 6
    },
    {
      "id": 25,
      "name": "地域プラザ　ふらっと",
      "address": "文京区小日向２－１６－１５",
      "lat": 35.710581,
      "lon": 139.734582,
      "geohash": "xn775s",
      "neighbors": [
        "xn775t",
        "xn775u",
        "xn775u",
        "xn775t",
        "xn775v"
      ],
      "precision": 6
    },
    {
      "id": 26,
      "name": "タオ",
      "address": "文京区白山１－３２－１１　鈴木ビル１０１",
      "lat": 35.720049,
      "lon": 139.752472,
      "geohash": "xn77hn",
      "neighbors": [
        "xn77hp",
        "xn77hq",
        "xn77hq",
        "xn77hp",
        "xn77hr"
      ],
      "precision": 6
    },
    {
      "id": 27,
      "name": "だんござかハウス　相談支援係",
      "address": "文京区千駄木２－３３－８",
      "lat": 35.724461,
      "lon": 139.763135,
      "geohash": "xn77hr",
      "neighbors": [
        "xn77k2",
        "xn77hx",
        "xn77hx",
        "xn77k2",
        "xn77k8"
      ],
      "precision": 6
    },
    {
      "id": 28,
      "name": "相談支援事業所　リリーフ",
      "address": "文京区湯島３－２０－９－４０１",
      "lat": 35.705651,
      "lon": 139.767666,
      "geohash": "xn77hk",
      "neighbors": [
        "xn77hm",
        "xn77hs",
        "xn77hs",
        "xn77hm",
        "xn77ht"
      ],
      "precision": 6
    },
    {
      "id": 29,
      "name": "文京区児童発達支援センター",
      "address": "文京区湯島４－７－１０",
      "lat": 35.708848,
      "lon": 139.765768,
      "geohash": "xn77hk",
      "neighbors": [
        "xn77hm",
        "xn77hs",
        "xn77hs",
        "xn77hm",
        "xn77ht"
      ],
      "precision": 6
    },
    {
      "id": 30,
      "name": "特定非営利活動法人　自立生活センターたいとう",
      "address": "台東区竜泉３－１９－７　１階",
      "lat": 35.725678,
      "lon": 139.792452,
      "geohash": "xn77jp",
      "neighbors": [
        "xn77m0",
        "xn77jr",
        "xn77jr",
        "xn77m0",
        "xn77m2"
      ],
      "precision": 6
    },
    {
      "id": 31,
      "name": "つばさ相談支援センター",
      "address": "台東区台東１－２５－５　台東複合施設いきいきプラザ３階",
      "lat": 35.70188,
      "lon": 139.77784,
      "geohash": "xn77he",
      "neighbors": [
        "xn77hs",
        "xn77hg",
        "xn77hg",
        "xn77hs",
        "xn77hu"
      ],
      "precision": 6
    },
    {
      "id": 32,
      "name": "相談支援センターほおずき",
      "address": "台東区日本堤１－３２－３",
      "lat": 35.725561,
      "lon": 139.796676,
      "geohash": "xn77jp",
      "neighbors": [
        "xn77m0",
        "xn77jr",
        "xn77jr",
        "xn77m0",
        "xn77m2"
      ],
      "precision": 6
    },
    {
      "id": 33,
      "name": "障害者支援施設　浅草ほうらい",
      "address": "台東区清川２丁目１４番地７号",
      "lat": 35.72717,
      "lon": 139.801304,
      "geohash": "xn77jr",
      "neighbors": [
        "xn77m2",
        "xn77jx",
        "xn77jx",
        "xn77m2",
        "xn77m8"
      ],
      "precision": 6
    },
    {
      "id": 34,
      "name": "相談支援センターアップル",
      "address": "台東区千束３－２０－２４",
      "lat": 35.723372,
      "lon": 139.792285,
      "geohash": "xn77jp",
      "neighbors": [
        "xn77m0",
        "xn77jr",
        "xn77jr",
        "xn77m0",
        "xn77m2"
      ],
      "precision": 6
    },
    {
      "id": 35,
      "name": "相談支援センターつなぐ",
      "address": "台東区浅草３－９－２　ランドール浅草１０２",
      "lat": 35.717054,
      "lon": 139.794491,
      "geohash": "xn77jn",
      "neighbors": [
        "xn77jp",
        "xn77jq",
        "xn77jq",
        "xn77jp",
        "xn77jr"
      ],
      "precision": 6
    },
    {
      "id": 36,
      "name": "特定非営利活動法人トータルサポートたいとう",
      "address": "台東区浅草５－１５－２",
      "lat": 35.720598,
      "lon": 139.795016,
      "geohash": "xn77jn",
      "neighbors": [
        "xn77jp",
        "xn77jq",
        "xn77jq",
        "xn77jp",
        "xn77jr"
      ],
      "precision": 6
    },
    {
      "id": 37,
      "name": "台東区松が谷福祉会館",
      "address": "台東区松が谷１丁目４番１２号",
      "lat": 35.711304,
      "lon": 139.785425,
      "geohash": "xn77hv",
      "neighbors": [
        "xn77hy",
        "xn77jj",
        "xn77jj",
        "xn77hy",
        "xn77jn"
      ],
      "precision": 6
    },
    {
      "id": 38,
      "name": "かけはし",
      "address": "台東区浅草橋１－３２－６　コスモス浅草橋酒井ビル２階",
      "lat": 35.698555,
      "lon": 139.785482,
      "geohash": "xn77hf",
      "neighbors": [
        "xn77hg",
        "xn77j4",
        "xn77j4",
        "xn77hg",
        "xn77j5"
      ],
      "precision": 6
    },
    {
      "id": 39,
      "name": "ほしのき相談支援",
      "address": "墨田区業平５－１１－１０　岩楯ビル１０２",
      "lat": 35.708097,
      "lon": 139.816495,
      "geohash": "xn77js",
      "neighbors": [
        "xn77jt",
        "xn77ju",
        "xn77ju",
        "xn77jt",
        "xn77jv"
      ],
      "precision": 6
    },
    {
      "id": 40,
      "name": "相談支援事業所ジョイサポート",
      "address": "墨田区横川５－１０－１　プリメール柳島１１８",
      "lat": 35.705555,
      "lon": 139.81642,
      "geohash": "xn77je",
      "neighbors": [
        "xn77js",
        "xn77jg",
        "xn77jg",
        "xn77js",
        "xn77ju"
      ],
      "precision": 6
    },
    {
      "id": 41,
      "name": "ハーツ相談支援事業所",
      "address": "墨田区石原３－１－１",
      "lat": 35.699117,
      "lon": 139.802745,
      "geohash": "xn77j6",
      "neighbors": [
        "xn77j7",
        "xn77jd",
        "xn77jd",
        "xn77j7",
        "xn77je"
      ],
      "precision": 6
    },
    {
      "id": 42,
      "name": "らいふ十人会",
      "address": "墨田区緑４－５－１０",
      "lat": 35.693184,
      "lon": 139.806728,
      "geohash": "xn77j3",
      "neighbors": [
        "xn77j6",
        "xn77j9",
        "xn77j9",
        "xn77j6",
        "xn77jd"
      ],
      "precision": 6
    },
    {
      "id": 43,
      "name": "ラック鐘ヶ淵",
      "address": "墨田区東向島２－３６－１１　２０２号室",
      "lat": 35.721594,
      "lon": 139.818167,
      "geohash": "xn77jw",
      "neighbors": [
        "xn77jx",
        "xn77jy",
        "xn77jy",
        "xn77jx",
        "xn77jz"
      ],
      "precision": 6
    },
    {
      "id": 44,
      "name": "エリアサポートすみだ",
      "address": "墨田区向島３－３５－１３　ブランニューハウス１階",
      "lat": 35.712666,
      "lon": 139.809953,
      "geohash": "xn77jm",
      "neighbors": [
        "xn77jq",
        "xn77jt",
        "xn77jt",
        "xn77jq",
        "xn77jw"
      ],
      "precision": 6
    },
    {
      "id": 45,
      "name": "すみだ福祉保健センター相談支援事業所",
      "address": "墨田区向島３－３６－７",
      "lat": 35.713374,
      "lon": 139.810759,
      "geohash": "xn77jm",
      "neighbors": [
        "xn77jq",
        "xn77jt",
        "xn77jt",
        "xn77jq",
        "xn77jw"
      ],
      "precision": 6
    },
    {
      "id": 46,
      "name": "ラック立花",
      "address": "墨田区立花１－２３　２号棟１０１号室",
      "lat": 35.706589,
      "lon": 139.830724,
      "geohash": "xn77ju",
      "neighbors": [
        "xn77jv",
        "xn77nh",
        "xn77nh",
        "xn77jv",
        "xn77nj"
      ],
      "precision": 6
    },
    {
      "id": 47,
      "name": "本所相談支援事業所",
      "address": "墨田区文花３－１４－４",
      "lat": 35.712011,
      "lon": 139.825938,
      "geohash": "xn77jv",
      "neighbors": [
        "xn77jy",
        "xn77nj",
        "xn77nj",
        "xn77jy",
        "xn77nn"
      ],
      "precision": 6
    },
    {
      "id": 48,
      "name": "あしたば相談支援事業所",
      "address": "墨田区押上１－４３－３",
      "lat": 35.709966,
      "lon": 139.816536,
      "geohash": "xn77js",
      "neighbors": [
        "xn77jt",
        "xn77ju",
        "xn77ju",
        "xn77jt",
        "xn77jv"
      ],
      "precision": 6
    },
    {
      "id": 49,
      "name": "ラックすみだ",
      "address": "墨田区京島１－４７－１７",
      "lat": 35.718336,
      "lon": 139.821589,
      "geohash": "xn77jw",
      "neighbors": [
        "xn77jx",
        "xn77jy",
        "xn77jy",
        "xn77jx",
        "xn77jz"
      ],
      "precision": 6
    },
    {
      "id": 50,
      "name": "あそかライフサービス株式会社",
      "address": "江東区住吉１－１６－１３　富士工第２ビル３階",
      "lat": 35.689035,
      "lon": 139.812897,
      "geohash": "xn77j8",
      "neighbors": [
        "xn77j9",
        "xn77jb",
        "xn77jb",
        "xn77j9",
        "xn77jc"
      ],
      "precision": 6
    },
    {
      "id": 51,
      "name": "グッドワン",
      "address": "江東区住吉１－１４－１１",
      "lat": 35.688454,
      "lon": 139.813466,
      "geohash": "xn77j8",
      "neighbors": [
        "xn77j9",
        "xn77jb",
        "xn77jb",
        "xn77j9",
        "xn77jc"
      ],
      "precision": 6
    },
    {
      "id": 52,
      "name": "乳幼児親子教室",
      "address": "江東区猿江１－１８－９－２０４",
      "lat": 35.687024,
      "lon": 139.811683,
      "geohash": "xn77j2",
      "neighbors": [
        "xn77j3",
        "xn77j8",
        "xn77j8",
        "xn77j3",
        "xn77j9"
      ],
      "precision": 6
    },
    {
      "id": 53,
      "name": "江東区こども発達扇橋センター",
      "address": "江東区扇橋３－７－２",
      "lat": 35.682685,
      "lon": 139.820443,
      "geohash": "xn76vx",
      "neighbors": [
        "xn77j8",
        "xn76vz",
        "xn76vz",
        "xn77j8",
        "xn77jb"
      ],
      "precision": 6
    },
    {
      "id": 54,
      "name": "たんぽぽクラブ",
      "address": "江東区石島５－７　深川ビル１階２０１号室",
      "lat": 35.680375,
      "lon": 139.811966,
      "geohash": "xn76vr",
      "neighbors": [
        "xn77j2",
        "xn76vx",
        "xn76vx",
        "xn77j2",
        "xn77j8"
      ],
      "precision": 6
    },
    {
      "id": 55,
      "name": "なかよし指定訪問介護事業所",
      "address": "江東区福住２－４－１",
      "lat": 35.677755,
      "lon": 139.79391,
      "geohash": "xn76vn",
      "neighbors": [
        "xn76vp",
        "xn76vq",
        "xn76vq",
        "xn76vp",
        "xn76vr"
      ],
      "precision": 6
    },
    {
      "id": 56,
      "name": "こぴあクラブ",
      "address": "江東区冬木６－２０",
      "lat": 35.673386,
      "lon": 139.801603,
      "geohash": "xn76vq",
      "neighbors": [
        "xn76vr",
        "xn76vw",
        "xn76vw",
        "xn76vr",
        "xn76vx"
      ],
      "precision": 6
    },
    {
      "id": 57,
      "name": "ライフアーク相談支援センター",
      "address": "江東区木場６－１０－６　ＴＫＹビル３階",
      "lat": 35.668345,
      "lon": 139.805822,
      "geohash": "xn76vm",
      "neighbors": [
        "xn76vq",
        "xn76vt",
        "xn76vt",
        "xn76vq",
        "xn76vw"
      ],
      "precision": 6
    },
    {
      "id": 58,
      "name": "江東区こども発達センター",
      "address": "江東区塩浜２－５－２０",
      "lat": 35.661932,
      "lon": 139.805383,
      "geohash": "xn76vk",
      "neighbors": [
        "xn76vm",
        "xn76vs",
        "xn76vs",
        "xn76vm",
        "xn76vt"
      ],
      "precision": 6
    },
    {
      "id": 59,
      "name": "あそかライフサービス　辰己営業所",
      "address": "江東区辰巳１－２－９－１０３号　辰己団地９号棟店舗",
      "lat": 35.650056,
      "lon": 139.808297,
      "geohash": "xn76v3",
      "neighbors": [
        "xn76v6",
        "xn76v9",
        "xn76v9",
        "xn76v6",
        "xn76vd"
      ],
      "precision": 6
    },
    {
      "id": 60,
      "name": "スマートキッズ江東相談支援センター",
      "address": "江東区亀戸１－３１－７",
      "lat": 35.694709,
      "lon": 139.825678,
      "geohash": "xn77jf",
      "neighbors": [
        "xn77jg",
        "xn77n4",
        "xn77n4",
        "xn77jg",
        "xn77n5"
      ],
      "precision": 6
    },
    {
      "id": 61,
      "name": "カレッジケア",
      "address": "江東区亀戸６－３０－４－１１０７号",
      "lat": 35.696337,
      "lon": 139.827986,
      "geohash": "xn77jf",
      "neighbors": [
        "xn77jg",
        "xn77n4",
        "xn77n4",
        "xn77jg",
        "xn77n5"
      ],
      "precision": 6
    },
    {
      "id": 62,
      "name": "城東訪問介護",
      "address": "江東区大島３－１５－１３",
      "lat": 35.690743,
      "lon": 139.828991,
      "geohash": "xn77jc",
      "neighbors": [
        "xn77jf",
        "xn77n1",
        "xn77n1",
        "xn77jf",
        "xn77n4"
      ],
      "precision": 6
    },
    {
      "id": 63,
      "name": "さくら・介護ステーション大島",
      "address": "江東区大島７－１０－５　梅田ビル１階",
      "lat": 35.692238,
      "lon": 139.838729,
      "geohash": "xn77n1",
      "neighbors": [
        "xn77n4",
        "xn77n3",
        "xn77n3",
        "xn77n4",
        "xn77n6"
      ],
      "precision": 6
    },
    {
      "id": 64,
      "name": "有限会社ケア・けんこう",
      "address": "江東区北砂６－１９－３",
      "lat": 35.684927,
      "lon": 139.838266,
      "geohash": "xn77n0",
      "neighbors": [
        "xn77n1",
        "xn77n2",
        "xn77n2",
        "xn77n1",
        "xn77n3"
      ],
      "precision": 6
    },
    {
      "id": 65,
      "name": "ツクイ江東北砂",
      "address": "江東区北砂６－２１－４　紅ビル２０１",
      "lat": 35.684333,
      "lon": 139.837918,
      "geohash": "xn77n0",
      "neighbors": [
        "xn77n1",
        "xn77n2",
        "xn77n2",
        "xn77n1",
        "xn77n3"
      ],
      "precision": 6
    },
    {
      "id": 66,
      "name": "江東ヘルパーステーション",
      "address": "江東区南砂２－３７－１０－４０７",
      "lat": 35.670393,
      "lon": 139.825453,
      "geohash": "xn76vv",
      "neighbors": [
        "xn76vy",
        "xn76yj",
        "xn76yj",
        "xn76vy",
        "xn76yn"
      ],
      "precision": 6
    },
    {
      "id": 67,
      "name": "相談支援事業所パルレ",
      "address": "品川区八潮５－９－１１",
      "lat": 35.598211,
      "lon": 139.752285,
      "geohash": "xn76s0",
      "neighbors": [
        "xn76s1",
        "xn76s2",
        "xn76s2",
        "xn76s1",
        "xn76s3"
      ],
      "precision": 6
    },
    {
      "id": 68,
      "name": "グロー障害者相談支援センター",
      "address": "品川区南品川５－１０－４３　楓ハイツ３階",
      "lat": 35.609842,
      "lon": 139.73961,
      "geohash": "xn76ef",
      "neighbors": [
        "xn76eg",
        "xn76s4",
        "xn76s4",
        "xn76eg",
        "xn76s5"
      ],
      "precision": 6
    },
    {
      "id": 69,
      "name": "ケアサークル恵愛障害者相談支援センター",
      "address": "品川区大井３－１７－８　大井本通りビル",
      "lat": 35.602054,
      "lon": 139.731203,
      "geohash": "xn76e9",
      "neighbors": [
        "xn76ed",
        "xn76ec",
        "xn76ec",
        "xn76ed",
        "xn76ef"
      ],
      "precision": 6
    },
    {
      "id": 70,
      "name": "ケアメイト品川居宅介護支援事業所",
      "address": "品川区西大井２－４－１４",
      "lat": 35.59964,
      "lon": 139.722503,
      "geohash": "xn76e2",
      "neighbors": [
        "xn76e3",
        "xn76e8",
        "xn76e8",
        "xn76e3",
        "xn76e9"
      ],
      "precision": 6
    },
    {
      "id": 71,
      "name": "品川区　障害者福祉課",
      "address": "品川区広町２－１－３６",
      "lat": 35.608836,
      "lon": 139.730241,
      "geohash": "xn76ed",
      "neighbors": [
        "xn76ee",
        "xn76ef",
        "xn76ef",
        "xn76ee",
        "xn76eg"
      ],
      "precision": 6
    },
    {
      "id": 72,
      "name": "目黒区児童発達支援センター　相談支援ひまわり",
      "address": "目黒区中央町２－２３－２４",
      "lat": 35.630827,
      "lon": 139.690941,
      "geohash": "xn76dw",
      "neighbors": [
        "xn76dx",
        "xn76dy",
        "xn76dy",
        "xn76dx",
        "xn76dz"
      ],
      "precision": 6
    },
    {
      "id": 73,
      "name": "アトリエそうだん",
      "address": "目黒区碑文谷１－１１－１５",
      "lat": 35.621315,
      "lon": 139.691005,
      "geohash": "xn76ds",
      "neighbors": [
        "xn76dt",
        "xn76du",
        "xn76du",
        "xn76dt",
        "xn76dv"
      ],
      "precision": 6
    },
    {
      "id": 74,
      "name": "福祉相談事務所　エール",
      "address": "目黒区鷹番２－２０－１３　ＲＳ牛山２０３",
      "lat": 35.6294,
      "lon": 139.686203,
      "geohash": "xn76dw",
      "neighbors": [
        "xn76dx",
        "xn76dy",
        "xn76dy",
        "xn76dx",
        "xn76dz"
      ],
      "precision": 6
    },
    {
      "id": 75,
      "name": "ナイスケア目黒相談支援センター",
      "address": "目黒区大岡山１－５－１５　ＮＣビル２階",
      "lat": 35.610685,
      "lon": 139.68442,
      "geohash": "xn76dd",
      "neighbors": [
        "xn76de",
        "xn76df",
        "xn76df",
        "xn76de",
        "xn76dg"
      ],
      "precision": 6
    },
    {
      "id": 76,
      "name": "たんぽぽの会　相談支援",
      "address": "目黒区五本木３－３２－８",
      "lat": 35.629744,
      "lon": 139.681284,
      "geohash": "xn76dw",
      "neighbors": [
        "xn76dx",
        "xn76dy",
        "xn76dy",
        "xn76dx",
        "xn76dz"
      ],
      "precision": 6
    },
    {
      "id": 77,
      "name": "ふれんず",
      "address": "目黒区中目黒５－２８－２１　ＳＶ祐天寺ビル３Ｆ",
      "lat": 35.636071,
      "lon": 139.694391,
      "geohash": "xn76dz",
      "neighbors": [
        "xn76fb",
        "xn76ep",
        "xn76ep",
        "xn76fb",
        "xn76g0"
      ],
      "precision": 6
    },
    {
      "id": 78,
      "name": "相談支援事業所ここん",
      "address": "大田区大森北５－１６－１－１３１０",
      "lat": 35.580817,
      "lon": 139.724043,
      "geohash": "xn767m",
      "neighbors": [
        "xn767q",
        "xn767t",
        "xn767t",
        "xn767q",
        "xn767w"
      ],
      "precision": 6
    },
    {
      "id": 79,
      "name": "相談支援　山王ケアサポート中央",
      "address": "大田区中央１－２１－５　フタバビル２０１",
      "lat": 35.579814,
      "lon": 139.71981,
      "geohash": "xn767m",
      "neighbors": [
        "xn767q",
        "xn767t",
        "xn767t",
        "xn767q",
        "xn767w"
      ],
      "precision": 6
    },
    {
      "id": 80,
      "name": "ＮＰＯ法人結ぶ会",
      "address": "大田区中央５－８－１４",
      "lat": 35.581322,
      "lon": 139.7081,
      "geohash": "xn767j",
      "neighbors": [
        "xn767n",
        "xn767m",
        "xn767m",
        "xn767n",
        "xn767q"
      ],
      "precision": 6
    },
    {
      "id": 81,
      "name": "あいりすキッズ",
      "address": "大田区西馬込１－３２－１５　共信ビル３０３",
      "lat": 35.589785,
      "lon": 139.70333,
      "geohash": "xn767n",
      "neighbors": [
        "xn767p",
        "xn767q",
        "xn767q",
        "xn767p",
        "xn767r"
      ],
      "precision": 6
    },
    {
      "id": 82,
      "name": "おおた相談支援センター",
      "address": "大田区東蒲田２－１－１３　アストラルＨＴＫ１２階",
      "lat": 35.563,
      "lon": 139.72633,
      "geohash": "xn767d",
      "neighbors": [
        "xn767e",
        "xn767f",
        "xn767f",
        "xn767e",
        "xn767g"
      ],
      "precision": 6
    },
    {
      "id": 83,
      "name": "ケア２１　大田",
      "address": "大田区蒲田４－４１－１　大熊ビル１階",
      "lat": 35.559786,
      "lon": 139.719042,
      "geohash": "xn7673",
      "neighbors": [
        "xn7676",
        "xn7679",
        "xn7679",
        "xn7676",
        "xn767d"
      ],
      "precision": 6
    },
    {
      "id": 84,
      "name": "TOMOソーシャルサポートネット",
      "address": "大田区蒲田１－２４－１７",
      "lat": 35.564664,
      "lon": 139.719511,
      "geohash": "xn7676",
      "neighbors": [
        "xn7677",
        "xn767d",
        "xn767d",
        "xn7677",
        "xn767e"
      ],
      "precision": 6
    },
    {
      "id": 85,
      "name": "障がい者相談支援事業所らっこ",
      "address": "大田区蒲田本町２－１２－１　松井ビル１階",
      "lat": 35.556498,
      "lon": 139.719506,
      "geohash": "xn7672",
      "neighbors": [
        "xn7673",
        "xn7678",
        "xn7678",
        "xn7673",
        "xn7679"
      ],
      "precision": 6
    },
    {
      "id": 86,
      "name": "リトル　コールケア　相談支援事業所",
      "address": "大田区南雪谷４－７－１３　１０１号室",
      "lat": 35.588807,
      "lon": 139.682022,
      "geohash": "xn766w",
      "neighbors": [
        "xn766x",
        "xn766y",
        "xn766y",
        "xn766x",
        "xn766z"
      ],
      "precision": 6
    },
    {
      "id": 87,
      "name": "あかしろきいろ子ども発達相談るーむ",
      "address": "大田区池上４－３０－９－３０１",
      "lat": 35.573232,
      "lon": 139.705203,
      "geohash": "xn7675",
      "neighbors": [
        "xn767h",
        "xn7677",
        "xn7677",
        "xn767h",
        "xn767k"
      ],
      "precision": 6
    },
    {
      "id": 88,
      "name": "麻布メンタルヘルス指定相談支援事業所大田支局",
      "address": "大田区池上６－１０－１１　遠藤ビル２０２",
      "lat": 35.571371,
      "lon": 139.703498,
      "geohash": "xn7675",
      "neighbors": [
        "xn767h",
        "xn7677",
        "xn7677",
        "xn767h",
        "xn767k"
      ],
      "precision": 6
    },
    {
      "id": 89,
      "name": "大田区立こども発達センターわかばの家　相談支援事業所",
      "address": "大田区千鳥３－７－５",
      "lat": 35.573002,
      "lon": 139.690366,
      "geohash": "xn766e",
      "neighbors": [
        "xn766s",
        "xn766g",
        "xn766g",
        "xn766s",
        "xn766u"
      ],
      "precision": 6
    },
    {
      "id": 90,
      "name": "特定相談支援事業所　ワークスタッフ鵜の木",
      "address": "大田区鵜の木２－１７－３",
      "lat": 35.576165,
      "lon": 139.679562,
      "geohash": "xn766k",
      "neighbors": [
        "xn766m",
        "xn766s",
        "xn766s",
        "xn766m",
        "xn766t"
      ],
      "precision": 6
    },
    {
      "id": 91,
      "name": "森の実相談室",
      "address": "大田区東矢口１－１７－１１　蓮沼ビル１階",
      "lat": 35.564475,
      "lon": 139.707068,
      "geohash": "xn7674",
      "neighbors": [
        "xn7675",
        "xn7676",
        "xn7676",
        "xn7675",
        "xn7677"
      ],
      "precision": 6
    },
    {
      "id": 92,
      "name": "重症心身障害児療育相談センター",
      "address": "世田谷区三宿２－３０－９",
      "lat": 35.650927,
      "lon": 139.672903,
      "geohash": "xn76f6",
      "neighbors": [
        "xn76f7",
        "xn76fd",
        "xn76fd",
        "xn76f7",
        "xn76fe"
      ],
      "precision": 6
    },
    {
      "id": 93,
      "name": "相談支援センター架け橋",
      "address": "世田谷区駒沢５－１５－１５",
      "lat": 35.622558,
      "lon": 139.654778,
      "geohash": "xn769u",
      "neighbors": [
        "xn769v",
        "xn76dh",
        "xn76dh",
        "xn769v",
        "xn76dj"
      ],
      "precision": 6
    },
    {
      "id": 94,
      "name": "ナイスケア世田谷相談支援センター",
      "address": "世田谷区駒沢２－８－６",
      "lat": 35.633526,
      "lon": 139.659147,
      "geohash": "xn76dn",
      "neighbors": [
        "xn76dp",
        "xn76dq",
        "xn76dq",
        "xn76dp",
        "xn76dr"
      ],
      "precision": 6
    },
    {
      "id": 95,
      "name": "桜新町総合支援サービス",
      "address": "世田谷区新町２－７－２　富岡ビル３階",
      "lat": 35.629371,
      "lon": 139.650148,
      "geohash": "xn769y",
      "neighbors": [
        "xn769z",
        "xn76dn",
        "xn76dn",
        "xn769z",
        "xn76dp"
      ],
      "precision": 6
    },
    {
      "id": 96,
      "name": "自立生活センターハンズ世田谷",
      "address": "世田谷区豪徳寺１－３２－２１　スマイルホーム豪徳寺１階",
      "lat": 35.652896,
      "lon": 139.649664,
      "geohash": "xn76cf",
      "neighbors": [
        "xn76cg",
        "xn76f4",
        "xn76f4",
        "xn76cg",
        "xn76f5"
      ],
      "precision": 6
    },
    {
      "id": 97,
      "name": "相談支援センター　かりんとう",
      "address": "世田谷区豪徳寺１－４１－６",
      "lat": 35.655032,
      "lon": 139.648102,
      "geohash": "xn76cf",
      "neighbors": [
        "xn76cg",
        "xn76f4",
        "xn76f4",
        "xn76cg",
        "xn76f5"
      ],
      "precision": 6
    },
    {
      "id": 98,
      "name": "相談支援センターわんぱく",
      "address": "世田谷区若林２－３９－２－２階",
      "lat": 35.650369,
      "lon": 139.662001,
      "geohash": "xn76f1",
      "neighbors": [
        "xn76f4",
        "xn76f3",
        "xn76f3",
        "xn76f4",
        "xn76f6"
      ],
      "precision": 6
    },
    {
      "id": 99,
      "name": "シモキタステーション",
      "address": "世田谷区代沢２－２８－８－１ＦＡ",
      "lat": 35.658276,
      "lon": 139.668381,
      "geohash": "xn76f5",
      "neighbors": [
        "xn76fh",
        "xn76f7",
        "xn76f7",
        "xn76fh",
        "xn76fk"
      ],
      "precision": 6
    },
    {
      "id": 100,
      "name": "まつばらけやき相談支援センター",
      "address": "世田谷区松原６－４３－１７　松原けやき寮内",
      "lat": 35.656198,
      "lon": 139.649311,
      "geohash": "xn76cg",
      "neighbors": [
        "xn76cu",
        "xn76f5",
        "xn76f5",
        "xn76cu",
        "xn76fh"
      ],
      "precision": 6
    },
    {
      "id": 101,
      "name": "総合福祉センター相談支援事業所",
      "address": "世田谷区松原６－４１－７",
      "lat": 35.656426,
      "lon": 139.649747,
      "geohash": "xn76cg",
      "neighbors": [
        "xn76cu",
        "xn76f5",
        "xn76f5",
        "xn76cu",
        "xn76fh"
      ],
      "precision": 6
    },
    {
      "id": 102,
      "name": "おおきなき明大前",
      "address": "世田谷区松原２－３８－９　明大前グランドハイツ１階",
      "lat": 35.668519,
      "lon": 139.647924,
      "geohash": "xn76cv",
      "neighbors": [
        "xn76cy",
        "xn76fj",
        "xn76fj",
        "xn76cy",
        "xn76fn"
      ],
      "precision": 6
    },
    {
      "id": 103,
      "name": "相棒相談支援センター",
      "address": "世田谷区松原１－３４－１９－３０６",
      "lat": 35.666836,
      "lon": 139.651307,
      "geohash": "xn76cu",
      "neighbors": [
        "xn76cv",
        "xn76fh",
        "xn76fh",
        "xn76cv",
        "xn76fj"
      ],
      "precision": 6
    },
    {
      "id": 104,
      "name": "東京総合福祉",
      "address": "世田谷区桜上水１－１－３－１０４",
      "lat": 35.657842,
      "lon": 139.633979,
      "geohash": "xn76c7",
      "neighbors": [
        "xn76ck",
        "xn76ce",
        "xn76ce",
        "xn76ck",
        "xn76cs"
      ],
      "precision": 6
    },
    {
      "id": 105,
      "name": "子どもの生活研究所",
      "address": "世田谷区船橋１－３０－９",
      "lat": 35.648043,
      "lon": 139.620908,
      "geohash": "xn76c1",
      "neighbors": [
        "xn76c4",
        "xn76c3",
        "xn76c3",
        "xn76c4",
        "xn76c6"
      ],
      "precision": 6
    },
    {
      "id": 106,
      "name": "相談支援　ここから",
      "address": "世田谷区北烏山３－１１－５",
      "lat": 35.673914,
      "lon": 139.60245,
      "geohash": "xn76bw",
      "neighbors": [
        "xn76bx",
        "xn76by",
        "xn76by",
        "xn76bx",
        "xn76bz"
      ],
      "precision": 6
    },
    {
      "id": 107,
      "name": "相談室にじのこ",
      "address": "世田谷区南烏山６－３－９",
      "lat": 35.669459,
      "lon": 139.599998,
      "geohash": "xn76bt",
      "neighbors": [
        "xn76bw",
        "xn76bv",
        "xn76bv",
        "xn76bw",
        "xn76by"
      ],
      "precision": 6
    },
    {
      "id": 108,
      "name": "相談支援ルーム　きたみ",
      "address": "世田谷区喜多見８－１５－３５",
      "lat": 35.635358,
      "lon": 139.589372,
      "geohash": "xn768r",
      "neighbors": [
        "xn76b2",
        "xn768x",
        "xn768x",
        "xn76b2",
        "xn76b8"
      ],
      "precision": 6
    },
    {
      "id": 109,
      "name": "オリーブ・ケア千歳台",
      "address": "世田谷区千歳台３－２８－４－１０１",
      "lat": 35.65282,
      "lon": 139.613172,
      "geohash": "xn76bf",
      "neighbors": [
        "xn76bg",
        "xn76c4",
        "xn76c4",
        "xn76bg",
        "xn76c5"
      ],
      "precision": 6
    },
    {
      "id": 110,
      "name": "相談支援センターあい",
      "address": "世田谷区祖師谷３－２１－１",
      "lat": 35.642849,
      "lon": 139.604615,
      "geohash": "xn76bb",
      "neighbors": [
        "xn76bc",
        "xn76c0",
        "xn76c0",
        "xn76bc",
        "xn76c1"
      ],
      "precision": 6
    },
    {
      "id": 111,
      "name": "世田谷区発達障害相談・療育センター相談支援事業所",
      "address": "世田谷区大蔵２－１０－１８",
      "lat": 35.634633,
      "lon": 139.612803,
      "geohash": "xn768z",
      "neighbors": [
        "xn76bb",
        "xn769p",
        "xn769p",
        "xn76bb",
        "xn76c0"
      ],
      "precision": 6
    },
    {
      "id": 112,
      "name": "エムツー・サポート指定特定相談支援事業所",
      "address": "世田谷区深沢１－４１－１１－２階",
      "lat": 35.6186,
      "lon": 139.660203,
      "geohash": "xn76dh",
      "neighbors": [
        "xn76dj",
        "xn76dk",
        "xn76dk",
        "xn76dj",
        "xn76dm"
      ],
      "precision": 6
    },
    {
      "id": 113,
      "name": "相談支援事業所　青い鳥",
      "address": "世田谷区奥沢７－１２－２５－２階",
      "lat": 35.607318,
      "lon": 139.664042,
      "geohash": "xn76d4",
      "neighbors": [
        "xn76d5",
        "xn76d6",
        "xn76d6",
        "xn76d5",
        "xn76d7"
      ],
      "precision": 6
    },
    {
      "id": 114,
      "name": "なかまっち相談室",
      "address": "世田谷区中町２－１７－２１",
      "lat": 35.611081,
      "lon": 139.644763,
      "geohash": "xn769d",
      "neighbors": [
        "xn769e",
        "xn769f",
        "xn769f",
        "xn769e",
        "xn769g"
      ],
      "precision": 6
    },
    {
      "id": 115,
      "name": "相談支援　ツナカン",
      "address": "世田谷区瀬田１－７－１３",
      "lat": 35.615014,
      "lon": 139.631506,
      "geohash": "xn7697",
      "neighbors": [
        "xn769k",
        "xn769e",
        "xn769e",
        "xn769k",
        "xn769s"
      ],
      "precision": 6
    },
    {
      "id": 116,
      "name": "渋谷区子ども発達相談センター",
      "address": "渋谷区神宮前３－１８－３３",
      "lat": 35.670937,
      "lon": 139.709272,
      "geohash": "xn76gj",
      "neighbors": [
        "xn76gn",
        "xn76gm",
        "xn76gm",
        "xn76gn",
        "xn76gq"
      ],
      "precision": 6
    },
    {
      "id": 117,
      "name": "宮代学園相談支援センター",
      "address": "渋谷区広尾４－２－１２",
      "lat": 35.655159,
      "lon": 139.722279,
      "geohash": "xn76g6",
      "neighbors": [
        "xn76g7",
        "xn76gd",
        "xn76gd",
        "xn76g7",
        "xn76ge"
      ],
      "precision": 6
    },
    {
      "id": 118,
      "name": "パールケア",
      "address": "渋谷区鉢山町３－２７",
      "lat": 35.652756,
      "lon": 139.698709,
      "geohash": "xn76ff",
      "neighbors": [
        "xn76fg",
        "xn76g4",
        "xn76g4",
        "xn76fg",
        "xn76g5"
      ],
      "precision": 6
    },
    {
      "id": 119,
      "name": "渋谷区障害者福祉センター代々木の杜",
      "address": "渋谷区代々木２－３５－１",
      "lat": 35.684158,
      "lon": 139.697725,
      "geohash": "xn774b",
      "neighbors": [
        "xn774c",
        "xn7750",
        "xn7750",
        "xn774c",
        "xn7751"
      ],
      "precision": 6
    },
    {
      "id": 120,
      "name": "障がい者相談支援センター　樹音",
      "address": "渋谷区代々木１－３８－８－４７",
      "lat": 35.682833,
      "lon": 139.701116,
      "geohash": "xn76fz",
      "neighbors": [
        "xn774b",
        "xn76gp",
        "xn76gp",
        "xn774b",
        "xn7750"
      ],
      "precision": 6
    },
    {
      "id": 121,
      "name": "障害児相談支援事業所　さち",
      "address": "渋谷区本町２－５－１１　三山ビル２階",
      "lat": 35.684004,
      "lon": 139.683515,
      "geohash": "xn7748",
      "neighbors": [
        "xn7749",
        "xn774b",
        "xn774b",
        "xn7749",
        "xn774c"
      ],
      "precision": 6
    },
    {
      "id": 122,
      "name": "東京総合福祉",
      "address": "渋谷区笹塚１－６１－８－８２３",
      "lat": 35.673033,
      "lon": 139.663545,
      "geohash": "xn76fn",
      "neighbors": [
        "xn76fp",
        "xn76fq",
        "xn76fq",
        "xn76fp",
        "xn76fr"
      ],
      "precision": 6
    },
    {
      "id": 123,
      "name": "社会福祉法人中野あいいく会　中部すこやか障害者相談支援事業所",
      "address": "中野区中央３－１９－１",
      "lat": 35.7004,
      "lon": 139.674176,
      "geohash": "xn7747",
      "neighbors": [
        "xn774k",
        "xn774e",
        "xn774e",
        "xn774k",
        "xn774s"
      ],
      "precision": 6
    },
    {
      "id": 124,
      "name": "ふらっとなかの",
      "address": "中野区本町５－４０－１４",
      "lat": 35.691709,
      "lon": 139.668269,
      "geohash": "xn7741",
      "neighbors": [
        "xn7744",
        "xn7743",
        "xn7743",
        "xn7744",
        "xn7746"
      ],
      "precision": 6
    },
    {
      "id": 125,
      "name": "相談支援事業所あいだっく",
      "address": "中野区本町３－１９－１１　ライフピアハラ１階",
      "lat": 35.69537,
      "lon": 139.674302,
      "geohash": "xn7746",
      "neighbors": [
        "xn7747",
        "xn774d",
        "xn774d",
        "xn7747",
        "xn774e"
      ],
      "precision": 6
    },
    {
      "id": 126,
      "name": "中野区療育センターゆめなりあ",
      "address": "中野区弥生町５－５－２",
      "lat": 35.686165,
      "lon": 139.666333,
      "geohash": "xn7740",
      "neighbors": [
        "xn7741",
        "xn7742",
        "xn7742",
        "xn7741",
        "xn7743"
      ],
      "precision": 6
    },
    {
      "id": 127,
      "name": "南部すこやか障害者相談支援事業所",
      "address": "中野区弥生町５－１１－２６",
      "lat": 35.688192,
      "lon": 139.668377,
      "geohash": "xn7740",
      "neighbors": [
        "xn7741",
        "xn7742",
        "xn7742",
        "xn7741",
        "xn7743"
      ],
      "precision": 6
    },
    {
      "id": 128,
      "name": "北部すこやか障害者相談支援事業所",
      "address": "中野区江古田４－３１－１０",
      "lat": 35.724616,
      "lon": 139.661418,
      "geohash": "xn774p",
      "neighbors": [
        "xn7760",
        "xn774r",
        "xn774r",
        "xn7760",
        "xn7762"
      ],
      "precision": 6
    },
    {
      "id": 129,
      "name": "まっしろキャンバス",
      "address": "中野区野方５－２８－１",
      "lat": 35.719461,
      "lon": 139.653441,
      "geohash": "xn771y",
      "neighbors": [
        "xn771z",
        "xn774n",
        "xn774n",
        "xn771z",
        "xn774p"
      ],
      "precision": 6
    },
    {
      "id": 130,
      "name": "鷺宮すこやか障害者相談支援事業所",
      "address": "中野区若宮３－５８－１０",
      "lat": 35.722082,
      "lon": 139.640337,
      "geohash": "xn771x",
      "neighbors": [
        "xn7738",
        "xn771z",
        "xn771z",
        "xn7738",
        "xn773b"
      ],
      "precision": 6
    },
    {
      "id": 131,
      "name": "相談支援事業所　なでしこ",
      "address": "杉並区高円寺北１－２８－１",
      "lat": 35.709012,
      "lon": 139.657789,
      "geohash": "xn771u",
      "neighbors": [
        "xn771v",
        "xn774h",
        "xn774h",
        "xn771v",
        "xn774j"
      ],
      "precision": 6
    },
    {
      "id": 132,
      "name": "発達支援ルーム　にこっと",
      "address": "杉並区高円寺北３－４０－１３　ＢＩＧ　ＶＡＬＬＥＹ２階",
      "lat": 35.710514,
      "lon": 139.64657,
      "geohash": "xn771s",
      "neighbors": [
        "xn771t",
        "xn771u",
        "xn771u",
        "xn771t",
        "xn771v"
      ],
      "precision": 6
    },
    {
      "id": 133,
      "name": "ＮＰＯ法人　すぎなみ障害者生活支援コーディネートセンター",
      "address": "杉並区高円寺南４－２７－４　高円寺ホワイトレジデンス２０２号",
      "lat": 35.704132,
      "lon": 139.649826,
      "geohash": "xn771g",
      "neighbors": [
        "xn771u",
        "xn7745",
        "xn7745",
        "xn771u",
        "xn774h"
      ],
      "precision": 6
    },
    {
      "id": 134,
      "name": "相談支援事業所　ＨＵＧ　はぐ",
      "address": "杉並区高円寺南４－４５－４　高円寺南サマリアマンション７０４",
      "lat": 35.704921,
      "lon": 139.650475,
      "geohash": "xn771g",
      "neighbors": [
        "xn771u",
        "xn7745",
        "xn7745",
        "xn771u",
        "xn774h"
      ],
      "precision": 6
    },
    {
      "id": 135,
      "name": "朝焼け相談支援事業所",
      "address": "杉並区高円寺南２－３７－１４",
      "lat": 35.701307,
      "lon": 139.654417,
      "geohash": "xn771g",
      "neighbors": [
        "xn771u",
        "xn7745",
        "xn7745",
        "xn771u",
        "xn774h"
      ],
      "precision": 6
    },
    {
      "id": 136,
      "name": "相談支援事業所　リリーフ",
      "address": "杉並区阿佐谷南３－３７－１３　大同ビル４０３号",
      "lat": 35.704573,
      "lon": 139.635649,
      "geohash": "xn7717",
      "neighbors": [
        "xn771k",
        "xn771e",
        "xn771e",
        "xn771k",
        "xn771s"
      ],
      "precision": 6
    },
    {
      "id": 137,
      "name": "杉並区児童発達相談係",
      "address": "杉並区阿佐谷南１－１４－８",
      "lat": 35.699774,
      "lon": 139.63711,
      "geohash": "xn771d",
      "neighbors": [
        "xn771e",
        "xn771f",
        "xn771f",
        "xn771e",
        "xn771g"
      ],
      "precision": 6
    },
    {
      "id": 138,
      "name": "キラキラステーション",
      "address": "杉並区阿佐谷南２－１２－２",
      "lat": 35.703568,
      "lon": 139.638999,
      "geohash": "xn771e",
      "neighbors": [
        "xn771s",
        "xn771g",
        "xn771g",
        "xn771s",
        "xn771u"
      ],
      "precision": 6
    },
    {
      "id": 139,
      "name": "ケア２１　堀之内",
      "address": "杉並区堀ノ内２－２７－１２　パレドール方南町１０３",
      "lat": 35.690075,
      "lon": 139.654581,
      "geohash": "xn771c",
      "neighbors": [
        "xn771f",
        "xn7741",
        "xn7741",
        "xn771f",
        "xn7744"
      ],
      "precision": 6
    },
    {
      "id": 140,
      "name": "ヘルプメイト井草相談支援部",
      "address": "杉並区井草３－２－４　レヂオンス井荻３０３",
      "lat": 35.724876,
      "lon": 139.613914,
      "geohash": "xn770z",
      "neighbors": [
        "xn772b",
        "xn771p",
        "xn771p",
        "xn772b",
        "xn7730"
      ],
      "precision": 6
    },
    {
      "id": 141,
      "name": "八成相談支援事業所",
      "address": "杉並区井草２－２５－４",
      "lat": 35.72855,
      "lon": 139.619555,
      "geohash": "xn7730",
      "neighbors": [
        "xn7731",
        "xn7732",
        "xn7732",
        "xn7731",
        "xn7733"
      ],
      "precision": 6
    },
    {
      "id": 142,
      "name": "株式会社　よりみち",
      "address": "杉並区天沼３－２９－１４　魚市ビル３階",
      "lat": 35.706375,
      "lon": 139.620411,
      "geohash": "xn771h",
      "neighbors": [
        "xn771j",
        "xn771k",
        "xn771k",
        "xn771j",
        "xn771m"
      ],
      "precision": 6
    },
    {
      "id": 143,
      "name": "いたる相談室",
      "address": "杉並区天沼１－１５－１８",
      "lat": 35.707697,
      "lon": 139.630027,
      "geohash": "xn771k",
      "neighbors": [
        "xn771m",
        "xn771s",
        "xn771s",
        "xn771m",
        "xn771t"
      ],
      "precision": 6
    },
    {
      "id": 144,
      "name": "地域福祉研究所",
      "address": "杉並区天沼１－２８－１１",
      "lat": 35.708322,
      "lon": 139.629508,
      "geohash": "xn771k",
      "neighbors": [
        "xn771m",
        "xn771s",
        "xn771s",
        "xn771m",
        "xn771t"
      ],
      "precision": 6
    },
    {
      "id": 145,
      "name": "しゃろーむ杉並",
      "address": "杉並区天沼２－４－１　井上ビル２０３号",
      "lat": 35.705323,
      "lon": 139.623386,
      "geohash": "xn7715",
      "neighbors": [
        "xn771h",
        "xn7717",
        "xn7717",
        "xn771h",
        "xn771k"
      ],
      "precision": 6
    },
    {
      "id": 146,
      "name": "相談支援　ＯＫプラネット",
      "address": "杉並区桃井２－１－６　シャトレ・オギ１－Ｃ号",
      "lat": 35.710622,
      "lon": 139.610631,
      "geohash": "xn770u",
      "neighbors": [
        "xn770v",
        "xn771h",
        "xn771h",
        "xn770v",
        "xn771j"
      ],
      "precision": 6
    },
    {
      "id": 147,
      "name": "杉並障害者自立生活支援センターすだち",
      "address": "杉並区今川２－１４－１２",
      "lat": 35.718062,
      "lon": 139.609034,
      "geohash": "xn770y",
      "neighbors": [
        "xn770z",
        "xn771n",
        "xn771n",
        "xn770z",
        "xn771p"
      ],
      "precision": 6
    },
    {
      "id": 148,
      "name": "福は家相談室",
      "address": "杉並区善福寺４－１７－６",
      "lat": 35.719906,
      "lon": 139.590874,
      "geohash": "xn770q",
      "neighbors": [
        "xn770r",
        "xn770w",
        "xn770w",
        "xn770r",
        "xn770x"
      ],
      "precision": 6
    },
    {
      "id": 149,
      "name": "ケアセンターこもれび",
      "address": "杉並区荻窪１－３２－３",
      "lat": 35.693654,
      "lon": 139.618531,
      "geohash": "xn7711",
      "neighbors": [
        "xn7714",
        "xn7713",
        "xn7713",
        "xn7714",
        "xn7716"
      ],
      "precision": 6
    },
    {
      "id": 150,
      "name": "相談支援事業所　木の実",
      "address": "杉並区南荻窪１－５－１１　１階",
      "lat": 35.694962,
      "lon": 139.617259,
      "geohash": "xn7714",
      "neighbors": [
        "xn7715",
        "xn7716",
        "xn7716",
        "xn7715",
        "xn7717"
      ],
      "precision": 6
    },
    {
      "id": 151,
      "name": "相談支援事業所かすみ草",
      "address": "杉並区和泉３－２２－１５　グランヴェール和泉１０１",
      "lat": 35.677813,
      "lon": 139.647741,
      "geohash": "xn76cy",
      "neighbors": [
        "xn76cz",
        "xn76fn",
        "xn76fn",
        "xn76cz",
        "xn76fp"
      ],
      "precision": 6
    },
    {
      "id": 152,
      "name": "永福南社会福祉ガーデン　相談支援事業所",
      "address": "杉並区永福１－７－６",
      "lat": 35.669383,
      "lon": 139.642103,
      "geohash": "xn76ct",
      "neighbors": [
        "xn76cw",
        "xn76cv",
        "xn76cv",
        "xn76cw",
        "xn76cy"
      ],
      "precision": 6
    },
    {
      "id": 153,
      "name": "あおいサポートステーション",
      "address": "杉並区浜田山３－２５－１６　エスカイア浜田山１０２",
      "lat": 35.682073,
      "lon": 139.629234,
      "geohash": "xn76cr",
      "neighbors": [
        "xn7712",
        "xn76cx",
        "xn76cx",
        "xn7712",
        "xn7718"
      ],
      "precision": 6
    },
    {
      "id": 154,
      "name": "杉並区立こども発達センター",
      "address": "杉並区高井戸東１－１８－５",
      "lat": 35.682622,
      "lon": 139.619729,
      "geohash": "xn76cp",
      "neighbors": [
        "xn7710",
        "xn76cr",
        "xn76cr",
        "xn7710",
        "xn7712"
      ],
      "precision": 6
    },
    {
      "id": 155,
      "name": "Link福祉相談局",
      "address": "豊島区東池袋１－２５－１７",
      "lat": 35.728078,
      "lon": 139.716233,
      "geohash": "xn7772",
      "neighbors": [
        "xn7773",
        "xn7778",
        "xn7778",
        "xn7773",
        "xn7779"
      ],
      "precision": 6
    },
    {
      "id": 156,
      "name": "障害児相談支援事業所・アニマートとしま",
      "address": "豊島区東池袋２－２２－４　市川ビル１０１",
      "lat": 35.731095,
      "lon": 139.722279,
      "geohash": "xn7772",
      "neighbors": [
        "xn7773",
        "xn7778",
        "xn7778",
        "xn7773",
        "xn7779"
      ],
      "precision": 6
    },
    {
      "id": 157,
      "name": "イルカ相談支援事業所",
      "address": "豊島区池袋２－３５－５　ウチダビル２階",
      "lat": 35.733447,
      "lon": 139.706586,
      "geohash": "xn7771",
      "neighbors": [
        "xn7774",
        "xn7773",
        "xn7773",
        "xn7774",
        "xn7776"
      ],
      "precision": 6
    },
    {
      "id": 158,
      "name": "相談支援センターさくら",
      "address": "豊島区要町１－２８－２０",
      "lat": 35.735138,
      "lon": 139.697259,
      "geohash": "xn776c",
      "neighbors": [
        "xn776f",
        "xn7771",
        "xn7771",
        "xn776f",
        "xn7774"
      ],
      "precision": 6
    },
    {
      "id": 159,
      "name": "豊島区立西部子ども家庭支援センター",
      "address": "豊島区千早４－６－１４",
      "lat": 35.737684,
      "lon": 139.682466,
      "geohash": "xn7769",
      "neighbors": [
        "xn776d",
        "xn776c",
        "xn776c",
        "xn776d",
        "xn776f"
      ],
      "precision": 6
    },
    {
      "id": 160,
      "name": "生活サポートセンター・こっとん",
      "address": "豊島区長崎２－１５－１６　１階",
      "lat": 35.728783,
      "lon": 139.693196,
      "geohash": "xn776b",
      "neighbors": [
        "xn776c",
        "xn7770",
        "xn7770",
        "xn776c",
        "xn7771"
      ],
      "precision": 6
    },
    {
      "id": 161,
      "name": "相談支援事業　ゆきわりそう",
      "address": "豊島区南長崎６－１９－５",
      "lat": 35.72976,
      "lon": 139.680286,
      "geohash": "xn7768",
      "neighbors": [
        "xn7769",
        "xn776b",
        "xn776b",
        "xn7769",
        "xn776c"
      ],
      "precision": 6
    },
    {
      "id": 162,
      "name": "あすか山訪問看護ステーション",
      "address": "北区東十条１－９－１２　溝口ビル１階",
      "lat": 35.760689,
      "lon": 139.731483,
      "geohash": "xn777w",
      "neighbors": [
        "xn777x",
        "xn777y",
        "xn777y",
        "xn777x",
        "xn777z"
      ],
      "precision": 6
    },
    {
      "id": 163,
      "name": "スマイルハート王子",
      "address": "北区豊島６－７－１６　モリヤマンション３０１",
      "lat": 35.764475,
      "lon": 139.746779,
      "geohash": "xn77kn",
      "neighbors": [
        "xn77kp",
        "xn77kq",
        "xn77kq",
        "xn77kp",
        "xn77kr"
      ],
      "precision": 6
    },
    {
      "id": 164,
      "name": "株式会社かいごのきもち",
      "address": "北区中里１－１５－１",
      "lat": 35.737481,
      "lon": 139.750629,
      "geohash": "xn77k1",
      "neighbors": [
        "xn77k4",
        "xn77k3",
        "xn77k3",
        "xn77k4",
        "xn77k6"
      ],
      "precision": 6
    },
    {
      "id": 165,
      "name": "つみき相談室",
      "address": "北区王子本町１－１９－１",
      "lat": 35.753856,
      "lon": 139.733005,
      "geohash": "xn777s",
      "neighbors": [
        "xn777t",
        "xn777u",
        "xn777u",
        "xn777t",
        "xn777v"
      ],
      "precision": 6
    },
    {
      "id": 166,
      "name": "就労・生活支援センター飛鳥晴山苑",
      "address": "北区西ケ原４－５１－１",
      "lat": 35.74141,
      "lon": 139.735978,
      "geohash": "xn777f",
      "neighbors": [
        "xn777g",
        "xn77k4",
        "xn77k4",
        "xn777g",
        "xn77k5"
      ],
      "precision": 6
    },
    {
      "id": 167,
      "name": "東京都北区立子ども発達支援センターさくらんぼ園発達相談室",
      "address": "北区中十条１－２－１８",
      "lat": 35.757603,
      "lon": 139.729536,
      "geohash": "xn777t",
      "neighbors": [
        "xn777w",
        "xn777v",
        "xn777v",
        "xn777w",
        "xn777y"
      ],
      "precision": 6
    },
    {
      "id": 168,
      "name": "ドリームヴイ相談支援センター",
      "address": "北区上十条２－１－１２",
      "lat": 35.757492,
      "lon": 139.722164,
      "geohash": "xn777m",
      "neighbors": [
        "xn777q",
        "xn777t",
        "xn777t",
        "xn777q",
        "xn777w"
      ],
      "precision": 6
    },
    {
      "id": 169,
      "name": "リーフ介護ステーション",
      "address": "北区上十条３－２５－８－３０１",
      "lat": 35.762421,
      "lon": 139.717903,
      "geohash": "xn777q",
      "neighbors": [
        "xn777r",
        "xn777w",
        "xn777w",
        "xn777r",
        "xn777x"
      ],
      "precision": 6
    },
    {
      "id": 170,
      "name": "つみき相談室",
      "address": "北区上十条１－１９－６",
      "lat": 35.759352,
      "lon": 139.723289,
      "geohash": "xn777m",
      "neighbors": [
        "xn777q",
        "xn777t",
        "xn777t",
        "xn777q",
        "xn777w"
      ],
      "precision": 6
    },
    {
      "id": 171,
      "name": "障がい者相談支援センターしらゆり",
      "address": "北区赤羽南１－３－１　髙橋ビル４Ｆ",
      "lat": 35.7761,
      "lon": 139.722847,
      "geohash": "xn77e2",
      "neighbors": [
        "xn77e3",
        "xn77e8",
        "xn77e8",
        "xn77e3",
        "xn77e9"
      ],
      "precision": 6
    },
    {
      "id": 172,
      "name": "ヘルパーステーション赤羽",
      "address": "北区赤羽２－６９－２",
      "lat": 35.782491,
      "lon": 139.722749,
      "geohash": "xn77e6",
      "neighbors": [
        "xn77e7",
        "xn77ed",
        "xn77ed",
        "xn77e7",
        "xn77ee"
      ],
      "precision": 6
    },
    {
      "id": 173,
      "name": "宮本相談支援センター",
      "address": "荒川区町屋２－１４－９　メゾンドカスターナ１０１",
      "lat": 35.744492,
      "lon": 139.778805,
      "geohash": "xn77ke",
      "neighbors": [
        "xn77ks",
        "xn77kg",
        "xn77kg",
        "xn77ks",
        "xn77ku"
      ],
      "precision": 6
    },
    {
      "id": 174,
      "name": "荒川区立障害者福祉会館",
      "address": "荒川区荒川２－５７－８",
      "lat": 35.740549,
      "lon": 139.783264,
      "geohash": "xn77kf",
      "neighbors": [
        "xn77kg",
        "xn77m4",
        "xn77m4",
        "xn77kg",
        "xn77m5"
      ],
      "precision": 6
    },
    {
      "id": 175,
      "name": "トラム相談支援事業所",
      "address": "荒川区荒川６－６４－９　Ｋ’ｓハウス２０１",
      "lat": 35.742418,
      "lon": 139.775992,
      "geohash": "xn77kd",
      "neighbors": [
        "xn77ke",
        "xn77kf",
        "xn77kf",
        "xn77ke",
        "xn77kg"
      ],
      "precision": 6
    },
    {
      "id": 176,
      "name": "荒川区立精神障害者地域生活支援センター",
      "address": "荒川区東尾久５－４５－１１",
      "lat": 35.748694,
      "lon": 139.766383,
      "geohash": "xn77k7",
      "neighbors": [
        "xn77kk",
        "xn77ke",
        "xn77ke",
        "xn77kk",
        "xn77ks"
      ],
      "precision": 6
    },
    {
      "id": 177,
      "name": "荒川自立支援センター",
      "address": "荒川区西日暮里５－３４－２　日金ビル６階",
      "lat": 35.73306,
      "lon": 139.767793,
      "geohash": "xn77k3",
      "neighbors": [
        "xn77k6",
        "xn77k9",
        "xn77k9",
        "xn77k6",
        "xn77kd"
      ],
      "precision": 6
    },
    {
      "id": 178,
      "name": "荒川区障害者福祉課",
      "address": "荒川区荒川２丁目２－３",
      "lat": 35.736083,
      "lon": 139.783373,
      "geohash": "xn77kc",
      "neighbors": [
        "xn77kf",
        "xn77m1",
        "xn77m1",
        "xn77kf",
        "xn77m4"
      ],
      "precision": 6
    },
    {
      "id": 179,
      "name": "東京都板橋区立加賀福祉園",
      "address": "板橋区加賀１－７－２",
      "lat": 35.754192,
      "lon": 139.718715,
      "geohash": "xn777k",
      "neighbors": [
        "xn777m",
        "xn777s",
        "xn777s",
        "xn777m",
        "xn777t"
      ],
      "precision": 6
    },
    {
      "id": 180,
      "name": "レインボーブリッジ板橋ケアセンター",
      "address": "板橋区板橋３－５－１５",
      "lat": 35.750628,
      "lon": 139.712265,
      "geohash": "xn777h",
      "neighbors": [
        "xn777j",
        "xn777k",
        "xn777k",
        "xn777j",
        "xn777m"
      ],
      "precision": 6
    },
    {
      "id": 181,
      "name": "相談支援　フォレストサポート",
      "address": "板橋区板橋３－２６－６　リバティオザワ１階",
      "lat": 35.750231,
      "lon": 139.713465,
      "geohash": "xn777k",
      "neighbors": [
        "xn777m",
        "xn777s",
        "xn777s",
        "xn777m",
        "xn777t"
      ],
      "precision": 6
    },
    {
      "id": 182,
      "name": "ケーアイサポート介護事業部",
      "address": "板橋区大和町１０－１１　パラストネオ板橋２０２",
      "lat": 35.758716,
      "lon": 139.706171,
      "geohash": "xn777j",
      "neighbors": [
        "xn777n",
        "xn777m",
        "xn777m",
        "xn777n",
        "xn777q"
      ],
      "precision": 6
    },
    {
      "id": 183,
      "name": "泰心訪問介護センター",
      "address": "板橋区栄町３０－１５",
      "lat": 35.754278,
      "lon": 139.700344,
      "geohash": "xn776u",
      "neighbors": [
        "xn776v",
        "xn777h",
        "xn777h",
        "xn776v",
        "xn777j"
      ],
      "precision": 6
    },
    {
      "id": 184,
      "name": "介護センターともに",
      "address": "板橋区栄町２０－５　小田嶋ビル１階",
      "lat": 35.753708,
      "lon": 139.703183,
      "geohash": "xn777h",
      "neighbors": [
        "xn777j",
        "xn777k",
        "xn777k",
        "xn777j",
        "xn777m"
      ],
      "precision": 6
    },
    {
      "id": 185,
      "name": "よつば介護",
      "address": "板橋区中板橋２２－９",
      "lat": 35.755358,
      "lon": 139.697033,
      "geohash": "xn776v",
      "neighbors": [
        "xn776y",
        "xn777j",
        "xn777j",
        "xn776y",
        "xn777n"
      ],
      "precision": 6
    },
    {
      "id": 186,
      "name": "心身障害児総合医療療育センター",
      "address": "板橋区小茂根１－１－１０",
      "lat": 35.747517,
      "lon": 139.682715,
      "geohash": "xn776e",
      "neighbors": [
        "xn776s",
        "xn776g",
        "xn776g",
        "xn776s",
        "xn776u"
      ],
      "precision": 6
    },
    {
      "id": 187,
      "name": "志村ゆめの園　障害者相談支援センター",
      "address": "板橋区坂下１－１１－３－１０２",
      "lat": 35.778727,
      "lon": 139.683197,
      "geohash": "xn77d9",
      "neighbors": [
        "xn77dd",
        "xn77dc",
        "xn77dc",
        "xn77dd",
        "xn77df"
      ],
      "precision": 6
    },
    {
      "id": 188,
      "name": "東京ＹＷＣＡキッズガーデン",
      "address": "板橋区坂下１－３４－２５",
      "lat": 35.780993,
      "lon": 139.684505,
      "geohash": "xn77d9",
      "neighbors": [
        "xn77dd",
        "xn77dc",
        "xn77dc",
        "xn77dd",
        "xn77df"
      ],
      "precision": 6
    },
    {
      "id": 189,
      "name": "株式会社ユーモア",
      "address": "板橋区中台１－４４－４",
      "lat": 35.767486,
      "lon": 139.677034,
      "geohash": "xn776r",
      "neighbors": [
        "xn77d2",
        "xn776x",
        "xn776x",
        "xn77d2",
        "xn77d8"
      ],
      "precision": 6
    },
    {
      "id": 190,
      "name": "アイサービス",
      "address": "板橋区常盤台２－３３－４－１０１",
      "lat": 35.763309,
      "lon": 139.686789,
      "geohash": "xn776w",
      "neighbors": [
        "xn776x",
        "xn776y",
        "xn776y",
        "xn776x",
        "xn776z"
      ],
      "precision": 6
    },
    {
      "id": 191,
      "name": "ヘルパーステーション上板橋",
      "address": "板橋区常盤台４－２２－１２",
      "lat": 35.763395,
      "lon": 139.678498,
      "geohash": "xn776q",
      "neighbors": [
        "xn776r",
        "xn776w",
        "xn776w",
        "xn776r",
        "xn776x"
      ],
      "precision": 6
    },
    {
      "id": 192,
      "name": "ハートケア相談支援センター",
      "address": "板橋区南常盤台１－３４－９　高橋ビル１階",
      "lat": 35.757388,
      "lon": 139.688248,
      "geohash": "xn776t",
      "neighbors": [
        "xn776w",
        "xn776v",
        "xn776v",
        "xn776w",
        "xn776y"
      ],
      "precision": 6
    },
    {
      "id": 193,
      "name": "ふれあいパーク",
      "address": "板橋区南常盤台２－９－１３",
      "lat": 35.756963,
      "lon": 139.685409,
      "geohash": "xn776t",
      "neighbors": [
        "xn776w",
        "xn776v",
        "xn776v",
        "xn776w",
        "xn776y"
      ],
      "precision": 6
    },
    {
      "id": 194,
      "name": "すこやかサポート雅",
      "address": "板橋区東新町２－２０－１",
      "lat": 35.754219,
      "lon": 139.680748,
      "geohash": "xn776s",
      "neighbors": [
        "xn776t",
        "xn776u",
        "xn776u",
        "xn776t",
        "xn776v"
      ],
      "precision": 6
    },
    {
      "id": 195,
      "name": "株式会社福ぶくろ介護のたくみ",
      "address": "板橋区上板橋２－３０－２",
      "lat": 35.762326,
      "lon": 139.674293,
      "geohash": "xn776q",
      "neighbors": [
        "xn776r",
        "xn776w",
        "xn776w",
        "xn776r",
        "xn776x"
      ],
      "precision": 6
    },
    {
      "id": 196,
      "name": "相談支援事業所　わくわくリンク",
      "address": "板橋区西台４－４－１１",
      "lat": 35.769708,
      "lon": 139.667493,
      "geohash": "xn776p",
      "neighbors": [
        "xn77d0",
        "xn776r",
        "xn776r",
        "xn77d0",
        "xn77d2"
      ],
      "precision": 6
    },
    {
      "id": 197,
      "name": "さくらヘルプケア",
      "address": "板橋区高島平１－４８－５－１０２",
      "lat": 35.784284,
      "lon": 139.668871,
      "geohash": "xn77d4",
      "neighbors": [
        "xn77d5",
        "xn77d6",
        "xn77d6",
        "xn77d5",
        "xn77d7"
      ],
      "precision": 6
    },
    {
      "id": 198,
      "name": "生活サポート　こころ",
      "address": "板橋区高島平１－４８－６　１階",
      "lat": 35.784287,
      "lon": 139.668651,
      "geohash": "xn77d4",
      "neighbors": [
        "xn77d5",
        "xn77d6",
        "xn77d6",
        "xn77d5",
        "xn77d7"
      ],
      "precision": 6
    },
    {
      "id": 199,
      "name": "株式会社ケアプラン徳丸",
      "address": "板橋区四葉２－１９－６",
      "lat": 35.781312,
      "lon": 139.650161,
      "geohash": "xn779c",
      "neighbors": [
        "xn779f",
        "xn77d1",
        "xn77d1",
        "xn779f",
        "xn77d4"
      ],
      "precision": 6
    },
    {
      "id": 200,
      "name": "相談支援センターftlアクセス",
      "address": "板橋区成増２－２４－３　バーチヒルズ１０６",
      "lat": 35.779198,
      "lon": 139.630007,
      "geohash": "xn7793",
      "neighbors": [
        "xn7796",
        "xn7799",
        "xn7799",
        "xn7796",
        "xn779d"
      ],
      "precision": 6
    },
    {
      "id": 201,
      "name": "シルバーハートひまわり相談支援事業所",
      "address": "板橋区成増１－５－１１",
      "lat": 35.773251,
      "lon": 139.632588,
      "geohash": "xn7792",
      "neighbors": [
        "xn7793",
        "xn7798",
        "xn7798",
        "xn7793",
        "xn7799"
      ],
      "precision": 6
    },
    {
      "id": 202,
      "name": "かすたねっと相談支援事業所",
      "address": "練馬区練馬２－１－９",
      "lat": 35.741336,
      "lon": 139.65604,
      "geohash": "xn773f",
      "neighbors": [
        "xn773g",
        "xn7764",
        "xn7764",
        "xn773g",
        "xn7765"
      ],
      "precision": 6
    },
    {
      "id": 203,
      "name": "ねりま相談支援事業所みらい",
      "address": "練馬区中村１－７－１０　マーベラスＡ１０１号",
      "lat": 35.731992,
      "lon": 139.647638,
      "geohash": "xn773b",
      "neighbors": [
        "xn773c",
        "xn7760",
        "xn7760",
        "xn773c",
        "xn7761"
      ],
      "precision": 6
    },
    {
      "id": 204,
      "name": "かがやき相談支援事業所",
      "address": "練馬区中村南２－１８－１４　マウントスクウエア１０１号室",
      "lat": 35.727026,
      "lon": 139.641934,
      "geohash": "xn771x",
      "neighbors": [
        "xn7738",
        "xn771z",
        "xn771z",
        "xn7738",
        "xn773b"
      ],
      "precision": 6
    },
    {
      "id": 205,
      "name": "未来こどもランドすまいる相談支援室",
      "address": "練馬区石神井町３－２７－１４－２０７",
      "lat": 35.743001,
      "lon": 139.603294,
      "geohash": "xn772f",
      "neighbors": [
        "xn772g",
        "xn7734",
        "xn7734",
        "xn772g",
        "xn7735"
      ],
      "precision": 6
    },
    {
      "id": 206,
      "name": "相談支援事業所さくら",
      "address": "練馬区上石神井３－１６－２５",
      "lat": 35.731208,
      "lon": 139.596076,
      "geohash": "xn7728",
      "neighbors": [
        "xn7729",
        "xn772b",
        "xn772b",
        "xn7729",
        "xn772c"
      ],
      "precision": 6
    },
    {
      "id": 207,
      "name": "相談支援事業所陽(てぃーら)",
      "address": "練馬区石神井台７－２６－５",
      "lat": 35.731607,
      "lon": 139.578036,
      "geohash": "xn7720",
      "neighbors": [
        "xn7721",
        "xn7722",
        "xn7722",
        "xn7721",
        "xn7723"
      ],
      "precision": 6
    },
    {
      "id": 208,
      "name": "たまみずき相談支援事業所",
      "address": "練馬区石神井台３－２－１８",
      "lat": 35.742956,
      "lon": 139.593515,
      "geohash": "xn772d",
      "neighbors": [
        "xn772e",
        "xn772f",
        "xn772f",
        "xn772e",
        "xn772g"
      ],
      "precision": 6
    },
    {
      "id": 209,
      "name": "ヘルプメイト関町相談支援部",
      "address": "練馬区関町北４－２－１２　ワイズビル",
      "lat": 35.728063,
      "lon": 139.576153,
      "geohash": "xn7720",
      "neighbors": [
        "xn7721",
        "xn7722",
        "xn7722",
        "xn7721",
        "xn7723"
      ],
      "precision": 6
    },
    {
      "id": 210,
      "name": "相談支援事業所スプラウト",
      "address": "練馬区関町北２－２９－９　七尾屋ビル２０１号室",
      "lat": 35.727516,
      "lon": 139.575978,
      "geohash": "xn770p",
      "neighbors": [
        "xn7720",
        "xn770r",
        "xn770r",
        "xn7720",
        "xn7722"
      ],
      "precision": 6
    },
    {
      "id": 211,
      "name": "ケアセンター彩り",
      "address": "練馬区東大泉６－１８－１８",
      "lat": 35.744484,
      "lon": 139.586135,
      "geohash": "xn7727",
      "neighbors": [
        "xn772k",
        "xn772e",
        "xn772e",
        "xn772k",
        "xn772s"
      ],
      "precision": 6
    },
    {
      "id": 212,
      "name": "練馬区立こども発達支援センター",
      "address": "練馬区光が丘３－１－１",
      "lat": 35.754201,
      "lon": 139.630961,
      "geohash": "xn773k",
      "neighbors": [
        "xn773m",
        "xn773s",
        "xn773s",
        "xn773m",
        "xn773t"
      ],
      "precision": 6
    },
    {
      "id": 213,
      "name": "障害者相談支援事業所　あかり",
      "address": "練馬区高松２－２６－６",
      "lat": 35.750937,
      "lon": 139.631497,
      "geohash": "xn773k",
      "neighbors": [
        "xn773m",
        "xn773s",
        "xn773s",
        "xn773m",
        "xn773t"
      ],
      "precision": 6
    },
    {
      "id": 214,
      "name": "相談支援事業所　あしたも笑顔",
      "address": "足立区谷中２－１０－１　小倉ビル１階",
      "lat": 35.776212,
      "lon": 139.832429,
      "geohash": "xn77tb",
      "neighbors": [
        "xn77tc",
        "xn77w0",
        "xn77w0",
        "xn77tc",
        "xn77w1"
      ],
      "precision": 6
    },
    {
      "id": 215,
      "name": "相談室あだち",
      "address": "足立区千住仲町２４－２",
      "lat": 35.744929,
      "lon": 139.800853,
      "geohash": "xn77m5",
      "neighbors": [
        "xn77mh",
        "xn77m7",
        "xn77m7",
        "xn77mh",
        "xn77mk"
      ],
      "precision": 6
    },
    {
      "id": 216,
      "name": "相談支援センター　えにし",
      "address": "足立区神明１－６－２",
      "lat": 35.792982,
      "lon": 139.830059,
      "geohash": "xn77tg",
      "neighbors": [
        "xn77tu",
        "xn77w5",
        "xn77w5",
        "xn77tu",
        "xn77wh"
      ],
      "precision": 6
    },
    {
      "id": 217,
      "name": "ぷらちな相談支援センター",
      "address": "足立区加平１－８－２３",
      "lat": 35.774848,
      "lon": 139.826032,
      "geohash": "xn77tb",
      "neighbors": [
        "xn77tc",
        "xn77w0",
        "xn77w0",
        "xn77tc",
        "xn77w1"
      ],
      "precision": 6
    },
    {
      "id": 218,
      "name": "ひるがお足立",
      "address": "足立区花畑４－２３－８",
      "lat": 35.804494,
      "lon": 139.810277,
      "geohash": "xn77tq",
      "neighbors": [
        "xn77tr",
        "xn77tw",
        "xn77tw",
        "xn77tr",
        "xn77tx"
      ],
      "precision": 6
    },
    {
      "id": 219,
      "name": "相談支援事業所夢工房",
      "address": "足立区花畑１－３５－１５　メゾンエスポワール１０１",
      "lat": 35.800497,
      "lon": 139.817088,
      "geohash": "xn77tt",
      "neighbors": [
        "xn77tw",
        "xn77tv",
        "xn77tv",
        "xn77tw",
        "xn77ty"
      ],
      "precision": 6
    },
    {
      "id": 220,
      "name": "のんの相談支援事業所",
      "address": "足立区東保木間２－８－１６　章江二番館１階",
      "lat": 35.79332,
      "lon": 139.811669,
      "geohash": "xn77t7",
      "neighbors": [
        "xn77tk",
        "xn77te",
        "xn77te",
        "xn77tk",
        "xn77ts"
      ],
      "precision": 6
    },
    {
      "id": 221,
      "name": "ハートぽっぽ相談支援事業所",
      "address": "足立区保木間１－５－２１",
      "lat": 35.789587,
      "lon": 139.805111,
      "geohash": "xn77t7",
      "neighbors": [
        "xn77tk",
        "xn77te",
        "xn77te",
        "xn77tk",
        "xn77ts"
      ],
      "precision": 6
    },
    {
      "id": 222,
      "name": "相談支援ＳＯ・ＳＩ・ＲＥ・ＭＩ",
      "address": "足立区保木間２－２－１　オオサキ竹ノ塚マンション１階",
      "lat": 35.793867,
      "lon": 139.802675,
      "geohash": "xn77tk",
      "neighbors": [
        "xn77tm",
        "xn77ts",
        "xn77ts",
        "xn77tm",
        "xn77tt"
      ],
      "precision": 6
    },
    {
      "id": 223,
      "name": "竹の塚相談支援センター",
      "address": "足立区竹の塚７－１９－９",
      "lat": 35.800822,
      "lon": 139.795945,
      "geohash": "xn77tj",
      "neighbors": [
        "xn77tn",
        "xn77tm",
        "xn77tm",
        "xn77tn",
        "xn77tq"
      ],
      "precision": 6
    },
    {
      "id": 224,
      "name": "日介センター足立東",
      "address": "足立区竹の塚５－１－１４",
      "lat": 35.793648,
      "lon": 139.797684,
      "geohash": "xn77th",
      "neighbors": [
        "xn77tj",
        "xn77tk",
        "xn77tk",
        "xn77tj",
        "xn77tm"
      ],
      "precision": 6
    },
    {
      "id": 225,
      "name": "株式会社ベル訪問介護ステーション",
      "address": "足立区六月３－３－４",
      "lat": 35.785737,
      "lon": 139.790796,
      "geohash": "xn77t4",
      "neighbors": [
        "xn77t5",
        "xn77t6",
        "xn77t6",
        "xn77t5",
        "xn77t7"
      ],
      "precision": 6
    },
    {
      "id": 226,
      "name": "成仁　相談支援事業所",
      "address": "足立区島根３－２－１",
      "lat": 35.778733,
      "lon": 139.796318,
      "geohash": "xn77t1",
      "neighbors": [
        "xn77t4",
        "xn77t3",
        "xn77t3",
        "xn77t4",
        "xn77t6"
      ],
      "precision": 6
    },
    {
      "id": 227,
      "name": "足立区障がい福祉センター自立生活支援室",
      "address": "足立区梅島３－３１－１９",
      "lat": 35.777505,
      "lon": 139.792921,
      "geohash": "xn77t1",
      "neighbors": [
        "xn77t4",
        "xn77t3",
        "xn77t3",
        "xn77t4",
        "xn77t6"
      ],
      "precision": 6
    },
    {
      "id": 228,
      "name": "しっぷす相談支援事業所",
      "address": "足立区西竹の塚１－１４－１６　紺屋ビル２０１",
      "lat": 35.793884,
      "lon": 139.788793,
      "geohash": "xn77su",
      "neighbors": [
        "xn77sv",
        "xn77th",
        "xn77th",
        "xn77sv",
        "xn77tj"
      ],
      "precision": 6
    },
    {
      "id": 229,
      "name": "ぽぽらーと相談室",
      "address": "足立区入谷１－１６－１３",
      "lat": 35.805459,
      "lon": 139.766872,
      "geohash": "xn77sq",
      "neighbors": [
        "xn77sr",
        "xn77sw",
        "xn77sw",
        "xn77sr",
        "xn77sx"
      ],
      "precision": 6
    },
    {
      "id": 230,
      "name": "スマイル相談支援センター",
      "address": "足立区西新井１－３８－１１",
      "lat": 35.78246,
      "lon": 139.780333,
      "geohash": "xn77sc",
      "neighbors": [
        "xn77sf",
        "xn77t1",
        "xn77t1",
        "xn77sf",
        "xn77t4"
      ],
      "precision": 6
    },
    {
      "id": 231,
      "name": "うめだ・あけぼの子ども相談支援センター",
      "address": "足立区梅田７－１２－１５",
      "lat": 35.76922,
      "lon": 139.800899,
      "geohash": "xn77mp",
      "neighbors": [
        "xn77t0",
        "xn77mr",
        "xn77mr",
        "xn77t0",
        "xn77t2"
      ],
      "precision": 6
    },
    {
      "id": 232,
      "name": "相談室とまりぎ",
      "address": "足立区扇１－４４－１５",
      "lat": 35.766673,
      "lon": 139.776915,
      "geohash": "xn77kx",
      "neighbors": [
        "xn77s8",
        "xn77kz",
        "xn77kz",
        "xn77s8",
        "xn77sb"
      ],
      "precision": 6
    },
    {
      "id": 233,
      "name": "ケアステーションダッシュ",
      "address": "葛飾区お花茶屋１－５－１０",
      "lat": 35.748624,
      "lon": 139.836885,
      "geohash": "xn77q5",
      "neighbors": [
        "xn77qh",
        "xn77q7",
        "xn77q7",
        "xn77qh",
        "xn77qk"
      ],
      "precision": 6
    },
    {
      "id": 234,
      "name": "葛飾区自立生活支援センター",
      "address": "葛飾区堀切３丁目３４－１",
      "lat": 35.744335,
      "lon": 139.834522,
      "geohash": "xn77q5",
      "neighbors": [
        "xn77qh",
        "xn77q7",
        "xn77q7",
        "xn77qh",
        "xn77qk"
      ],
      "precision": 6
    },
    {
      "id": 235,
      "name": "葛飾区子ども発達センター",
      "address": "葛飾区堀切３－３４－１",
      "lat": 35.744335,
      "lon": 139.834522,
      "geohash": "xn77q5",
      "neighbors": [
        "xn77qh",
        "xn77q7",
        "xn77q7",
        "xn77qh",
        "xn77qk"
      ],
      "precision": 6
    },
    {
      "id": 236,
      "name": "花しょうぶ指定特定相談支援事業所",
      "address": "葛飾区堀切６－５－１１　１階",
      "lat": 35.752267,
      "lon": 139.830011,
      "geohash": "xn77mu",
      "neighbors": [
        "xn77mv",
        "xn77qh",
        "xn77qh",
        "xn77mv",
        "xn77qj"
      ],
      "precision": 6
    },
    {
      "id": 237,
      "name": "フタバ介護サービス",
      "address": "葛飾区四つ木４－２８－１１",
      "lat": 35.739625,
      "lon": 139.835611,
      "geohash": "xn77q4",
      "neighbors": [
        "xn77q5",
        "xn77q6",
        "xn77q6",
        "xn77q5",
        "xn77q7"
      ],
      "precision": 6
    },
    {
      "id": 238,
      "name": "相談支援事業さくら",
      "address": "葛飾区四つ木５－６－７",
      "lat": 35.740716,
      "lon": 139.838294,
      "geohash": "xn77q4",
      "neighbors": [
        "xn77q5",
        "xn77q6",
        "xn77q6",
        "xn77q5",
        "xn77q7"
      ],
      "precision": 6
    },
    {
      "id": 239,
      "name": "相談支援センターおおぞら",
      "address": "葛飾区細田５－１６－１１",
      "lat": 35.738242,
      "lon": 139.876299,
      "geohash": "xn77qc",
      "neighbors": [
        "xn77qf",
        "xn77r1",
        "xn77r1",
        "xn77qf",
        "xn77r4"
      ],
      "precision": 6
    },
    {
      "id": 240,
      "name": "広伸会相談支援事業所",
      "address": "葛飾区東新小岩５－１８－１　１階",
      "lat": 35.72331,
      "lon": 139.857049,
      "geohash": "xn77nx",
      "neighbors": [
        "xn77q8",
        "xn77nz",
        "xn77nz",
        "xn77q8",
        "xn77qb"
      ],
      "precision": 6
    },
    {
      "id": 241,
      "name": "相談支援室　ひまわり",
      "address": "葛飾区東新小岩５－１６－１１－２０２",
      "lat": 35.72334,
      "lon": 139.855882,
      "geohash": "xn77nr",
      "neighbors": [
        "xn77q2",
        "xn77nx",
        "xn77nx",
        "xn77q2",
        "xn77q8"
      ],
      "precision": 6
    },
    {
      "id": 242,
      "name": "風の子相談室",
      "address": "葛飾区西水元５－１１－３",
      "lat": 35.78446,
      "lon": 139.854533,
      "geohash": "xn77w6",
      "neighbors": [
        "xn77w7",
        "xn77wd",
        "xn77wd",
        "xn77w7",
        "xn77we"
      ],
      "precision": 6
    },
    {
      "id": 243,
      "name": "にじいろ相談支援事業所",
      "address": "葛飾区柴又７－１４－４",
      "lat": 35.759842,
      "lon": 139.879159,
      "geohash": "xn77rj",
      "neighbors": [
        "xn77rn",
        "xn77rm",
        "xn77rm",
        "xn77rn",
        "xn77rq"
      ],
      "precision": 6
    },
    {
      "id": 244,
      "name": "オリーブ相談支援事業所",
      "address": "葛飾区亀有３－１６－１５",
      "lat": 35.763541,
      "lon": 139.848545,
      "geohash": "xn77qq",
      "neighbors": [
        "xn77qr",
        "xn77qw",
        "xn77qw",
        "xn77qr",
        "xn77qx"
      ],
      "precision": 6
    },
    {
      "id": 245,
      "name": "相談支援事業所ひかり",
      "address": "葛飾区亀有２－２２－１１",
      "lat": 35.760061,
      "lon": 139.85232,
      "geohash": "xn77qm",
      "neighbors": [
        "xn77qq",
        "xn77qt",
        "xn77qt",
        "xn77qq",
        "xn77qw"
      ],
      "precision": 6
    },
    {
      "id": 246,
      "name": "葛飾区子ども総合センター",
      "address": "葛飾区青戸４丁目１５－１４",
      "lat": 35.751567,
      "lon": 139.850589,
      "geohash": "xn77qk",
      "neighbors": [
        "xn77qm",
        "xn77qs",
        "xn77qs",
        "xn77qm",
        "xn77qt"
      ],
      "precision": 6
    },
    {
      "id": 247,
      "name": "きらら介護サービス亀有",
      "address": "葛飾区青戸８－９－１６",
      "lat": 35.756234,
      "lon": 139.851834,
      "geohash": "xn77qm",
      "neighbors": [
        "xn77qq",
        "xn77qt",
        "xn77qt",
        "xn77qq",
        "xn77qw"
      ],
      "precision": 6
    },
    {
      "id": 248,
      "name": "ケアステーション大空",
      "address": "江戸川区新堀２－３２－１０　コンビニエンスオフィス稲毛１号",
      "lat": 35.704143,
      "lon": 139.893193,
      "geohash": "xn77p7",
      "neighbors": [
        "xn77pk",
        "xn77pe",
        "xn77pe",
        "xn77pk",
        "xn77ps"
      ],
      "precision": 6
    },
    {
      "id": 249,
      "name": "地域活動支援センター　はるえ野",
      "address": "江戸川区春江町２－４１－８",
      "lat": 35.699504,
      "lon": 139.890744,
      "geohash": "xn77p6",
      "neighbors": [
        "xn77p7",
        "xn77pd",
        "xn77pd",
        "xn77p7",
        "xn77pe"
      ],
      "precision": 6
    },
    {
      "id": 250,
      "name": "永仁介護サービス　瑞江相談支援事業所",
      "address": "江戸川区春江町３－５１－４",
      "lat": 35.697255,
      "lon": 139.891288,
      "geohash": "xn77p6",
      "neighbors": [
        "xn77p7",
        "xn77pd",
        "xn77pd",
        "xn77p7",
        "xn77pe"
      ],
      "precision": 6
    },
    {
      "id": 251,
      "name": "有限会社　椿ケアステーション",
      "address": "江戸川区春江町３－２９－１２",
      "lat": 35.694988,
      "lon": 139.886933,
      "geohash": "xn77p4",
      "neighbors": [
        "xn77p5",
        "xn77p6",
        "xn77p6",
        "xn77p5",
        "xn77p7"
      ],
      "precision": 6
    },
    {
      "id": 252,
      "name": "江東園ケアセンターつばき　えぽっく",
      "address": "江戸川区春江町２－５－１５",
      "lat": 35.700762,
      "lon": 139.887083,
      "geohash": "xn77p5",
      "neighbors": [
        "xn77ph",
        "xn77p7",
        "xn77p7",
        "xn77ph",
        "xn77pk"
      ],
      "precision": 6
    },
    {
      "id": 253,
      "name": "ウィット相談支援室",
      "address": "江戸川区瑞江４－４８－２",
      "lat": 35.69323,
      "lon": 139.894896,
      "geohash": "xn77p3",
      "neighbors": [
        "xn77p6",
        "xn77p9",
        "xn77p9",
        "xn77p6",
        "xn77pd"
      ],
      "precision": 6
    },
    {
      "id": 254,
      "name": "特定非営利活動法人　江戸川在宅支援グループ",
      "address": "江戸川区江戸川３－１７",
      "lat": 35.686433,
      "lon": 139.893205,
      "geohash": "xn77p2",
      "neighbors": [
        "xn77p3",
        "xn77p8",
        "xn77p8",
        "xn77p3",
        "xn77p9"
      ],
      "precision": 6
    },
    {
      "id": 255,
      "name": "江東園さわやか相談室　宙",
      "address": "江戸川区東瑞江１－１１－５",
      "lat": 35.688733,
      "lon": 139.899527,
      "geohash": "xn77p2",
      "neighbors": [
        "xn77p3",
        "xn77p8",
        "xn77p8",
        "xn77p3",
        "xn77p9"
      ],
      "precision": 6
    },
    {
      "id": 256,
      "name": "わだつみケアサービス",
      "address": "江戸川区西瑞江３－９－１０３",
      "lat": 35.687511,
      "lon": 139.892416,
      "geohash": "xn77p2",
      "neighbors": [
        "xn77p3",
        "xn77p8",
        "xn77p8",
        "xn77p3",
        "xn77p9"
      ],
      "precision": 6
    },
    {
      "id": 257,
      "name": "にじいろ相談支援事業所",
      "address": "江戸川区中央４－２５－１６　石井ビル２階",
      "lat": 35.708736,
      "lon": 139.867615,
      "geohash": "xn77nu",
      "neighbors": [
        "xn77nv",
        "xn77ph",
        "xn77ph",
        "xn77nv",
        "xn77pj"
      ],
      "precision": 6
    },
    {
      "id": 258,
      "name": "あるぷす相談室",
      "address": "江戸川区中央３－７－１３",
      "lat": 35.712867,
      "lon": 139.871825,
      "geohash": "xn77nv",
      "neighbors": [
        "xn77ny",
        "xn77pj",
        "xn77pj",
        "xn77ny",
        "xn77pn"
      ],
      "precision": 6
    },
    {
      "id": 259,
      "name": "ケア　あんじゅ",
      "address": "江戸川区大杉５－２０－１",
      "lat": 35.708871,
      "lon": 139.877689,
      "geohash": "xn77nu",
      "neighbors": [
        "xn77nv",
        "xn77ph",
        "xn77ph",
        "xn77nv",
        "xn77pj"
      ],
      "precision": 6
    },
    {
      "id": 260,
      "name": "東京福祉交通サービス株式会社　相談支援センター",
      "address": "江戸川区西一之江３－１２－３０",
      "lat": 35.6927,
      "lon": 139.875768,
      "geohash": "xn77nc",
      "neighbors": [
        "xn77nf",
        "xn77p1",
        "xn77p1",
        "xn77nf",
        "xn77p4"
      ],
      "precision": 6
    },
    {
      "id": 261,
      "name": "日本リック相談支援一之江事業所",
      "address": "江戸川区一之江４－６－２２",
      "lat": 35.690029,
      "lon": 139.879228,
      "geohash": "xn77p1",
      "neighbors": [
        "xn77p4",
        "xn77p3",
        "xn77p3",
        "xn77p4",
        "xn77p6"
      ],
      "precision": 6
    },
    {
      "id": 262,
      "name": "ゆたか福祉サービス",
      "address": "江戸川区一之江３－７－１１　プレジデント１０２",
      "lat": 35.688071,
      "lon": 139.885111,
      "geohash": "xn77p0",
      "neighbors": [
        "xn77p1",
        "xn77p2",
        "xn77p2",
        "xn77p1",
        "xn77p3"
      ],
      "precision": 6
    },
    {
      "id": 263,
      "name": "相談支援センターぽこ・あ・ぽこ",
      "address": "江戸川区松島３－４２－１１",
      "lat": 35.711711,
      "lon": 139.864635,
      "geohash": "xn77nt",
      "neighbors": [
        "xn77nw",
        "xn77nv",
        "xn77nv",
        "xn77nw",
        "xn77ny"
      ],
      "precision": 6
    },
    {
      "id": 264,
      "name": "地域活動支援センターえどがわ",
      "address": "江戸川区松島３－４６－１０　かとりコーポ１０１",
      "lat": 35.709844,
      "lon": 139.865904,
      "geohash": "xn77ns",
      "neighbors": [
        "xn77nt",
        "xn77nu",
        "xn77nu",
        "xn77nt",
        "xn77nv"
      ],
      "precision": 6
    },
    {
      "id": 265,
      "name": "ひまわり介護サービス",
      "address": "江戸川区松島１－４３－１４　小森ビル１階",
      "lat": 35.705095,
      "lon": 139.867707,
      "geohash": "xn77ng",
      "neighbors": [
        "xn77nu",
        "xn77p5",
        "xn77p5",
        "xn77nu",
        "xn77ph"
      ],
      "precision": 6
    },
    {
      "id": 266,
      "name": "永仁介護サービス　平井相談支援事業所",
      "address": "江戸川区平井４－１－１９",
      "lat": 35.703905,
      "lon": 139.847148,
      "geohash": "xn77n7",
      "neighbors": [
        "xn77nk",
        "xn77ne",
        "xn77ne",
        "xn77nk",
        "xn77ns"
      ],
      "precision": 6
    },
    {
      "id": 267,
      "name": "江戸川区立みんなの家",
      "address": "江戸川区本一色３－３８－３",
      "lat": 35.720763,
      "lon": 139.872578,
      "geohash": "xn77ny",
      "neighbors": [
        "xn77nz",
        "xn77pn",
        "xn77pn",
        "xn77nz",
        "xn77pp"
      ],
      "precision": 6
    },
    {
      "id": 268,
      "name": "江戸川区鹿本育成室",
      "address": "江戸川区本一色２－１０－１５",
      "lat": 35.718194,
      "lon": 139.872933,
      "geohash": "xn77ny",
      "neighbors": [
        "xn77nz",
        "xn77pn",
        "xn77pn",
        "xn77nz",
        "xn77pp"
      ],
      "precision": 6
    },
    {
      "id": 269,
      "name": "ＨＡＬＯ（ハロ）相談支援センター",
      "address": "江戸川区本一色１－２８－７",
      "lat": 35.715528,
      "lon": 139.869448,
      "geohash": "xn77nv",
      "neighbors": [
        "xn77ny",
        "xn77pj",
        "xn77pj",
        "xn77ny",
        "xn77pn"
      ],
      "precision": 6
    },
    {
      "id": 270,
      "name": "トロールケアサービス",
      "address": "江戸川区北小岩５－１－９",
      "lat": 35.741091,
      "lon": 139.885671,
      "geohash": "xn77r4",
      "neighbors": [
        "xn77r5",
        "xn77r6",
        "xn77r6",
        "xn77r5",
        "xn77r7"
      ],
      "precision": 6
    },
    {
      "id": 271,
      "name": "でこぽん",
      "address": "江戸川区北小岩１－１０－１　サンライズⅡ１０３",
      "lat": 35.736245,
      "lon": 139.889656,
      "geohash": "xn77r3",
      "neighbors": [
        "xn77r6",
        "xn77r9",
        "xn77r9",
        "xn77r6",
        "xn77rd"
      ],
      "precision": 6
    },
    {
      "id": 272,
      "name": "赤とんぼ",
      "address": "江戸川区東小岩５－１６－６　ライトハイツ２階",
      "lat": 35.731959,
      "lon": 139.887615,
      "geohash": "xn77r0",
      "neighbors": [
        "xn77r1",
        "xn77r2",
        "xn77r2",
        "xn77r1",
        "xn77r3"
      ],
      "precision": 6
    },
    {
      "id": 273,
      "name": "相談支援センター　カピリナ",
      "address": "江戸川区東小岩２－２３－３",
      "lat": 35.726883,
      "lon": 139.893401,
      "geohash": "xn77pr",
      "neighbors": [
        "xn77r2",
        "xn77px",
        "xn77px",
        "xn77r2",
        "xn77r8"
      ],
      "precision": 6
    },
    {
      "id": 274,
      "name": "あいしんケア相談支援センター",
      "address": "江戸川区上篠崎３－２－２　金子ハイツ１０１",
      "lat": 35.710136,
      "lon": 139.898609,
      "geohash": "xn77pk",
      "neighbors": [
        "xn77pm",
        "xn77ps",
        "xn77ps",
        "xn77pm",
        "xn77pt"
      ],
      "precision": 6
    },
    {
      "id": 275,
      "name": "いきいきサポートケアプラン",
      "address": "江戸川区南小岩３－５－４",
      "lat": 35.724797,
      "lon": 139.884457,
      "geohash": "xn77pp",
      "neighbors": [
        "xn77r0",
        "xn77pr",
        "xn77pr",
        "xn77r0",
        "xn77r2"
      ],
      "precision": 6
    },
    {
      "id": 276,
      "name": "なでしこプランセンター",
      "address": "江戸川区南小岩３－２５－１４　パスカルビル２０５号室",
      "lat": 35.725202,
      "lon": 139.888701,
      "geohash": "xn77pp",
      "neighbors": [
        "xn77r0",
        "xn77pr",
        "xn77pr",
        "xn77r0",
        "xn77r2"
      ],
      "precision": 6
    },
    {
      "id": 277,
      "name": "マミー相談支援",
      "address": "江戸川区南小岩３－２０－２",
      "lat": 35.726488,
      "lon": 139.886912,
      "geohash": "xn77pp",
      "neighbors": [
        "xn77r0",
        "xn77pr",
        "xn77pr",
        "xn77r0",
        "xn77r2"
      ],
      "precision": 6
    },
    {
      "id": 278,
      "name": "相談支援事業所　けいプラン",
      "address": "江戸川区西小岩１－２１－１６　エーチワイ江戸川２０１",
      "lat": 35.73449,
      "lon": 139.880424,
      "geohash": "xn77r1",
      "neighbors": [
        "xn77r4",
        "xn77r3",
        "xn77r3",
        "xn77r4",
        "xn77r6"
      ],
      "precision": 6
    },
    {
      "id": 279,
      "name": "江東園さわやか相談室　海",
      "address": "江戸川区篠崎町７－１８－８",
      "lat": 35.707362,
      "lon": 139.901795,
      "geohash": "xn77ps",
      "neighbors": [
        "xn77pt",
        "xn77pu",
        "xn77pu",
        "xn77pt",
        "xn77pv"
      ],
      "precision": 6
    },
    {
      "id": 280,
      "name": "ＳＴＥＰえどがわ",
      "address": "江戸川区南篠崎町３－９－７－１Ｆ",
      "lat": 35.695572,
      "lon": 139.898904,
      "geohash": "xn77p6",
      "neighbors": [
        "xn77p7",
        "xn77pd",
        "xn77pd",
        "xn77p7",
        "xn77pe"
      ],
      "precision": 6
    },
    {
      "id": 281,
      "name": "相談支援センターむくむく",
      "address": "江戸川区鹿骨１－５６－１",
      "lat": 35.709536,
      "lon": 139.891265,
      "geohash": "xn77pk",
      "neighbors": [
        "xn77pm",
        "xn77ps",
        "xn77ps",
        "xn77pm",
        "xn77pt"
      ],
      "precision": 6
    },
    {
      "id": 282,
      "name": "東京ケア",
      "address": "江戸川区鹿骨３－１８－８",
      "lat": 35.716107,
      "lon": 139.891971,
      "geohash": "xn77pm",
      "neighbors": [
        "xn77pq",
        "xn77pt",
        "xn77pt",
        "xn77pq",
        "xn77pw"
      ],
      "precision": 6
    },
    {
      "id": 283,
      "name": "江戸川区立希望の家",
      "address": "江戸川区江戸川５－３２－６",
      "lat": 35.673036,
      "lon": 139.882976,
      "geohash": "xn76zn",
      "neighbors": [
        "xn76zp",
        "xn76zq",
        "xn76zq",
        "xn76zp",
        "xn76zr"
      ],
      "precision": 6
    },
    {
      "id": 284,
      "name": "蜂輪",
      "address": "江戸川区中葛西２－７－１２",
      "lat": 35.672788,
      "lon": 139.874307,
      "geohash": "xn76yy",
      "neighbors": [
        "xn76yz",
        "xn76zn",
        "xn76zn",
        "xn76yz",
        "xn76zp"
      ],
      "precision": 6
    },
    {
      "id": 285,
      "name": "江戸川区立障害者支援ハウス",
      "address": "江戸川区中葛西２－１１－８",
      "lat": 35.673425,
      "lon": 139.875032,
      "geohash": "xn76yy",
      "neighbors": [
        "xn76yz",
        "xn76zn",
        "xn76zn",
        "xn76yz",
        "xn76zp"
      ],
      "precision": 6
    },
    {
      "id": 286,
      "name": "｢まある｣相談支援事業所",
      "address": "江戸川区中葛西１－３８－１８",
      "lat": 35.671255,
      "lon": 139.871208,
      "geohash": "xn76yv",
      "neighbors": [
        "xn76yy",
        "xn76zj",
        "xn76zj",
        "xn76yy",
        "xn76zn"
      ],
      "precision": 6
    },
    {
      "id": 287,
      "name": "ハートケア",
      "address": "江戸川区中葛西３－１８－１１　ハイツ星１０２号",
      "lat": 35.664911,
      "lon": 139.870461,
      "geohash": "xn76yu",
      "neighbors": [
        "xn76yv",
        "xn76zh",
        "xn76zh",
        "xn76yv",
        "xn76zj"
      ],
      "precision": 6
    },
    {
      "id": 288,
      "name": "ゆーあいスマイル",
      "address": "江戸川区中葛西２－１０－１５　２階",
      "lat": 35.673072,
      "lon": 139.874432,
      "geohash": "xn76yy",
      "neighbors": [
        "xn76yz",
        "xn76zn",
        "xn76zn",
        "xn76yz",
        "xn76zp"
      ],
      "precision": 6
    },
    {
      "id": 289,
      "name": "相談支援センター　こんにちわ",
      "address": "江戸川区東葛西７－８－１５　メゾン・ド・フォレ１０３",
      "lat": 35.65899,
      "lon": 139.874572,
      "geohash": "xn76yg",
      "neighbors": [
        "xn76yu",
        "xn76z5",
        "xn76z5",
        "xn76yu",
        "xn76zh"
      ],
      "precision": 6
    },
    {
      "id": 290,
      "name": "相談支援ＮＰＯ虹の会",
      "address": "江戸川区南葛西７－２－３",
      "lat": 35.647153,
      "lon": 139.882261,
      "geohash": "xn76z1",
      "neighbors": [
        "xn76z4",
        "xn76z3",
        "xn76z3",
        "xn76z4",
        "xn76z6"
      ],
      "precision": 6
    },
    {
      "id": 291,
      "name": "いわいだ介護相談室",
      "address": "江戸川区南葛西２－６－５－１０２",
      "lat": 35.655224,
      "lon": 139.873528,
      "geohash": "xn76yf",
      "neighbors": [
        "xn76yg",
        "xn76z4",
        "xn76z4",
        "xn76yg",
        "xn76z5"
      ],
      "precision": 6
    },
    {
      "id": 292,
      "name": "相談支援センターＦＵＲＥＡＩ（ふれあい）",
      "address": "江戸川区西葛西６－２３－３　秀合ビル１Ｆ",
      "lat": 35.664064,
      "lon": 139.863209,
      "geohash": "xn76ys",
      "neighbors": [
        "xn76yt",
        "xn76yu",
        "xn76yu",
        "xn76yt",
        "xn76yv"
      ],
      "precision": 6
    },
    {
      "id": 293,
      "name": "相談支援センターくらふと",
      "address": "江戸川区船堀１－４－１０",
      "lat": 35.686253,
      "lon": 139.864536,
      "geohash": "xn77n8",
      "neighbors": [
        "xn77n9",
        "xn77nb",
        "xn77nb",
        "xn77n9",
        "xn77nc"
      ],
      "precision": 6
    },
    {
      "id": 294,
      "name": "ぽんぽこ相談室",
      "address": "八王子市大和田町２－２０－７",
      "lat": 35.665101,
      "lon": 139.359596,
      "geohash": "xn74gh",
      "neighbors": [
        "xn74gj",
        "xn74gk",
        "xn74gk",
        "xn74gj",
        "xn74gm"
      ],
      "precision": 6
    },
    {
      "id": 295,
      "name": "障害者相談支援センター　ぴあらいふ",
      "address": "八王子市明神町４－１４－１　１階",
      "lat": 35.659863,
      "lon": 139.342334,
      "geohash": "xn74fg",
      "neighbors": [
        "xn74fu",
        "xn74g5",
        "xn74g5",
        "xn74fu",
        "xn74gh"
      ],
      "precision": 6
    },
    {
      "id": 296,
      "name": "相談支援スペース「ゆめ」",
      "address": "八王子市小門町８－２７　サンビレッジ１階",
      "lat": 35.65901,
      "lon": 139.326971,
      "geohash": "xn74f7",
      "neighbors": [
        "xn74fk",
        "xn74fe",
        "xn74fe",
        "xn74fk",
        "xn74fs"
      ],
      "precision": 6
    },
    {
      "id": 297,
      "name": "相談支援センター　｢タック｣",
      "address": "八王子市横山町２５－１６　フロイデンビル２階",
      "lat": 35.660212,
      "lon": 139.340226,
      "geohash": "xn74fg",
      "neighbors": [
        "xn74fu",
        "xn74g5",
        "xn74g5",
        "xn74fu",
        "xn74gh"
      ],
      "precision": 6
    },
    {
      "id": 298,
      "name": "美山相談支援事業所",
      "address": "八王子市美山町２５５４",
      "lat": 35.703388,
      "lon": 139.230166,
      "geohash": "xn7507",
      "neighbors": [
        "xn750k",
        "xn750e",
        "xn750e",
        "xn750k",
        "xn750s"
      ],
      "precision": 6
    },
    {
      "id": 299,
      "name": "障がい者（児）の夢を実現させる相談支援",
      "address": "八王子市上野町３４－１１　１階",
      "lat": 35.656576,
      "lon": 139.326277,
      "geohash": "xn74f7",
      "neighbors": [
        "xn74fk",
        "xn74fe",
        "xn74fe",
        "xn74fk",
        "xn74fs"
      ],
      "precision": 6
    },
    {
      "id": 300,
      "name": "ウェーブ・フォー・ネット相談室",
      "address": "八王子市片倉町３５９－４　パラグアスＦ１階１０２号",
      "lat": 35.642803,
      "lon": 139.338226,
      "geohash": "xn74f8",
      "neighbors": [
        "xn74f9",
        "xn74fb",
        "xn74fb",
        "xn74f9",
        "xn74fc"
      ],
      "precision": 6
    },
    {
      "id": 301,
      "name": "わかこま相談支援室",
      "address": "八王子市横川町５２１－１",
      "lat": 35.664664,
      "lon": 139.304304,
      "geohash": "xn74cu",
      "neighbors": [
        "xn74cv",
        "xn74fh",
        "xn74fh",
        "xn74cv",
        "xn74fj"
      ],
      "precision": 6
    },
    {
      "id": 302,
      "name": "サポートＮＡＲＳ",
      "address": "八王子市横川町５３８－１",
      "lat": 35.666405,
      "lon": 139.304331,
      "geohash": "xn74cu",
      "neighbors": [
        "xn74cv",
        "xn74fh",
        "xn74fh",
        "xn74cv",
        "xn74fj"
      ],
      "precision": 6
    },
    {
      "id": 303,
      "name": "トマリ相談支援研究所",
      "address": "八王子市高尾町１６４２",
      "lat": 35.643094,
      "lon": 139.277737,
      "geohash": "xn74c2",
      "neighbors": [
        "xn74c3",
        "xn74c8",
        "xn74c8",
        "xn74c3",
        "xn74c9"
      ],
      "precision": 6
    },
    {
      "id": 304,
      "name": "相談支援事業所もなか",
      "address": "八王子市台町１－２４－２７　１階",
      "lat": 35.650535,
      "lon": 139.325649,
      "geohash": "xn74f3",
      "neighbors": [
        "xn74f6",
        "xn74f9",
        "xn74f9",
        "xn74f6",
        "xn74fd"
      ],
      "precision": 6
    },
    {
      "id": 305,
      "name": "相談支援室ぱれっと",
      "address": "八王子市台町４－３３－１３",
      "lat": 35.65749,
      "lon": 139.318544,
      "geohash": "xn74f7",
      "neighbors": [
        "xn74fk",
        "xn74fe",
        "xn74fe",
        "xn74fk",
        "xn74fs"
      ],
      "precision": 6
    },
    {
      "id": 306,
      "name": "障害者而立支援センター「おあしす」",
      "address": "八王子市館町３８１－１－１１０",
      "lat": 35.635395,
      "lon": 139.295675,
      "geohash": "xn749z",
      "neighbors": [
        "xn74cb",
        "xn74dp",
        "xn74dp",
        "xn74cb",
        "xn74f0"
      ],
      "precision": 6
    },
    {
      "id": 307,
      "name": "相談支援センターにんじん・立川",
      "address": "立川市高松町２－２７－２７",
      "lat": 35.703776,
      "lon": 139.418956,
      "geohash": "xn75he",
      "neighbors": [
        "xn75hs",
        "xn75hg",
        "xn75hg",
        "xn75hs",
        "xn75hu"
      ],
      "precision": 6
    },
    {
      "id": 308,
      "name": "相談支援事業所暖",
      "address": "立川市高松町１－１７－２０　粕谷ビル２階",
      "lat": 35.708761,
      "lon": 139.418015,
      "geohash": "xn75hs",
      "neighbors": [
        "xn75ht",
        "xn75hu",
        "xn75hu",
        "xn75ht",
        "xn75hv"
      ],
      "precision": 6
    },
    {
      "id": 309,
      "name": "相談支援事業所　介護グループふれあい",
      "address": "立川市羽衣町２－４１－１　羽衣第一ビル２階",
      "lat": 35.694049,
      "lon": 139.426056,
      "geohash": "xn75h9",
      "neighbors": [
        "xn75hd",
        "xn75hc",
        "xn75hc",
        "xn75hd",
        "xn75hf"
      ],
      "precision": 6
    },
    {
      "id": 310,
      "name": "特定指定相談支援事業　自立生活センター・立川",
      "address": "立川市柴崎町２－１０－１６　オオノビル２Ｆ",
      "lat": 35.696268,
      "lon": 139.408882,
      "geohash": "xn75h6",
      "neighbors": [
        "xn75h7",
        "xn75hd",
        "xn75hd",
        "xn75h7",
        "xn75he"
      ],
      "precision": 6
    },
    {
      "id": 311,
      "name": "相談支援センター　らいふぱる",
      "address": "立川市西砂町４－７５－２",
      "lat": 35.735837,
      "lon": 139.355911,
      "geohash": "xn7571",
      "neighbors": [
        "xn7574",
        "xn7573",
        "xn7573",
        "xn7574",
        "xn7576"
      ],
      "precision": 6
    },
    {
      "id": 312,
      "name": "地域生活支援センター　びーと",
      "address": "武蔵野市吉祥寺北町４－１１－１６",
      "lat": 35.71575,
      "lon": 139.565901,
      "geohash": "xn75pv",
      "neighbors": [
        "xn75py",
        "xn770j",
        "xn770j",
        "xn75py",
        "xn770n"
      ],
      "precision": 6
    },
    {
      "id": 313,
      "name": "相談支援事業所ハローワールド",
      "address": "武蔵野市御殿山１－６－１１　Ｋ２ビル４階",
      "lat": 35.702877,
      "lon": 139.574918,
      "geohash": "xn7705",
      "neighbors": [
        "xn770h",
        "xn7707",
        "xn7707",
        "xn770h",
        "xn770k"
      ],
      "precision": 6
    },
    {
      "id": 314,
      "name": "地域療育相談室　ハビット",
      "address": "武蔵野市緑町２－６－８",
      "lat": 35.716931,
      "lon": 139.561899,
      "geohash": "xn75py",
      "neighbors": [
        "xn75pz",
        "xn770n",
        "xn770n",
        "xn75pz",
        "xn770p"
      ],
      "precision": 6
    },
    {
      "id": 315,
      "name": "相談支援事業所せんかわ",
      "address": "武蔵野市境南町４－２０－５",
      "lat": 35.698446,
      "lon": 139.536946,
      "geohash": "xn75p4",
      "neighbors": [
        "xn75p5",
        "xn75p6",
        "xn75p6",
        "xn75p5",
        "xn75p7"
      ],
      "precision": 6
    },
    {
      "id": 316,
      "name": "相談支援事業所　結い",
      "address": "三鷹市井の頭２－２１－１８",
      "lat": 35.691187,
      "lon": 139.584342,
      "geohash": "xn7703",
      "neighbors": [
        "xn7706",
        "xn7709",
        "xn7709",
        "xn7706",
        "xn770d"
      ],
      "precision": 6
    },
    {
      "id": 317,
      "name": "三鷹市北野ハピネスセンター",
      "address": "三鷹市北野一丁目９番２９号",
      "lat": 35.679899,
      "lon": 139.586148,
      "geohash": "xn76br",
      "neighbors": [
        "xn7702",
        "xn76bx",
        "xn76bx",
        "xn7702",
        "xn7708"
      ],
      "precision": 6
    },
    {
      "id": 318,
      "name": "障がい者相談センター　つなぐ手",
      "address": "三鷹市新川３－２１－１９　はなはなテラス１階",
      "lat": 35.678271,
      "lon": 139.569528,
      "geohash": "xn74zz",
      "neighbors": [
        "xn75pb",
        "xn76bp",
        "xn76bp",
        "xn75pb",
        "xn7700"
      ],
      "precision": 6
    },
    {
      "id": 319,
      "name": "相談支援事業所にじアート",
      "address": "三鷹市新川４－１１－１３",
      "lat": 35.673208,
      "lon": 139.57133,
      "geohash": "xn76bn",
      "neighbors": [
        "xn76bp",
        "xn76bq",
        "xn76bq",
        "xn76bp",
        "xn76br"
      ],
      "precision": 6
    },