[
  {
    "id":0,
    "name":"相談支援事業所Ｍｏｉ",
    "address":"千代田区神田神保町２－３　神田古書センタービル６Ｆ",
    "lat":35.695715,
    "lon":139.757236
  },
  {
    "id":1,
    "name":"千代田区立障害者福祉センター",
    "address":"千代田区神田駿河台２－５",
    "lat":35.700393,
    "lon":139.760836
  },
  {
    "id":2,
    "name":"特定非営利活動法人ホープ",
    "address":"千代田区富士見２－３－７　タカオカビル１０１",
    "lat":35.699613,
    "lon":139.745153
  },
  {
    "id":3,
    "name":"中央区障害者就労支援センター",
    "address":"中央区東日本橋２－２７－１２－５階",
    "lat":35.695484,
    "lon":139.785752
  },
  {
    "id":4,
    "name":"特定非営利活動法人エヌフィット",
    "address":"中央区日本橋人形町３－３－１０　日本橋ＴＥＣビル５階",
    "lat":35.68584,
    "lon":139.780832
  },
  {
    "id":5,
    "name":"中央区立福祉センター",
    "address":"中央区明石町１２－１",
    "lat":35.666506,
    "lon":139.777035
  },
  {
    "id":6,
    "name":"ポケット中央",
    "address":"中央区明石町１２－１　",
    "lat":35.666506,
    "lon":139.777035
  },
  {
    "id":7,
    "name":"中央区立知的障害者生活支援施設レインボーハウス明石",
    "address":"中央区明石町１－６",
    "lat":35.669292,
    "lon":139.776716
  },
  {
    "id":8,
    "name":"中央区立福祉センター特定相談支援事業所",
    "address":"中央区明石町１２－１",
    "lat":35.666506,
    "lon":139.777035
  },
  {
    "id":9,
    "name":"相談支援事業所ヒューマングロー東銀座",
    "address":"中央区築地４－１２－２　ライオンズマンション７０１号",
    "lat":35.66557,
    "lon":139.771222
  },
  {
    "id":10,
    "name":"新橋はつらつ太陽",
    "address":"港区新橋６－１９－２",
    "lat":35.661192,
    "lon":139.753738
  },
  {
    "id":11,
    "name":"コスモスケアステーション",
    "address":"港区新橋６－５－４　ＤＩＫマンション新橋８０３",
    "lat":35.662134,
    "lon":139.754418
  },
  {
    "id":12,
    "name":"ケアネスト",
    "address":"港区芝大門１－１１－９　ライオンズマンション芝公園６０１",
    "lat":35.658312,
    "lon":139.752779
  },
  {
    "id":13,
    "name":"訪問介護事業所エブリィ",
    "address":"港区三田２－１１－７－２０２",
    "lat":35.650176,
    "lon":139.744478
  },
  {
    "id":14,
    "name":"特定非営利活動法人　みなと障がい者福祉事業団",
    "address":"港区芝１－８－２３　港区立障害保健福祉センター内",
    "lat":35.651618,
    "lon":139.755574
  },
  {
    "id":15,
    "name":"港区立障害保健福祉センター　地域活動支援センター",
    "address":"港区芝１－８－２３",
    "lat":35.651618,
    "lon":139.755574
  },
  {
    "id":16,
    "name":"西麻布作業所",
    "address":"港区西麻布３－１９－１６",
    "lat":35.659619,
    "lon":139.725665
  },
  {
    "id":17,
    "name":"GIFTライフプランナー",
    "address":"港区麻布十番２－１３－２　アザブクマイビル３０２号室",
    "lat":35.655001,
    "lon":139.735225
  },
  {
    "id":18,
    "name":"ワークスＦ",
    "address":"港区南青山１－１７－１０　羽田マンション１０２",
    "lat":35.66826,
    "lon":139.725368
  },
  {
    "id":19,
    "name":"ハッピーテラスケアサポート芝浦",
    "address":"港区芝浦４－１２－３１　ＶＯＲＴ芝浦ＷａｔｅｒＦｒｏｎｔ１階",
    "lat":35.640017,
    "lon":139.749103
  },
  {
    "id":20,
    "name":"ケアコーディネーション",
    "address":"港区三田２－２－２７－４０４",
    "lat":35.649735,
    "lon":139.738578
  },
  {
    "id":21,
    "name":"有限会社すばる介護センター",
    "address":"港区高輪３－２－３　T３２３プレイスビル２階",
    "lat":35.635553,
    "lon":139.732682
  },
  {
    "id":22,
    "name":"港区立精神障害者地域活動支援センター",
    "address":"港区高輪１－４－８",
    "lat":35.642988,
    "lon":139.734898
  },
  {
    "id":23,
    "name":"麻布メンタルヘルス指定相談支援事業所",
    "address":"港区高輪１－４－８　中銀高輪マンシオン５０２",
    "lat":35.642988,
    "lon":139.734898
  },
  {
    "id":24,
    "name":"プロキオン",
    "address":"新宿区若葉１－４",
    "lat":35.686641,
    "lon":139.724125
  },
  {
    "id":25,
    "name":"高次脳機能障害相談支援ＶＩＶＩＤ",
    "address":"新宿区歌舞伎町２－１９－１３　ＡＳＫビル６０１",
    "lat":35.698089,
    "lon":139.704643
  },
  {
    "id":26,
    "name":"新宿区立子ども総合センター",
    "address":"新宿区新宿７－３－２９",
    "lat":35.701003,
    "lon":139.712681
  },
  {
    "id":27,
    "name":"ファロ",
    "address":"新宿区新宿１－１６－１６　ティアーカテリーナ３階",
    "lat":35.689452,
    "lon":139.710912
  },
  {
    "id":28,
    "name":"プラーナ新宿　相談支援",
    "address":"新宿区新宿２－１－１４　エレメンツ新宿ビル５０２",
    "lat":35.688613,
    "lon":139.70959
  },
  {
    "id":29,
    "name":"相談支援事業所　Ｋａｉｅｎ新宿　",
    "address":"新宿区西新宿６－２－３　新宿アイランドアネックス２０７",
    "lat":35.693615,
    "lon":139.69413
  },
  {
    "id":30,
    "name":"ホートンケアサービス",
    "address":"新宿区西新宿４－３２－１１　新宿セントラルビラ永谷４１５",
    "lat":35.687071,
    "lon":139.688862
  },
  {
    "id":31,
    "name":"新宿区基幹相談支援センター",
    "address":"新宿区歌舞伎町１－４－１　新宿区役所本庁舎２階障害者福祉課",
    "lat":35.69389,
    "lon":139.703463
  },
  {
    "id":32,
    "name":"新宿区立あゆみの家",
    "address":"新宿区西落合１－３０－１０",
    "lat":35.720736,
    "lon":139.678945
  },
  {
    "id":33,
    "name":"地域活動支援センター『風』",
    "address":"新宿区中落合４－２３－２５",
    "lat":35.717639,
    "lon":139.682994
  },
  {
    "id":34,
    "name":"みのり舎",
    "address":"新宿区中落合３－２８－１４　第２アビタシオン落合２０５号",
    "lat":35.722664,
    "lon":139.685469
  },
  {
    "id":35,
    "name":"新宿西共同作業所ラバンス",
    "address":"新宿区上落合３－３４－２６",
    "lat":35.711387,
    "lon":139.680453
  },
  {
    "id":36,
    "name":"新宿区立障害者福祉センター",
    "address":"新宿区戸山１－２２－２",
    "lat":35.703723,
    "lon":139.717434
  },
  {
    "id":37,
    "name":"東京視覚障害者生活支援センター",
    "address":"新宿区河田町１０－１０",
    "lat":35.698329,
    "lon":139.717512
  },
  {
    "id":38,
    "name":"あんそれいゆ",
    "address":"新宿区弁天町３２－６",
    "lat":35.704142,
    "lon":139.727269
  },
  {
    "id":39,
    "name":"特定相談支援事業所　どまーに",
    "address":"新宿区西早稲田２－１６－１",
    "lat":35.709536,
    "lon":139.712256
  },
  {
    "id":40,
    "name":"相談支援事業所　えくぼケア",
    "address":"新宿区大久保１－９－１７－３０１",
    "lat":35.701003,
    "lon":139.705051
  },
  {
    "id":41,
    "name":"新宿区立障害者生活支援センター",
    "address":"新宿区百人町４－４－２",
    "lat":35.709055,
    "lon":139.702007
  },
  {
    "id":42,
    "name":"地域活動支援センターまど",
    "address":"新宿区高田馬場１－１５－６",
    "lat":35.70996,
    "lon":139.706365
  },
  {
    "id":43,
    "name":"指定特定相談支援事業所　TOMO",
    "address":"新宿区高田馬場１－９－２３　東京都盲人福祉センター内",
    "lat":35.710091,
    "lon":139.709059
  },
  {
    "id":44,
    "name":"社会福祉支援研究所",
    "address":"新宿区高田馬場一丁目４－２１",
    "lat":35.711094,
    "lon":139.70957
  },
  {
    "id":45,
    "name":"日本点字図書館自立支援室",
    "address":"新宿区高田馬場１－２３－４",
    "lat":35.710894,
    "lon":139.704682
  },
  {
    "id":46,
    "name":"ふる里学舎小石川",
    "address":"文京区小石川３－３０－６",
    "lat":35.714089,
    "lon":139.74865
  },
  {
    "id":47,
    "name":"地域プラザ　ふらっと",
    "address":"文京区小日向２－１６－１５",
    "lat":35.710581,
    "lon":139.734582
  },
  {
    "id":48,
    "name":"文京地域生活支援センターあかり",
    "address":"文京区千石４－２７－１２　水間ビル１階",
    "lat":35.731392,
    "lon":139.738589
  },
  {
    "id":49,
    "name":"あくせす",
    "address":"文京区大塚４－２１－８",
    "lat":35.724701,
    "lon":139.733698
  },
  {
    "id":50,
    "name":"ふる里学舎大塚",
    "address":"文京区大塚４－５０－１",
    "lat":35.72469,
    "lon":139.730815
  },
  {
    "id":51,
    "name":"タオ",
    "address":"文京区白山１－３２－１１　鈴木ビル１０１",
    "lat":35.720049,
    "lon":139.752472
  },
  {
    "id":52,
    "name":"エナジーハウス",
    "address":"文京区千駄木５－１０－８",
    "lat":35.726424,
    "lon":139.757193
  },
  {
    "id":53,
    "name":"だんござかハウス　相談支援係",
    "address":"文京区千駄木２－３３－８",
    "lat":35.724461,
    "lon":139.763135
  },
  {
    "id":54,
    "name":"指定特定相談支援事業　ふくろう",
    "address":"文京区弥生２－９－６",
    "lat":35.714989,
    "lon":139.764124
  },
  {
    "id":55,
    "name":"サポートセンターいちょう",
    "address":"文京区本郷３－３７－１　中村ビル２階",
    "lat":35.706865,
    "lon":139.762241
  },
  {
    "id":56,
    "name":"ふる里学舎本郷",
    "address":"文京区本郷２－２１－７",
    "lat":35.704662,
    "lon":139.75911
  },
  {
    "id":57,
    "name":"相談支援事業所　リリーフ",
    "address":"文京区湯島３－２０－９－４０１",
    "lat":35.705651,
    "lon":139.767666
  },
  {
    "id":58,
    "name":"文京区児童発達支援センター",
    "address":"文京区湯島４－７－１０",
    "lat":35.708848,
    "lon":139.765768
  },
  {
    "id":59,
    "name":"ＣＯＭＰＡＳＳ　上野",
    "address":"台東区上野３－１６－３　上野鈴木ビル５Ｆ",
    "lat":35.705341,
    "lon":139.77231
  },
  {
    "id":60,
    "name":"特定非営利活動法人自立生活センターたいとう",
    "address":"台東区竜泉３－１９－７",
    "lat":35.725678,
    "lon":139.792452
  },
  {
    "id":61,
    "name":"つばさ相談支援センター",
    "address":"台東区台東１－２５－５　いきいきプラザ内",
    "lat":35.70188,
    "lon":139.77784
  },
  {
    "id":62,
    "name":"相談支援センター　ほおずき",
    "address":"台東区日本堤１－３２－３",
    "lat":35.725561,
    "lon":139.796676
  },
  {
    "id":63,
    "name":"障害者支援施設浅草ほうらい",
    "address":"台東区清川２－１４－７",
    "lat":35.72717,
    "lon":139.801304
  },
  {
    "id":64,
    "name":"相談支援センターアップル",
    "address":"台東区千束３－２０－２４",
    "lat":35.723372,
    "lon":139.792285
  },
  {
    "id":65,
    "name":"相談支援センターつなぐ",
    "address":"台東区浅草３－９－２　ランドール浅草１０２",
    "lat":35.717054,
    "lon":139.794491
  },
  {
    "id":66,
    "name":"特定非営利活動法人トータルサポートたいとう",
    "address":"台東区浅草５－１５－２",
    "lat":35.720598,
    "lon":139.795016
  },
  {
    "id":67,
    "name":"台東区松が谷福祉会館",
    "address":"台東区松が谷１－４－１２",
    "lat":35.711304,
    "lon":139.785425
  },
  {
    "id":68,
    "name":"台東区精神障害者地域生活支援センターあさがお",
    "address":"台東区蔵前３－１８－４　ライフコア蔵前２０１",
    "lat":35.705713,
    "lon":139.791123
  },
  {
    "id":69,
    "name":"かけはし",
    "address":"台東区浅草橋１－３２－６　コスモス浅草橋酒井ビル２階",
    "lat":35.698555,
    "lon":139.785482
  },
  {
    "id":70,
    "name":"ほしのき相談支援",
    "address":"墨田区業平５－１１－１０　岩楯ビル１０２",
    "lat":35.708097,
    "lon":139.816495
  },
  {
    "id":71,
    "name":"相談支援事業所ジョイサポート",
    "address":"墨田区横川５－１０－１　プリメール柳島１１８",
    "lat":35.705555,
    "lon":139.81642
  },
  {
    "id":72,
    "name":"ハーツ相談支援事業所",
    "address":"墨田区石原３－１－１",
    "lat":35.699117,
    "lon":139.802745
  },
  {
    "id":73,
    "name":"墨田区精神障害者地域生活支援センター友の家",
    "address":"墨田区太平１－１１－７　グランドステータスＫＩＹＡ４階",
    "lat":35.700869,
    "lon":139.81151
  },
  {
    "id":74,
    "name":"医療法人社団草思会　錦糸町相談支援センター",
    "address":"墨田区錦糸３－５－１　４階",
    "lat":35.698353,
    "lon":139.814213
  },
  {
    "id":75,
    "name":"らいふ十人会",
    "address":"墨田区緑４－５－１０",
    "lat":35.693184,
    "lon":139.806728
  },
  {
    "id":76,
    "name":"ラック鐘ヶ淵",
    "address":"墨田区墨田２－３６－１１－２０２号室",
    "lat":35.731001,
    "lon":139.818262
  },
  {
    "id":77,
    "name":"エリアサポートすみだ",
    "address":"墨田区向島３－３５－１３",
    "lat":35.712666,
    "lon":139.809953
  },
  {
    "id":78,
    "name":"すみだ福祉保健センター相談支援事業所",
    "address":"墨田区向島３－３６－７",
    "lat":35.713374,
    "lon":139.810759
  },
  {
    "id":79,
    "name":"とらいあんぐるサポートセンター",
    "address":"墨田区八広３－１－５　ライフスペース９０　１０１号",
    "lat":35.718944,
    "lon":139.825033
  },
  {
    "id":80,
    "name":"相談支援センターさんさん",
    "address":"墨田区立花４－３０－１６",
    "lat":35.710119,
    "lon":139.834365
  },
  {
    "id":81,
    "name":"ラック立花",
    "address":"墨田区立花１－２３　２号棟１０１号室サンタウン立花",
    "lat":35.706589,
    "lon":139.830724
  },
  {
    "id":82,
    "name":"本所相談支援事業所",
    "address":"墨田区文花３－１４－４",
    "lat":35.712011,
    "lon":139.825938
  },
  {
    "id":83,
    "name":"あしたば相談支援事業所",
    "address":"墨田区押上１－４３－３",
    "lat":35.709966,
    "lon":139.816536
  },
  {
    "id":84,
    "name":"ラックすみだ",
    "address":"墨田区京島１－４７－１７　２Ｆ",
    "lat":35.718336,
    "lon":139.821589
  },
  {
    "id":85,
    "name":"江東区第二あすなろ作業所",
    "address":"江東区毛利２－１－１４",
    "lat":35.69074,
    "lon":139.816566
  },
  {
    "id":86,
    "name":"地域活動支援センター　ウィル・オアシス",
    "address":"江東区住吉１－１７－２０　住吉ビル４階",
    "lat":35.689015,
    "lon":139.811814
  },
  {
    "id":87,
    "name":"あそかライフサービス株式会社",
    "address":"江東区住吉１－１６－１３　富士工第２ビル３階",
    "lat":35.689035,
    "lon":139.812897
  },
  {
    "id":88,
    "name":"グッドワン",
    "address":"江東区住吉１－１４－１１",
    "lat":35.688454,
    "lon":139.813466
  },
  {
    "id":89,
    "name":"乳幼児親子教室",
    "address":"江東区猿江１－１８－９－２０４",
    "lat":35.687024,
    "lon":139.811683
  },
  {
    "id":90,
    "name":"江東区こども発達扇橋センター",
    "address":"江東区扇橋３－７－２",
    "lat":35.682685,
    "lon":139.820443
  },
  {
    "id":91,
    "name":"江東区障害者福祉センター",
    "address":"江東区扇橋３－７－２",
    "lat":35.682685,
    "lon":139.820443
  },
  {
    "id":92,
    "name":"たんぽぽクラブ",
    "address":"江東区石島５－７　深川ビル１階２０１",
    "lat":35.680375,
    "lon":139.811966
  },
  {
    "id":93,
    "name":"江東区地域生活支援センター　ステップ",
    "address":"江東区東陽３－１６－１２　田中ビル２階",
    "lat":35.670159,
    "lon":139.812007
  },
  {
    "id":94,
    "name":"株式会社アンシンケアサービス",
    "address":"江東区東陽５－２６－１５",
    "lat":35.670867,
    "lon":139.814265
  },
  {
    "id":95,
    "name":"なかよし指定訪問介護事業所",
    "address":"江東区福住２－４－１",
    "lat":35.677755,
    "lon":139.79391
  },
  {
    "id":96,
    "name":"こぴあクラブ",
    "address":"江東区冬木６－２０",
    "lat":35.673386,
    "lon":139.801603
  },
  {
    "id":97,
    "name":"ライフアーク相談支援センター",
    "address":"江東区木場６－１０－６　ＴＫＹビル３階",
    "lat":35.668345,
    "lon":139.805822
  },
  {
    "id":98,
    "name":"江東区こども発達センター",
    "address":"江東区塩浜２－５－２０",
    "lat":35.661932,
    "lon":139.805383
  },
  {
    "id":99,
    "name":"江東区塩浜福祉園",
    "address":"江東区塩浜２－５－２０",
    "lat":35.661932,
    "lon":139.805383
  },
  {
    "id":100,
    "name":"あそかライフサービス　辰巳営業所",
    "address":"江東区辰巳１－２　９－１０３　辰己団地９号棟店舗",
    "lat":35.650092,
    "lon":139.808324
  },
  {
    "id":101,
    "name":"スマートキッズ江東相談支援センター",
    "address":"江東区亀戸１－３１－７　亀戸センタービル４Ｆ",
    "lat":35.694709,
    "lon":139.825678
  },
  {
    "id":102,
    "name":"江東区亀戸福祉園",
    "address":"江東区亀戸９－６－２９",
    "lat":35.696929,
    "lon":139.841951
  },
  {
    "id":103,
    "name":"カレッジケア",
    "address":"江東区亀戸６－３０－４－１１０７",
    "lat":35.696337,
    "lon":139.827986
  },
  {
    "id":104,
    "name":"地域活動支援センター　ロータス",
    "address":"江東区大島５－１０－１０－１０１",
    "lat":35.689313,
    "lon":139.834105
  },
  {
    "id":105,
    "name":"城東訪問介護",
    "address":"江東区大島３－１５－１３　",
    "lat":35.690743,
    "lon":139.828991
  },
  {
    "id":106,
    "name":"江東区東砂福祉園",
    "address":"江東区大島９－６－１２　東砂プラザ１階",
    "lat":35.692976,
    "lon":139.845487
  },
  {
    "id":107,
    "name":"さくら・介護ステーション大島",
    "address":"江東区大島７－１０－５",
    "lat":35.692238,
    "lon":139.838729
  },
  {
    "id":108,
    "name":"有限会社ケア･けんこう",
    "address":"江東区北砂６－１９－３",
    "lat":35.684927,
    "lon":139.838266
  },
  {
    "id":109,
    "name":"ゆめ相談支援事業所",
    "address":"江東区北砂１－１４－４－１階",
    "lat":35.6792,
    "lon":139.824128
  },
  {
    "id":110,
    "name":"ツクイ江東北砂",
    "address":"江東区北砂６－２１－４　紅ビル２０１",
    "lat":35.684333,
    "lon":139.837918
  },
  {
    "id":111,
    "name":"のびのび相談支援センター",
    "address":"江東区北砂７－９－１　太陽ベニヤビル１階",
    "lat":35.676256,
    "lon":139.835524
  },
  {
    "id":112,
    "name":"有限会社サン介護センター",
    "address":"江東区東砂１－６－５",
    "lat":35.681736,
    "lon":139.840793
  },
  {
    "id":113,
    "name":"江東区あすなろ作業所",
    "address":"江東区東砂３－３０－６　東砂福祉プラザ３階",
    "lat":35.681053,
    "lon":139.845296
  },
  {
    "id":114,
    "name":"江東ヘルパーステーション",
    "address":"江東区南砂２－３７－１０－４０７",
    "lat":35.670393,
    "lon":139.825453
  },
  {
    "id":115,
    "name":"楓の会ヘルパーセンター",
    "address":"江東区南砂１－６－９",
    "lat":35.680636,
    "lon":139.822409
  },
  {
    "id":116,
    "name":"相談支援センターきりん",
    "address":"江東区南砂５－４－２",
    "lat":35.676312,
    "lon":139.827917
  },
  {
    "id":117,
    "name":"福栄会障害者相談支援センター",
    "address":"品川区東品川３－１－８",
    "lat":35.617169,
    "lon":139.746909
  },
  {
    "id":118,
    "name":"相談支援事業所パルレ",
    "address":"品川区八潮５－９－１１　こみゅにてぃぷらざ八潮　協働推進室５号室",
    "lat":35.598211,
    "lon":139.752285
  },
  {
    "id":119,
    "name":"グロー障害者相談支援センター",
    "address":"品川区南品川５－１０－４３　楓ハイツ３階",
    "lat":35.609842,
    "lon":139.73961
  },
  {
    "id":120,
    "name":"ケアサークル恵愛障害者相談支援センター",
    "address":"品川区大井３－１７－８　大井本通りビル",
    "lat":35.602054,
    "lon":139.731203
  },
  {
    "id":121,
    "name":"ケアメイト品川居宅介護支援事業所",
    "address":"品川区西大井２－４－１４",
    "lat":35.59964,
    "lon":139.722503
  },
  {
    "id":122,
    "name":"株式会社ハート・トータルサービス",
    "address":"品川区東五反田４－８－７",
    "lat":35.62975,
    "lon":139.726963
  },
  {
    "id":123,
    "name":"品川区精神障害者地域生活支援センター",
    "address":"品川区西五反田２－２４－２",
    "lat":35.626012,
    "lon":139.7193
  },
  {
    "id":124,
    "name":"品川区障害者生活支援センター",
    "address":"品川区旗の台５－２－２",
    "lat":35.605003,
    "lon":139.700419
  },
  {
    "id":125,
    "name":"地域生活相談支援センターセサミ",
    "address":"目黒区中央町２－３２－５　スマイルプラザ中央町３階",
    "lat":35.631511,
    "lon":139.688775
  },
  {
    "id":126,
    "name":"目黒区児童発達支援センター　相談支援ひまわり",
    "address":"目黒区中央町２－２３－２４",
    "lat":35.630827,
    "lon":139.690941
  },
  {
    "id":127,
    "name":"特定相談支援事業所　ＳＵＮ",
    "address":"目黒区中央町２－３０－１１　学芸大ＫＹハイツ１０３",
    "lat":35.631863,
    "lon":139.688497
  },
  {
    "id":128,
    "name":"いきいき福祉相談支援センター",
    "address":"目黒区碑文谷５－１２－１　ＴＳ碑文谷ビル３階",
    "lat":35.624039,
    "lon":139.682773
  },
  {
    "id":129,
    "name":"アトリエそうだん",
    "address":"目黒区碑文谷１－１１－１５",
    "lat":35.621315,
    "lon":139.691005
  },
  {
    "id":130,
    "name":"福祉相談事務所　エール",
    "address":"目黒区鷹番２－２０－１３　ＲＳ牛山２０３",
    "lat":35.6294,
    "lon":139.686203
  },
  {
    "id":131,
    "name":"目黒区心身障害者センターあいアイ館",
    "address":"目黒区八雲１－１－８",
    "lat":35.620535,
    "lon":139.673353
  },
  {
    "id":132,
    "name":"目黒障害者相談センター",
    "address":"目黒区中根１－３－９　森戸ビル３０２",
    "lat":35.617406,
    "lon":139.675707
  },
  {
    "id":133,
    "name":"ナイスケア目黒相談支援センター",
    "address":"目黒区大岡山１－５－１５　ＮＣビル２Ｆ",
    "lat":35.610685,
    "lon":139.68442
  },
  {
    "id":134,
    "name":"LITALICO相談支援センター中目黒",
    "address":"目黒区上目黒２－１－１　中目黒ＧＴタワー１５Ｆ",
    "lat":35.643601,
    "lon":139.699076
  },
  {
    "id":135,
    "name":"たんぽぽの会　相談支援",
    "address":"目黒区五本木３－３２－８　小佐井ビル１０４",
    "lat":35.629744,
    "lon":139.681284
  },
  {
    "id":136,
    "name":"ふれんず",
    "address":"目黒区中目黒５－２８－２１　ＳＶ祐天寺ビル３階",
    "lat":35.636071,
    "lon":139.694391
  },
  {
    "id":137,
    "name":"成年後見・相談支援センターハッピーブリッジ",
    "address":"目黒区下目黒２－１９－８　ニュー目黒フラワーマンション３０７",
    "lat":35.632497,
    "lon":139.710512
  },
  {
    "id":138,
    "name":"大田地域生活相談室",
    "address":"大田区大森西３－３－９",
    "lat":35.574954,
    "lon":139.730637
  },
  {
    "id":139,
    "name":"相談支援事業所ここん",
    "address":"大田区大森北５－１６－１－１３１０",
    "lat":35.580817,
    "lon":139.724043
  },
  {
    "id":140,
    "name":"相談支援　山王ケアサポート中央",
    "address":"大田区中央１－２１－５　フタバビル２０１",
    "lat":35.579814,
    "lon":139.71981
  },
  {
    "id":141,
    "name":"大田区立障がい者総合サポートセンター相談支援事業所",
    "address":"大田区中央４－３０－１１",
    "lat":35.579492,
    "lon":139.718238
  },
  {
    "id":142,
    "name":"ＮＰＯ法人結ぶ会",
    "address":"大田区中央５－８－１４",
    "lat":35.581322,
    "lon":139.7081
  },
  {
    "id":143,
    "name":"あいりすキッズ",
    "address":"大田区西馬込１－３２－１５　共信ビル３０３",
    "lat":35.589785,
    "lon":139.70333
  },
  {
    "id":144,
    "name":"おおた相談支援センター",
    "address":"大田区東蒲田２－１－１３",
    "lat":35.563,
    "lon":139.72633
  },
  {
    "id":145,
    "name":"こうじや生活支援センター",
    "address":"大田区東糀谷１－１４－１４",
    "lat":35.557991,
    "lon":139.739002
  },
  {
    "id":146,
    "name":"障害者相談支援事業所うめのき",
    "address":"大田区東糀谷５－１７－１４－１０１",
    "lat":35.557583,
    "lon":139.744579
  },
  {
    "id":147,
    "name":"相談支援室さんさん幸陽",
    "address":"大田区西糀谷２－３１－２　大田幸陽会ラナハウス西糀谷１０１",
    "lat":35.557432,
    "lon":139.733624
  },
  {
    "id":148,
    "name":"ケア・シーンプランニングセンター",
    "address":"大田区南蒲田３－１－５",
    "lat":35.55549,
    "lon":139.726905
  },
  {
    "id":149,
    "name":"糀谷作業所",
    "address":"大田区本羽田１－１８－２１　日興ビル２０１号室",
    "lat":35.547208,
    "lon":139.727048
  },
  {
    "id":150,
    "name":"障害者相談支援事業所くすのき",
    "address":"大田区南六郷３－２３－９",
    "lat":35.541378,
    "lon":139.714571
  },
  {
    "id":151,
    "name":"障害者相談支援事業所　南六郷",
    "address":"大田区南六郷３－２３－８",
    "lat":35.54182,
    "lon":139.714382
  },
  {
    "id":152,
    "name":"指定障害者相談支援事業所　大田",
    "address":"大田区萩中２－１０－１１",
    "lat":35.550777,
    "lon":139.730525
  },
  {
    "id":153,
    "name":"ビーマイセルフはぎなか",
    "address":"大田区萩中２－１２－２３",
    "lat":35.550575,
    "lon":139.732391
  },
  {
    "id":154,
    "name":"かまた生活支援センター",
    "address":"大田区西蒲田４－４－１",
    "lat":35.56971,
    "lon":139.716764
  },
  {
    "id":155,
    "name":"ＥＮＴＡＳ",
    "address":"大田区西蒲田４－４－１－２階",
    "lat":35.56971,
    "lon":139.716764
  },
  {
    "id":156,
    "name":"ケア２１　大田",
    "address":"大田区蒲田４－４１－１　大熊ビル１階",
    "lat":35.559786,
    "lon":139.719042
  },
  {
    "id":157,
    "name":"ＴＯＭＯソーシャルサポートネット",
    "address":"大田区蒲田１－２４－１７",
    "lat":35.564664,
    "lon":139.719511
  },
  {
    "id":158,
    "name":"相談支援事業所　でらいとさぽーと",
    "address":"大田区蒲田５－３０－１５　第２０下川ビル",
    "lat":35.561878,
    "lon":139.719622
  },
  {
    "id":159,
    "name":"障がい者相談支援事業所　らっこ",
    "address":"大田区蒲田本町２－１２－１　松井ビル１階",
    "lat":35.556498,
    "lon":139.719506
  },
  {
    "id":160,
    "name":"大田区立志茂田福祉センター",
    "address":"大田区西六郷１－４－２７",
    "lat":35.55599,
    "lon":139.711135
  },
  {
    "id":161,
    "name":"大田区立上池台障害者福祉会館　",
    "address":"大田区上池台５－５－１",
    "lat":35.59557,
    "lon":139.701558
  },
  {
    "id":162,
    "name":"リトルコールケア相談支援事業所",
    "address":"大田区南雪谷４－７－１３　１０１号室",
    "lat":35.588807,
    "lon":139.682022
  },
  {
    "id":163,
    "name":"麻布メンタルヘルス指定相談支援事業所大田支局",
    "address":"大田区池上６－１０－１１　遠藤ビル２０２",
    "lat":35.571371,
    "lon":139.703498
  },
  {
    "id":164,
    "name":"あかしろきいろ子ども発達相談るーむ",
    "address":"大田区池上４－３０－９－３０１",
    "lat":35.573232,
    "lon":139.705203
  },
  {
    "id":165,
    "name":"With",
    "address":"大田区池上３－４－１１　ケインズスクエア池上１０２",
    "lat":35.575601,
    "lon":139.699618
  },
  {
    "id":166,
    "name":"大田区立こども発達センターわかばの家　相談支援事業所",
    "address":"大田区千鳥３－７－５",
    "lat":35.573002,
    "lon":139.690366
  },
  {
    "id":167,
    "name":"ケアプランさんさん",
    "address":"大田区千鳥２－１２－１５－Ｃ",
    "lat":35.569599,
    "lon":139.695819
  },
  {
    "id":168,
    "name":"障害者相談支援事業所久が原",
    "address":"大田区久が原１－２－５",
    "lat":35.587413,
    "lon":139.692965
  },
  {
    "id":169,
    "name":"サポートネット久が原",
    "address":"大田区久が原３－３２－１２",
    "lat":35.580995,
    "lon":139.688894
  },
  {
    "id":170,
    "name":"特定相談支援事業所　ワークスタッフ鵜の木",
    "address":"大田区鵜の木２－１７－３　ライオンズマンション鵜の木１階",
    "lat":35.576165,
    "lon":139.679562
  },
  {
    "id":171,
    "name":"特定相談支援事業所　いずみえん",
    "address":"大田区矢口３－１－５",
    "lat":35.561142,
    "lon":139.696103
  },
  {
    "id":172,
    "name":"相談をめぐる冒険",
    "address":"大田区東矢口３－３１－８",
    "lat":35.560553,
    "lon":139.70864
  },
  {
    "id":173,
    "name":"森の実相談室",
    "address":"大田区東矢口１－１７－１１　蓮沼ビル１階",
    "lat":35.564475,
    "lon":139.707068
  },
  {
    "id":174,
    "name":"ケアセンターふらっと",
    "address":"世田谷区下馬２－２０－１４",
    "lat":35.64064,
    "lon":139.675406
  },
  {
    "id":175,
    "name":"相談支援事業所　わいわい",
    "address":"世田谷区下馬２－３１－３４－１０１",
    "lat":35.642948,
    "lon":139.678709
  },
  {
    "id":176,
    "name":"相談室なびお",
    "address":"世田谷区野沢４－２２－６　ニューコーポラス１０２号",
    "lat":35.633768,
    "lon":139.665024
  },
  {
    "id":177,
    "name":"重症心身障害児療育相談センター",
    "address":"世田谷区三宿２－３０－９",
    "lat":35.650927,
    "lon":139.672903
  },
  {
    "id":178,
    "name":"相談支援センター架け橋",
    "address":"世田谷区駒沢５－１５－１５　駒沢パークサイドマンション４０１",
    "lat":35.622558,
    "lon":139.654778
  },
  {
    "id":179,
    "name":"ナイスケア世田谷相談支援センター",
    "address":"世田谷区駒沢２－８－６　ゆうコート駒沢１０１",
    "lat":35.633526,
    "lon":139.659147
  },
  {
    "id":180,
    "name":"桜新町総合支援サービス",
    "address":"世田谷区新町２－７－２　富岡ビル３Ｆ",
    "lat":35.629371,
    "lon":139.650148
  },
  {
    "id":181,
    "name":"自立生活センターハンズ世田谷",
    "address":"世田谷区豪徳寺１－３２－２１　スマイルホーム豪徳寺１階",
    "lat":35.652896,
    "lon":139.649664
  },
  {
    "id":182,
    "name":"相談支援センター　かりんとう",
    "address":"世田谷区豪徳寺１－４１－６",
    "lat":35.655032,
    "lon":139.648102
  },
  {
    "id":183,
    "name":"コンシェルジュ藍",
    "address":"世田谷区若林５－２５－１６",
    "lat":35.649291,
    "lon":139.65583
  },
  {
    "id":184,
    "name":"相談支援センターわんぱく",
    "address":"世田谷区若林２－３９－２－２階",
    "lat":35.650369,
    "lon":139.662001
  },
  {
    "id":185,
    "name":"ソレイユ相談支援センター",
    "address":"世田谷区若林３－１７－１２",
    "lat":35.643703,
    "lon":139.655588
  },
  {
    "id":186,
    "name":"シモキタステーション",
    "address":"世田谷区代沢２－２８－８－１ＦＡ",
    "lat":35.658276,
    "lon":139.668381
  },
  {
    "id":187,
    "name":"team　shien　m.a",
    "address":"世田谷区羽根木１－１３－９",
    "lat":35.666772,
    "lon":139.659554
  },
  {
    "id":188,
    "name":"地域生活支援センターＭＯＴＡ",
    "address":"世田谷区松原３－４０－７　パインフィールドビル２０１",
    "lat":35.667375,
    "lon":139.642533
  },
  {
    "id":189,
    "name":"まつばらけやき相談支援センター",
    "address":"世田谷区松原６－４３－１７　松原けやき寮内",
    "lat":35.656198,
    "lon":139.649311
  },
  {
    "id":190,
    "name":"総合福祉センター相談支援事業所",
    "address":"世田谷区松原６－４１－７",
    "lat":35.656426,
    "lon":139.649747
  },
  {
    "id":191,
    "name":"おおきなき明大前",
    "address":"世田谷区松原２－３８－９　明大前グランドハイツ１階",
    "lat":35.668519,
    "lon":139.647924
  },
  {
    "id":192,
    "name":"相棒相談支援センター",
    "address":"世田谷区松原１－３４－１９－３０６",
    "lat":35.666836,
    "lon":139.651307
  },
  {
    "id":193,
    "name":"東京総合福祉",
    "address":"世田谷区桜上水１－１－３－１０４",
    "lat":35.657842,
    "lon":139.633979
  },
  {
    "id":194,
    "name":"子どもの生活研究所",
    "address":"世田谷区船橋１－３０－９",
    "lat":35.648043,
    "lon":139.620908
  },
  {
    "id":195,
    "name":"マーベラス",
    "address":"世田谷区上北沢３－１７－７　ハイムオリオン１０２号室",
    "lat":35.66841,
    "lon":139.625148
  },
  {
    "id":196,
    "name":"相談支援　ここから",
    "address":"世田谷区北烏山３－１１－５",
    "lat":35.673914,
    "lon":139.60245
  },
  {
    "id":197,
    "name":"相談支援センターちぐさ",
    "address":"世田谷区北烏山１－８－２　ＮＴＫビル２階　ちぐさ企画内",
    "lat":35.673367,
    "lon":139.606936
  },
  {
    "id":198,
    "name":"相談室にじのこ",
    "address":"世田谷区南烏山６－３－９　ミールスズキ６０３",
    "lat":35.669459,
    "lon":139.599998
  },
  {
    "id":199,
    "name":"オレンジケア相談室",
    "address":"世田谷区上祖師谷１丁目４１番２８号１０２",
    "lat":35.666798,
    "lon":139.598373
  },
  {
    "id":200,
    "name":"相談支援ルーム　きたみ",
    "address":"世田谷区喜多見８－１５－３５　Ｋ．田中ビル３０７",
    "lat":35.635358,
    "lon":139.589372
  },
  {
    "id":201,
    "name":"オリーブ・ケア千歳台",
    "address":"世田谷区千歳台３－２８－４－１０１",
    "lat":35.65282,
    "lon":139.613172
  },
  {
    "id":202,
    "name":"サポートセンターきぬた",
    "address":"世田谷区祖師谷３－３６－２６　祖師谷セントラルプラザ３階",
    "lat":35.645637,
    "lon":139.608434
  },
  {
    "id":203,
    "name":"相談支援センターあい",
    "address":"世田谷区祖師谷３－２１－１",
    "lat":35.642849,
    "lon":139.604615
  },
  {
    "id":204,
    "name":"世田谷区発達障害相談・療育センター相談支援事業所",
    "address":"世田谷区大蔵２－１０－１８",
    "lat":35.634633,
    "lon":139.612803
  },
  {
    "id":205,
    "name":"相談支援センターおかもと",
    "address":"世田谷区岡本２－３３－２４",
    "lat":35.623635,
    "lon":139.617132
  },
  {
    "id":206,
    "name":"エムツー・サポート指定特定相談支援事業所",
    "address":"世田谷区深沢１－４１－１１－２階",
    "lat":35.6186,
    "lon":139.660203
  },
  {
    "id":207,
    "name":"はるの相談室",
    "address":"世田谷区等々力２－３６－２　エクセル等々力２０１号室",
    "lat":35.605435,
    "lon":139.647107
  },
  {
    "id":208,
    "name":"相談支援事業所青い鳥",
    "address":"世田谷区奥沢７－１２－２５－２階",
    "lat":35.607318,
    "lon":139.664042
  },
  {
    "id":209,
    "name":"プリズム",
    "address":"世田谷区中町２－２１－１２",
    "lat":35.61382,
    "lon":139.644685
  },
  {
    "id":210,
    "name":"なかまっち相談室",
    "address":"世田谷区中町２－１７－２１",
    "lat":35.611081,
    "lon":139.644763
  },
  {
    "id":211,
    "name":"相談支援センター　フォルテ",
    "address":"世田谷区玉川１－７－２",
    "lat":35.610121,
    "lon":139.628015
  },
  {
    "id":212,
    "name":"相談支援　ツナカン",
    "address":"世田谷区瀬田１－７－１３",
    "lat":35.615014,
    "lon":139.631506
  },
  {
    "id":213,
    "name":"発達障害者就労支援センターゆに（ＵＮＩ）相談支援事業所",
    "address":"世田谷区上用賀５－１４－１－１０２",
    "lat":35.630337,
    "lon":139.626089
  },
  {
    "id":214,
    "name":"はぁとぴあ相談ステーション",
    "address":"渋谷区神宮前３－１８－３７",
    "lat":35.671407,
    "lon":139.709527
  },
  {
    "id":215,
    "name":"渋谷区子ども発達相談センター",
    "address":"渋谷区神宮前３－１８－３３",
    "lat":35.670937,
    "lon":139.709272
  },
  {
    "id":216,
    "name":"宮代学園相談支援センター",
    "address":"渋谷区広尾４－２－１２",
    "lat":35.655159,
    "lon":139.722279
  },
  {
    "id":217,
    "name":"パールケア",
    "address":"渋谷区鉢山町３－２７　社会福祉法人パール福祉総合プラザ内",
    "lat":35.652756,
    "lon":139.698709
  },
  {
    "id":218,
    "name":"渋谷区障害者福祉センター代々木の杜",
    "address":"渋谷区代々木２－３５－１",
    "lat":35.684158,
    "lon":139.697725
  },
  {
    "id":219,
    "name":"渋谷区精神障害者地域生活支援センター",
    "address":"渋谷区代々木１－２０－８",
    "lat":35.680225,
    "lon":139.702561
  },
  {
    "id":220,
    "name":"障がい者相談支援センター樹音",
    "address":"渋谷区代々木１－３８－８－４７",
    "lat":35.682833,
    "lon":139.701116
  },
  {
    "id":221,
    "name":"障害児相談支援事業所さち",
    "address":"渋谷区本町２－５－１１　三山ビル２階",
    "lat":35.684004,
    "lon":139.683515
  },
  {
    "id":222,
    "name":"地域活動支援センターふれあい",
    "address":"渋谷区笹塚３－４３－１",
    "lat":35.679691,
    "lon":139.669514
  },
  {
    "id":223,
    "name":"東京総合福祉",
    "address":"渋谷区笹塚１－６１－８－８２３",
    "lat":35.673033,
    "lon":139.663545
  },
  {
    "id":224,
    "name":"もみじやま障害者計画相談室",
    "address":"中野区中野５－３－３２",
    "lat":35.708118,
    "lon":139.672271
  },
  {
    "id":225,
    "name":"中野区精神障害者地域生活支援センター　通称「せせらぎ」",
    "address":"中野区中野５－６８－７　中野区社会福祉会館６階",
    "lat":35.709262,
    "lon":139.665196
  },
  {
    "id":226,
    "name":"相談支援センターあいいく",
    "address":"中野区中野１－６－１２",
    "lat":35.693609,
    "lon":139.682509
  },
  {
    "id":227,
    "name":"ラナイ相談支援事業所",
    "address":"中野区上高田５－４７－１１－１０１",
    "lat":35.718139,
    "lon":139.673153
  },
  {
    "id":228,
    "name":"ことり",
    "address":"中野区東中野４－２－２　篠木ビル３階",
    "lat":35.706541,
    "lon":139.685581
  },
  {
    "id":229,
    "name":"社会福祉法人中野あいいく会　中部すこやか障害者相談支援事業所",
    "address":"中野区中央３－１９－１",
    "lat":35.7004,
    "lon":139.674176
  },
  {
    "id":230,
    "name":"指定特定相談支援事業所メノウ中野",
    "address":"中野区中央３－１３－１０　ジョイ林４０１号室",
    "lat":35.702055,
    "lon":139.673576
  },
  {
    "id":231,
    "name":"ふらっとなかの",
    "address":"中野区本町５－４０－１４",
    "lat":35.691709,
    "lon":139.668269
  },
  {
    "id":232,
    "name":"相談支援事業所あいだっく",
    "address":"中野区本町３－１９－１１　ライフピアハラ１階",
    "lat":35.69537,
    "lon":139.674302
  },
  {
    "id":233,
    "name":"弥生福祉作業所障害者相談支援事業所",
    "address":"中野区弥生町４－３６－１５",
    "lat":35.689801,
    "lon":139.67091
  },
  {
    "id":234,
    "name":"南部すこやか障害者相談支援事業所",
    "address":"中野区弥生町５－１１－２６",
    "lat":35.688192,
    "lon":139.668377
  },
  {
    "id":235,
    "name":"中野区療育センターゆめなりあ",
    "address":"中野区弥生町５－５－２",
    "lat":35.686165,
    "lon":139.666333
  },
  {
    "id":236,
    "name":"障害者支援施設江古田の森相談支援事業所",
    "address":"中野区江古田３－１４－１９",
    "lat":35.729629,
    "lon":139.665368
  },
  {
    "id":237,
    "name":"北部すこやか障害者相談支援事業所",
    "address":"中野区江古田４－３１－１０",
    "lat":35.724616,
    "lon":139.661418
  },
  {
    "id":238,
    "name":"障害者福祉会館障害者相談支援事業所",
    "address":"中野区沼袋２－４０－１８",
    "lat":35.723597,
    "lon":139.66304
  },
  {
    "id":239,
    "name":"障害者相談支援事業所　わ・らいふ",
    "address":"中野区新井２－８－１３",
    "lat":35.712234,
    "lon":139.664832
  },
  {
    "id":240,
    "name":"まっしろキャンバス",
    "address":"中野区野方５－２８－１　エクセルシオール野方１－１０２",
    "lat":35.719461,
    "lon":139.653441
  },
  {
    "id":241,
    "name":"かみさぎこぶし園障害者相談支援事業所",
    "address":"中野区上鷺宮１－２１－３０",
    "lat":35.729942,
    "lon":139.636028
  },
  {
    "id":242,
    "name":"中野障害者計画相談支援室",
    "address":"中野区鷺宮３－１８－５",
    "lat":35.723085,
    "lon":139.638806
  },
  {
    "id":243,
    "name":"鷺宮すこやか障害者相談支援事業所",
    "address":"中野区若宮３－５８－１０",
    "lat":35.722082,
    "lon":139.640337
  },
  {
    "id":244,
    "name":"ひゅーまん地域生活相談室",
    "address":"杉並区阿佐谷北１－３６－３　ＹＯＫＯＫＡＷＡビル３階",
    "lat":35.708706,
    "lon":139.635974
  },
  {
    "id":245,
    "name":"相談支援事業所　なでしこ",
    "address":"杉並区高円寺北１－２８－１",
    "lat":35.709012,
    "lon":139.657789
  },
  {
    "id":246,
    "name":"発達支援ルーム　にこっと",
    "address":"杉並区高円寺北３－４０－１３　ＢＩＧ　ＶＡＬＬＥＹ２階",
    "lat":35.710514,
    "lon":139.64657
  },
  {
    "id":247,
    "name":"ＮＰＯ法人　すぎなみ障害者生活支援コーディネイトセンター",
    "address":"杉並区高円寺南４－２７－４　高円寺ホワイトレジデンス２０２号",
    "lat":35.704132,
    "lon":139.649826
  },
  {
    "id":248,
    "name":"相談支援事業所　ＨＵＧ　はぐ",
    "address":"杉並区高円寺南４－４５－４　高円寺南サマリアマンション７０４",
    "lat":35.704921,
    "lon":139.650475
  },
  {
    "id":249,
    "name":"朝焼け相談支援事業所",
    "address":"杉並区高円寺南２－３７－１４　メゾン高円寺２０１",
    "lat":35.701307,
    "lon":139.654417
  },
  {
    "id":250,
    "name":"相談支援事業所　リリーフ",
    "address":"杉並区阿佐谷南３－３７－１３　大同ビル４０３",
    "lat":35.704573,
    "lon":139.635649
  },
  {
    "id":251,
    "name":"杉並区児童発達相談係",
    "address":"杉並区阿佐谷南１－１４－８",
    "lat":35.699774,
    "lon":139.63711
  },
  {
    "id":252,
    "name":"キラキラステーション",
    "address":"杉並区阿佐谷南２－１２－２　第２丸伊荘１１号",
    "lat":35.703568,
    "lon":139.638999
  },
  {
    "id":253,
    "name":"かたつむり相談室",
    "address":"杉並区和田１－５－１８　アテナビル２階",
    "lat":35.68902,
    "lon":139.663214
  },
  {
    "id":254,
    "name":"ケア２１　堀之内",
    "address":"杉並区堀ノ内２－２７－１２　パレドール方南町１０３号室",
    "lat":35.690075,
    "lon":139.654581
  },
  {
    "id":255,
    "name":"障害者ケアマネジメント友愛",
    "address":"杉並区松ノ木３－１６－１２",
    "lat":35.694372,
    "lon":139.645771
  },
  {
    "id":256,
    "name":"相談支援事業所　ゆい企画",
    "address":"杉並区成田東５－１５－２１　成宗マンション１階",
    "lat":35.702087,
    "lon":139.628827
  },
  {
    "id":257,
    "name":"ヘルプメイト井草相談支援部",
    "address":"杉並区井草３－２－４",
    "lat":35.724876,
    "lon":139.613914
  },
  {
    "id":258,
    "name":"八成相談支援事業所",
    "address":"杉並区井草２－２５－４",
    "lat":35.72855,
    "lon":139.619555
  },
  {
    "id":259,
    "name":"ユトリロ",
    "address":"杉並区下井草１－１０－５",
    "lat":35.71616,
    "lon":139.632971
  },
  {
    "id":260,
    "name":"いたる相談室",
    "address":"杉並区天沼１－１５－１８",
    "lat":35.707697,
    "lon":139.630027
  },
  {
    "id":261,
    "name":"株式会社よりみち",
    "address":"杉並区天沼３－２９－１４",
    "lat":35.706375,
    "lon":139.620411
  },
  {
    "id":262,
    "name":"あおばケアセンター",
    "address":"杉並区天沼３－２６－２５",
    "lat":35.707855,
    "lon":139.620847
  },
  {
    "id":263,
    "name":"地域福祉研究所",
    "address":"杉並区天沼１－２８－１１",
    "lat":35.708322,
    "lon":139.629508
  },
  {
    "id":264,
    "name":"しゃろーむ杉並",
    "address":"杉並区天沼２－４－１　井上ビル２０３",
    "lat":35.705323,
    "lon":139.623386
  },
  {
    "id":265,
    "name":"相談支援　ＯＫプラネット",
    "address":"杉並区桃井２－１－６　シャトレ・オギ１－Ｃ号",
    "lat":35.710622,
    "lon":139.610631
  },
  {
    "id":266,
    "name":"杉並障害者自立生活支援センターすだち",
    "address":"杉並区今川２－１４－１２",
    "lat":35.718062,
    "lon":139.609034
  },
  {
    "id":267,
    "name":"福は家相談室",
    "address":"杉並区善福寺４－１７－６　１階",
    "lat":35.719906,
    "lon":139.590874
  },
  {
    "id":268,
    "name":"相談支援事業所うぃる",
    "address":"杉並区西荻北２－２－１６　オーシャンアート２０２",
    "lat":35.704055,
    "lon":139.602735
  },
  {
    "id":269,
    "name":"青い鳥合同会社",
    "address":"杉並区荻窪４－２４－１８　荻窪家族レジデンス１０２",
    "lat":35.702062,
    "lon":139.624381
  },
  {
    "id":270,
    "name":"ケアセンターこもれび",
    "address":"杉並区荻窪１－３２－３",
    "lat":35.693654,
    "lon":139.618531
  },
  {
    "id":271,
    "name":"スギコーケアセンター荻窪",
    "address":"杉並区荻窪４－６－１６",
    "lat":35.699406,
    "lon":139.617551
  },
  {
    "id":272,
    "name":"相談支援事業所　木の実",
    "address":"杉並区南荻窪１－５－１１　１階",
    "lat":35.694962,
    "lon":139.617259
  },
  {
    "id":273,
    "name":"済美福祉相談室",
    "address":"杉並区松庵２－２２－２２",
    "lat":35.698328,
    "lon":139.592772
  },
  {
    "id":274,
    "name":"相談支援事業所かすみ草",
    "address":"杉並区和泉３－２２－１５　グランヴェール和泉１０１",
    "lat":35.677813,
    "lon":139.647741
  },
  {
    "id":275,
    "name":"永福南社会福祉ガーデン　相談支援事業所",
    "address":"杉並区永福１－７－６",
    "lat":35.669383,
    "lon":139.642103
  },
  {
    "id":276,
    "name":"やどり木",
    "address":"杉並区永福１－２７－３１",
    "lat":35.67226,
    "lon":139.644652
  },
  {
    "id":277,
    "name":"あおいサポートステーション",
    "address":"杉並区浜田山３－２５－１６　エスカイア浜田山１０２",
    "lat":35.682073,
    "lon":139.629234
  },
  {
    "id":278,
    "name":"杉並区立こども発達センター",
    "address":"杉並区高井戸東１－１８－５",
    "lat":35.682622,
    "lon":139.619729
  },
  {
    "id":279,
    "name":"スギコーケアセンター",
    "address":"杉並区高井戸東３－１８－７　杉交第２ビル",
    "lat":35.685597,
    "lon":139.621595
  },
  {
    "id":280,
    "name":"ホープ相談支援センター",
    "address":"杉並区久我山５－３６－１７",
    "lat":35.690557,
    "lon":139.60228
  },
  {
    "id":281,
    "name":"豊島区立駒込福祉作業所　相談支援事業所　あとりえ",
    "address":"豊島区駒込４－７－１",
    "lat":35.734978,
    "lon":139.742364
  },
  {
    "id":282,
    "name":"豊島区立駒込生活実習所　相談支援事業所　ぎゃらりー",
    "address":"豊島区駒込４－７－１",
    "lat":35.734978,
    "lon":139.742364
  },
  {
    "id":283,
    "name":"豊島区東部障害支援センター特定相談支援事業所",
    "address":"豊島区南大塚２－３６－２",
    "lat":35.729037,
    "lon":139.730329
  },
  {
    "id":284,
    "name":"地域生活支援センターこかげ",
    "address":"豊島区東池袋４－５－1　エアライズタワー１０３",
    "lat":35.726467,
    "lon":139.718982
  },
  {
    "id":285,
    "name":"Ｌｉｎｋ福祉相談局",
    "address":"豊島区東池袋１－２５－１７　ウエストビル７階",
    "lat":35.728078,
    "lon":139.716233
  },
  {
    "id":286,
    "name":"障害児相談支援事業所・アニマートとしま",
    "address":"豊島区東池袋２－２２－４　市川ビル１０１",
    "lat":35.731095,
    "lon":139.722279
  },
  {
    "id":287,
    "name":"いけぶくろ茜の里相談支援室",
    "address":"豊島区池袋４－１５－１０",
    "lat":35.739802,
    "lon":139.707719
  },
  {
    "id":288,
    "name":"イルカ相談支援事業所",
    "address":"豊島区池袋２－３５－５　ウチダビル２階",
    "lat":35.733447,
    "lon":139.706586
  },
  {
    "id":289,
    "name":"さくらんぼ特定相談支援事業所",
    "address":"豊島区西池袋３－８－２０",
    "lat":35.727714,
    "lon":139.703475
  },
  {
    "id":290,
    "name":"豊島区立目白福祉作業所　相談支援事業所　ひだまり",
    "address":"豊島区目白５－２４－１２",
    "lat":35.725328,
    "lon":139.696882
  },
  {
    "id":291,
    "name":"豊島区立心身障害者福祉センター",
    "address":"豊島区目白５－２４－１２",
    "lat":35.725328,
    "lon":139.696882
  },
  {
    "id":292,
    "name":"豊島区立目白生活実習所　相談支援事業所　にじ",
    "address":"豊島区目白５－２４－１２",
    "lat":35.725328,
    "lon":139.696882
  },
  {
    "id":293,
    "name":"相談支援センターさくら",
    "address":"豊島区要町１－２８－２０",
    "lat":35.735138,
    "lon":139.697259
  },
  {
    "id":294,
    "name":"豊島区西部障害支援センター特定相談支援事業所",
    "address":"豊島区要町１－５－１",
    "lat":35.733096,
    "lon":139.695873
  },
  {
    "id":295,
    "name":"豊島区立西部子ども家庭支援センター",
    "address":"豊島区千早４－６－１４",
    "lat":35.737684,
    "lon":139.682466
  },
  {
    "id":296,
    "name":"生活サポートセンター・こっとん",
    "address":"豊島区長崎２－１５－１６　１階",
    "lat":35.728783,
    "lon":139.693196
  },
  {
    "id":297,
    "name":"あおぞら相談支援センター",
    "address":"豊島区南長崎５－１６－８　平和ビル３０２号室",
    "lat":35.728649,
    "lon":139.682797
  },
  {
    "id":298,
    "name":"相談支援事業　ゆきわりそう",
    "address":"豊島区南長崎６－１９－５　ゆきわりそう１階",
    "lat":35.72976,
    "lon":139.680286
  },
  {
    "id":299,
    "name":"相談支援事業所　ガーデニング",
    "address":"豊島区南長崎５－２６－１３　２階",
    "lat":35.72901,
    "lon":139.682619
  },
  {
    "id":300,
    "name":"フロイデ",
    "address":"北区東十条６－５－１９",
    "lat":35.770165,
    "lon":139.725733
  },
  {
    "id":301,
    "name":"あすか山訪問看護ステーション",
    "address":"北区東十条１－９－１２　溝口ビル１階",
    "lat":35.760689,
    "lon":139.731483
  },
  {
    "id":302,
    "name":"北区立あすなろ福祉園　相談支援事業所フレンズ",
    "address":"北区王子６－４－６",
    "lat":35.761125,
    "lon":139.741854
  },
  {
    "id":303,
    "name":"スマイルハート王子",
    "address":"北区豊島６－７－１６　モリヤマンション３０１",
    "lat":35.764475,
    "lon":139.746779
  },
  {
    "id":304,
    "name":"株式会社　かいごのきもち",
    "address":"北区中里１－１５－１　アムロゼッタ駒込１０２",
    "lat":35.737481,
    "lon":139.750629
  },
  {
    "id":305,
    "name":"つみき相談室",
    "address":"北区王子本町１－１９－１",
    "lat":35.753856,
    "lon":139.733005
  },
  {
    "id":306,
    "name":"マック・ファミリーエイド",
    "address":"北区滝野川６－７６－９　エスポワール・オチアイ１階",
    "lat":35.747715,
    "lon":139.722756
  },
  {
    "id":307,
    "name":"就労・生活支援センター　飛鳥晴山苑",
    "address":"北区西ケ原４－５１－１",
    "lat":35.74141,
    "lon":139.735978
  },
  {
    "id":308,
    "name":"特定相談支援事業　コンティヌオ",
    "address":"北区西ケ原２－４０－１２　パーソナルハイツ飛鳥山１階",
    "lat":35.746421,
    "lon":139.741571
  },
  {
    "id":309,
    "name":"ドリームヴイ　相談支援センター",
    "address":"北区上十条２－１－１２",
    "lat":35.757492,
    "lon":139.722164
  },
  {
    "id":310,
    "name":"リーフ介護ステーション",
    "address":"北区上十条３－２５－８－３０１",
    "lat":35.762421,
    "lon":139.717903
  },
  {
    "id":311,
    "name":"つみき相談室",
    "address":"北区上十条１－１９－６",
    "lat":35.759352,
    "lon":139.723289
  },
  {
    "id":312,
    "name":"障がい者相談支援センターしらゆり",
    "address":"北区赤羽南１－３－１　髙橋ビル４階",
    "lat":35.7761,
    "lon":139.722847
  },
  {
    "id":313,
    "name":"相談事業所わくわくかん",
    "address":"北区赤羽南２－６－６　スカイブリッジビルＢ１階",
    "lat":35.772245,
    "lon":139.722733
  },
  {
    "id":314,
    "name":"相談支援事業所ケアネットワーク",
    "address":"北区赤羽南１－１７－６　石垣ビル１Ｆ",
    "lat":35.776745,
    "lon":139.724213
  },
  {
    "id":315,
    "name":"ヘルパーステーション赤羽",
    "address":"北区赤羽２－６９－２　千秀ビル３Ｆ",
    "lat":35.782491,
    "lon":139.722749
  },
  {
    "id":316,
    "name":"北区立若葉福祉園　相談支援事業所ぴーす",
    "address":"北区赤羽西６－９－２",
    "lat":35.773161,
    "lon":139.707932
  },
  {
    "id":317,
    "name":"宮本相談支援センター",
    "address":"荒川区町屋２－１４－９　メゾンドカスターナ１０１",
    "lat":35.744492,
    "lon":139.778805
  },
  {
    "id":318,
    "name":"荒川区立障害者福祉会館",
    "address":"荒川区荒川２－５７－８",
    "lat":35.740549,
    "lon":139.783264
  },
  {
    "id":319,
    "name":"トラム相談支援事業所",
    "address":"荒川区荒川６－６４－９　Ｋ’ｓハウス２０１",
    "lat":35.742418,
    "lon":139.775992
  },
  {
    "id":320,
    "name":"相談支援事業所　荒川愛恵苑",
    "address":"荒川区西尾久７－５０－６",
    "lat":35.750027,
    "lon":139.751473
  },
  {
    "id":321,
    "name":"オフィスサプライ相談支援事業所",
    "address":"荒川区西尾久７－１９－６　ベルメゾンヤスダ１０３",
    "lat":35.750582,
    "lon":139.756276
  },
  {
    "id":322,
    "name":"荒川区立精神障害者地域生活支援センター",
    "address":"荒川区東尾久５－４５－１１",
    "lat":35.748694,
    "lon":139.766383
  },
  {
    "id":323,
    "name":"相談支援センターあらかわ",
    "address":"荒川区東日暮里１－１７－１２　二村ビル１Ｆ",
    "lat":35.7297,
    "lon":139.790221
  },
  {
    "id":324,
    "name":"荒川区障害者福祉課",
    "address":"荒川区荒川２－２－３",
    "lat":35.736083,
    "lon":139.783373
  },
  {
    "id":325,
    "name":"東京都板橋区立加賀福祉園",
    "address":"板橋区加賀１－７－２",
    "lat":35.754192,
    "lon":139.718715
  },
  {
    "id":326,
    "name":"レインボーブリッジ板橋ケアセンター",
    "address":"板橋区板橋３－５－１５",
    "lat":35.750628,
    "lon":139.712265
  },
  {
    "id":327,
    "name":"相談支援　フォレストサポート",
    "address":"板橋区板橋３－２６－６　リバティオザワ１階",
    "lat":35.750231,
    "lon":139.713465
  },
  {
    "id":328,
    "name":"相談支援事業所フェリシダ",
    "address":"板橋区板橋１－５３－１７　新板橋ビューハイツ３０５",
    "lat":35.748506,
    "lon":139.720729
  },
  {
    "id":329,
    "name":"ケーアイサポート介護事業部",
    "address":"板橋区大和町１０－１１",
    "lat":35.758716,
    "lon":139.706171
  },
  {
    "id":330,
    "name":"板橋区地域生活応援センター",
    "address":"板橋区氷川町４６－４－１０４",
    "lat":35.751053,
    "lon":139.70646
  },
  {
    "id":331,
    "name":"泰心訪問介護センター",
    "address":"板橋区栄町３０－１５",
    "lat":35.754278,
    "lon":139.700344
  },
  {
    "id":332,
    "name":"介護センターともに",
    "address":"板橋区栄町２０－５　小田嶋ビル１階",
    "lat":35.753708,
    "lon":139.703183
  },
  {
    "id":333,
    "name":"よつば介護",
    "address":"板橋区中板橋２２－９　堀越ビル１０１",
    "lat":35.755358,
    "lon":139.697033
  },
  {
    "id":334,
    "name":"特定非営利活動法人レイ",
    "address":"板橋区大山金井町２７－８",
    "lat":35.746326,
    "lon":139.705494
  },
  {
    "id":335,
    "name":"心身障害児総合医療療育センター",
    "address":"板橋区小茂根１－１－１０",
    "lat":35.747517,
    "lon":139.682715
  },
  {
    "id":336,
    "name":"株式会社　ベスト・ケアー",
    "address":"板橋区小茂根１－２５－２２－１０１号",
    "lat":35.747371,
    "lon":139.677815
  },
  {
    "id":337,
    "name":"志村ゆめの園　障害者相談支援センター",
    "address":"板橋区坂下１－１１－３－１０２",
    "lat":35.778727,
    "lon":139.683197
  },
  {
    "id":338,
    "name":"東京YWCAキッズガーデン",
    "address":"板橋区坂下１－３４－２５",
    "lat":35.780993,
    "lon":139.684505
  },
  {
    "id":339,
    "name":"スローステップ　相談支援センター",
    "address":"板橋区蓮根２－１７－７",
    "lat":35.782418,
    "lon":139.677045
  },
  {
    "id":340,
    "name":"Ｂｅｅｃｈ",
    "address":"板橋区清水町８１－１１　アセッツ本蓮沼１０６",
    "lat":35.767101,
    "lon":139.704396
  },
  {
    "id":341,
    "name":"東京聴覚障害者支援センター",
    "address":"板橋区志村２－１９－５",
    "lat":35.775286,
    "lon":139.687852
  },
  {
    "id":342,
    "name":"株式会社ユーモア",
    "address":"板橋区中台１－４４－４",
    "lat":35.767486,
    "lon":139.677034
  },
  {
    "id":343,
    "name":"株式会社もみの木",
    "address":"板橋区常盤台１－３３－４",
    "lat":35.761671,
    "lon":139.693544
  },
  {
    "id":344,
    "name":"アイサービス",
    "address":"板橋区常盤台２－３３－４－１０１",
    "lat":35.763309,
    "lon":139.686789
  },
  {
    "id":345,
    "name":"ヘルパーステーション上板橋",
    "address":"板橋区常盤台４－２２－１２　山和常盤台ビル",
    "lat":35.763395,
    "lon":139.678498
  },
  {
    "id":346,
    "name":"指定相談事業所　スペースピア",
    "address":"板橋区南常盤台２－１－７",
    "lat":35.759057,
    "lon":139.687603
  },
  {
    "id":347,
    "name":"ハートケア相談支援センター",
    "address":"板橋区南常盤台１－３４－９",
    "lat":35.757388,
    "lon":139.688248
  },
  {
    "id":348,
    "name":"ふれあいパーク",
    "address":"板橋区南常盤台２－９－１３　キャッスルミナミときわ台１階",
    "lat":35.756963,
    "lon":139.685409
  },
  {
    "id":349,
    "name":"すこやかサポート雅",
    "address":"板橋区東新町２－２０－１",
    "lat":35.754219,
    "lon":139.680748
  },
  {
    "id":350,
    "name":"シャローム相談支援事業所",
    "address":"板橋区桜川２－２８－１２",
    "lat":35.760284,
    "lon":139.676873
  },
  {
    "id":351,
    "name":"株式会社福ぶくろ　介護のたくみ",
    "address":"板橋区上板橋２－３０－２",
    "lat":35.762326,
    "lon":139.674293
  },
  {
    "id":352,
    "name":"相談支援事業所　わくわくリンク",
    "address":"板橋区西台４－４－１１　キャッスル西台１Ｆ",
    "lat":35.769708,
    "lon":139.667493
  },
  {
    "id":353,
    "name":"ピースケアサービス",
    "address":"板橋区新河岸３－１５－７－３０３　サンライフ新高島平",
    "lat":35.796076,
    "lon":139.651075
  },
  {
    "id":354,
    "name":"さくらヘルプケア",
    "address":"板橋区高島平１－４８－５－１０２",
    "lat":35.784284,
    "lon":139.668871
  },
  {
    "id":355,
    "name":"板橋区立障がい者福祉センター",
    "address":"板橋区高島平９－２５－１２",
    "lat":35.79048,
    "lon":139.668176
  },
  {
    "id":356,
    "name":"生活支援センターにりん草",
    "address":"板橋区高島平１－２０－５　飯島ハイツ１０５",
    "lat":35.78307,
    "lon":139.66919
  },
  {
    "id":357,
    "name":"生活サポート　こころ",
    "address":"板橋区高島平１－４８－６－１階",
    "lat":35.784287,
    "lon":139.668651
  },
  {
    "id":358,
    "name":"サンライズ高島平",
    "address":"板橋区高島平７－２６－８",
    "lat":35.791358,
    "lon":139.65826
  },
  {
    "id":359,
    "name":"株式会社ケアプラン徳丸",
    "address":"板橋区四葉２－１９－６－２０１",
    "lat":35.781312,
    "lon":139.650161
  },
  {
    "id":360,
    "name":"相談支援センター　ｆｔｌアクセス",
    "address":"板橋区成増２－２４－３　バーチヒルズ１０６",
    "lat":35.779198,
    "lon":139.630007
  },
  {
    "id":361,
    "name":"シルバーハートひまわり相談支援事業所",
    "address":"板橋区成増１－５－１１",
    "lat":35.773251,
    "lon":139.632588
  },
  {
    "id":362,
    "name":"みつば相談支援センター　成増",
    "address":"板橋区成増１－１６－７　セントヒルズ成増１０２",
    "lat":35.77429,
    "lon":139.630649
  },
  {
    "id":363,
    "name":"かすたねっと相談支援事業所",
    "address":"練馬区練馬２－１－９",
    "lat":35.741336,
    "lon":139.65604
  },
  {
    "id":364,
    "name":"ＮＰＯ・ＡＣＴねりま居宅介護支援事業所",
    "address":"練馬区桜台１－１２－９　メーナジュ桜台１Ｆ",
    "lat":35.739695,
    "lon":139.662778
  },
  {
    "id":365,
    "name":"小竹メンタルサポート",
    "address":"練馬区小竹町１－４７－１３－２０１",
    "lat":35.73939,
    "lon":139.674994
  },
  {
    "id":366,
    "name":"練馬区立豊玉障害者地域生活支援センター",
    "address":"練馬区豊玉北５－１５－１９",
    "lat":35.736014,
    "lon":139.654851
  },
  {
    "id":367,
    "name":"ねりま相談支援事業所みらい",
    "address":"練馬区中村１－７－１０　マーべラスＡ１０１号",
    "lat":35.731992,
    "lon":139.647638
  },
  {
    "id":368,
    "name":"かがやき相談支援事業所",
    "address":"練馬区中村南２－１８－１４　マウントスクウエア１０１号室",
    "lat":35.727026,
    "lon":139.641934
  },
  {
    "id":369,
    "name":"山彦相談支援事業所",
    "address":"練馬区富士見台２－１９－９",
    "lat":35.735733,
    "lon":139.62406
  },
  {
    "id":370,
    "name":"ケアサポートサニーサイド相談支援事業所",
    "address":"練馬区石神井町３－１７－１４　コスモス石神井公園３０３号室",
    "lat":35.742565,
    "lon":139.604228
  },
  {
    "id":371,
    "name":"練馬区立石神井障害者地域生活支援センター",
    "address":"練馬区石神井町７－３－２８",
    "lat":35.74452,
    "lon":139.601328
  },
  {
    "id":372,
    "name":"ワークショップ石神井相談支援事業所",
    "address":"練馬区石神井町７－１７－４",
    "lat":35.741754,
    "lon":139.596015
  },
  {
    "id":373,
    "name":"未来こどもランドすまいる相談支援室",
    "address":"練馬区石神井町３－２７－１４－２０７",
    "lat":35.743001,
    "lon":139.603294
  },
  {
    "id":374,
    "name":"石神井生活相談支援室",
    "address":"練馬区石神井町４－３－１６",
    "lat":35.744532,
    "lon":139.604366
  },
  {
    "id":375,
    "name":"相談支援事業所さくら",
    "address":"練馬区上石神井３－１６－２５",
    "lat":35.731208,
    "lon":139.596076
  },
  {
    "id":376,
    "name":"相談支援事業所陽（てぃーら）",
    "address":"練馬区石神井台７－２６－５",
    "lat":35.731607,
    "lon":139.578036
  },
  {
    "id":377,
    "name":"たまみずき相談支援事業所",
    "address":"練馬区石神井台３－２－１８",
    "lat":35.742956,
    "lon":139.593515
  },
  {
    "id":378,
    "name":"やすらぎラウンジ　相談支援事業所",
    "address":"練馬区石神井台８－２２－６",
    "lat":35.737648,
    "lon":139.579891
  },
  {
    "id":379,
    "name":"プラン石神井台",
    "address":"練馬区石神井台５－８－７",
    "lat":35.734221,
    "lon":139.585255
  },
  {
    "id":380,
    "name":"ヘルプメイト関町相談支援部",
    "address":"練馬区関町北４－２－１２",
    "lat":35.728063,
    "lon":139.576153
  },
  {
    "id":381,
    "name":"やすらぎの杜　相談支援事業所",
    "address":"練馬区関町北５－７－１０",
    "lat":35.731907,
    "lon":139.571717
  },
  {
    "id":382,
    "name":"相談支援事業所スプラウト",
    "address":"練馬区関町北２－２９－９　七尾屋ビル２０１号室",
    "lat":35.727516,
    "lon":139.575978
  },
  {
    "id":383,
    "name":"練馬福祉園　相談支援事業所　るみえーる",
    "address":"練馬区大泉学園町９－４－１",
    "lat":35.77608,
    "lon":139.593464
  },
  {
    "id":384,
    "name":"ライフデザイン相談支援事業所",
    "address":"練馬区大泉学園町１－３１－８　メルヴェーユ大泉学園４０１号",
    "lat":35.763307,
    "lon":139.588262
  },
  {
    "id":385,
    "name":"いずみ医療生活協同組合　大泉クリニック相談支援事業所",
    "address":"練馬区大泉町６－２９－２０",
    "lat":35.757566,
    "lon":139.591906
  },
  {
    "id":386,
    "name":"練馬区立大泉障害者地域生活支援センター",
    "address":"練馬区東大泉５－３５－２",
    "lat":35.747611,
    "lon":139.589509
  },
  {
    "id":387,
    "name":"いずみ相談室",
    "address":"練馬区東大泉６－５５－５－１０２",
    "lat":35.749736,
    "lon":139.583076
  },
  {
    "id":388,
    "name":"ケアセンター彩り",
    "address":"練馬区東大泉６－１８－１８　メゾン寿１０４号",
    "lat":35.744484,
    "lon":139.586135
  },
  {
    "id":389,
    "name":"練馬区立光が丘障害者地域生活支援センター",
    "address":"練馬区光が丘２－９－６",
    "lat":35.759486,
    "lon":139.629589
  },
  {
    "id":390,
    "name":"練馬区立こども発達支援センター",
    "address":"練馬区光が丘３－１－１",
    "lat":35.754201,
    "lon":139.630961
  },
  {
    "id":391,
    "name":"障害者相談支援事業所あかり",
    "address":"練馬区高松２－２６－６　サングリーン高松２階",
    "lat":35.750937,
    "lon":139.631497
  },
  {
    "id":392,
    "name":"やまびこ第二相談支援事業所",
    "address":"練馬区北町７－２０－３６",
    "lat":35.763189,
    "lon":139.650492
  },
  {
    "id":393,
    "name":"指定特定相談支援事業所　株式会社ケアサービス伊東　早宮営業所",
    "address":"練馬区早宮２－１６－２６",
    "lat":35.756726,
    "lon":139.654678
  },
  {
    "id":394,
    "name":"相談支援事業所　あしたも笑顔",
    "address":"足立区谷中２－１０－１　小倉ビル１階",
    "lat":35.776212,
    "lon":139.832429
  },
  {
    "id":395,
    "name":"あしたば相談支援センター",
    "address":"足立区弘道１－１４－２３　弘道ベルハイム１０３",
    "lat":35.767882,
    "lon":139.810353
  },
  {
    "id":396,
    "name":"相談支援事業所　ウェルビー北千住駅前センター",
    "address":"足立区千住３－１　藤田ビル２階",
    "lat":35.751161,
    "lon":139.80048
  },
  {
    "id":397,
    "name":"相談室あだち",
    "address":"足立区千住仲町２４－２",
    "lat":35.744929,
    "lon":139.800853
  },
  {
    "id":398,
    "name":"指定特定相談支援事業所Grow北千住",
    "address":"足立区千住仲町１８－８　石戸ビル３階",
    "lat":35.746518,
    "lon":139.800734
  },
  {
    "id":399,
    "name":"特定相談支援事業所アーニモ",
    "address":"足立区中央本町４－１２－６　五反野ハイツ１０１",
    "lat":35.776067,
    "lon":139.807376
  },
  {
    "id":400,
    "name":"相談支援センター　えにし",
    "address":"足立区神明１－６－２",
    "lat":35.792982,
    "lon":139.830059
  },
  {
    "id":401,
    "name":"ぷらちな相談支援センター",
    "address":"足立区加平１－８－２３",
    "lat":35.774848,
    "lon":139.826032
  },
  {
    "id":402,
    "name":"でてこいサービス　相談支援",
    "address":"足立区花畑３－３７－１４　第１５０荒井ビル２０６",
    "lat":35.804791,
    "lon":139.814041
  },
  {
    "id":403,
    "name":"一粒の麦",
    "address":"足立区花畑４－３４－１６",
    "lat":35.805352,
    "lon":139.804797
  },
  {
    "id":404,
    "name":"ひるがお足立",
    "address":"足立区花畑４－２３－８　グリーンパーク花畑Ⅳ１０１",
    "lat":35.804494,
    "lon":139.810277
  },
  {
    "id":405,
    "name":"相談支援事業所夢工房",
    "address":"足立区花畑１－３５－１５　メゾンエスポワール１０１",
    "lat":35.800497,
    "lon":139.817088
  },
  {
    "id":406,
    "name":"のんの相談支援事業所",
    "address":"足立区東保木間２－８－１６　章江二番館１階",
    "lat":35.79332,
    "lon":139.811669
  },
  {
    "id":407,
    "name":"ハートぽっぽ相談支援事業所",
    "address":"足立区保木間１－５－２１",
    "lat":35.789587,
    "lon":139.805111
  },
  {
    "id":408,
    "name":"相談支援ＳＯ・ＳＩ・ＲＥ・ＭＩ",
    "address":"足立区保木間２－２－１　オオサキ竹ノ塚マンション１階",
    "lat":35.793867,
    "lon":139.802675
  },
  {
    "id":409,
    "name":"足立区精神障がい者自立支援センター",
    "address":"足立区竹の塚６－１８－４",
    "lat":35.796617,
    "lon":139.792629
  },
  {
    "id":410,
    "name":"竹の塚相談支援センター",
    "address":"足立区竹の塚７－１９－９",
    "lat":35.800822,
    "lon":139.795945
  },
  {
    "id":411,
    "name":"日介センター足立東",
    "address":"足立区竹の塚５－１－１４",
    "lat":35.793648,
    "lon":139.797684
  },
  {
    "id":412,
    "name":"株式会社ベル訪問介護ステーション",
    "address":"足立区六月３－３－４",
    "lat":35.785737,
    "lon":139.790796
  },
  {
    "id":413,
    "name":"成仁　相談支援事業所",
    "address":"足立区島根３－２－１",
    "lat":35.778733,
    "lon":139.796318
  },
  {
    "id":414,
    "name":"足立区障がい福祉センター自立生活支援室",
    "address":"足立区梅島３－３１－１９",
    "lat":35.777505,
    "lon":139.792921
  },
  {
    "id":415,
    "name":"しっぷす相談支援事業所",
    "address":"足立区西竹の塚１－１４－１６　紺屋ビル２０１",
    "lat":35.793884,
    "lon":139.788793
  },
  {
    "id":416,
    "name":"WELS　PORT",
    "address":"足立区舎人６－６－２２",
    "lat":35.815344,
    "lon":139.765964
  },
  {
    "id":417,
    "name":"あいのわ相談センター",
    "address":"足立区古千谷本町２－２５－１１",
    "lat":35.804312,
    "lon":139.772475
  },
  {
    "id":418,
    "name":"ぽぽらーと相談室",
    "address":"足立区入谷１－１６－１３",
    "lat":35.805459,
    "lon":139.766872
  },
  {
    "id":419,
    "name":"スマイル相談支援センター",
    "address":"足立区西新井１－３８－１１　オリエント第６ビル２０４号",
    "lat":35.78246,
    "lon":139.780333
  },
  {
    "id":420,
    "name":"特定非営利活動法人クララ",
    "address":"足立区西新井本町２－１５－７",
    "lat":35.777355,
    "lon":139.772278
  },
  {
    "id":421,
    "name":"うめだ･あけぼの子ども相談支援センター",
    "address":"足立区梅田７－１２－１５",
    "lat":35.76922,
    "lon":139.800899
  },
  {
    "id":422,
    "name":"療育室つばさ　相談支援事業",
    "address":"足立区新田３－２３－６",
    "lat":35.769885,
    "lon":139.744676
  },
  {
    "id":423,
    "name":"ひのき相談支援センター",
    "address":"足立区新田２－１６－１３",
    "lat":35.773485,
    "lon":139.741901
  },
  {
    "id":424,
    "name":"ケアステーションダッシュ",
    "address":"葛飾区お花茶屋１－５－１０",
    "lat":35.748624,
    "lon":139.836885
  },
  {
    "id":425,
    "name":"東堀切くすのき園相談支援センター",
    "address":"葛飾区東堀切１－２１－３",
    "lat":35.74901,
    "lon":139.836097
  },
  {
    "id":426,
    "name":"葛飾区自立生活支援センター",
    "address":"葛飾区堀切３－３４－１",
    "lat":35.744335,
    "lon":139.834522
  },
  {
    "id":427,
    "name":"葛飾区障害者生活介護事業所",
    "address":"葛飾区堀切３－３４－１",
    "lat":35.744335,
    "lon":139.834522
  },
  {
    "id":428,
    "name":"葛飾区子ども発達センター",
    "address":"葛飾区堀切３－３４－１",
    "lat":35.744335,
    "lon":139.834522
  },
  {
    "id":429,
    "name":"葛飾区自立訓練事業所",
    "address":"葛飾区堀切３－３４－１",
    "lat":35.744335,
    "lon":139.834522
  },
  {
    "id":430,
    "name":"花しょうぶ指定特定相談支援事業所",
    "address":"葛飾区堀切６－５－１１　１階",
    "lat":35.752267,
    "lon":139.830011
  },
  {
    "id":431,
    "name":"地域活動支援センターもっく",
    "address":"葛飾区四つ木４－１１－８",
    "lat":35.736992,
    "lon":139.835456
  },
  {
    "id":432,
    "name":"フタバ介護サービス",
    "address":"葛飾区四つ木４－２８－１１",
    "lat":35.739625,
    "lon":139.835611
  },
  {
    "id":433,
    "name":"相談支援事業さくら",
    "address":"葛飾区四つ木５－６－７",
    "lat":35.740716,
    "lon":139.838294
  },
  {
    "id":434,
    "name":"糸でんわ",
    "address":"葛飾区立石３－３－８　ＹＫマンション１階",
    "lat":35.737928,
    "lon":139.843721
  },
  {
    "id":435,
    "name":"東京都葛飾福祉工場　障害者計画相談支援室",
    "address":"葛飾区立石８－５０－１",
    "lat":35.73935,
    "lon":139.859278
  },
  {
    "id":436,
    "name":"ケアプランオアシス",
    "address":"葛飾区立石６－３３－８－１０２",
    "lat":35.742999,
    "lon":139.852354
  },
  {
    "id":437,
    "name":"こすもす相談支援事業所",
    "address":"葛飾区東四つ木３－４９－１０",
    "lat":35.730834,
    "lon":139.840717
  },
  {
    "id":438,
    "name":"きね川相談支援センター",
    "address":"葛飾区東四つ木３－８－１０",
    "lat":35.729588,
    "lon":139.838278
  },
  {
    "id":439,
    "name":"相談支援センターおおぞら",
    "address":"葛飾区細田５－１６－１１",
    "lat":35.738242,
    "lon":139.876299
  },
  {
    "id":440,
    "name":"相談支援センター　エバンズ",
    "address":"葛飾区奥戸１－１－１",
    "lat":35.728717,
    "lon":139.850907
  },
  {
    "id":441,
    "name":"広伸会相談支援事業所",
    "address":"葛飾区東新小岩５－１８－１　１階",
    "lat":35.72331,
    "lon":139.857049
  },
  {
    "id":442,
    "name":"相談支援室　ひまわり",
    "address":"葛飾区東新小岩５－１６－１１－２０２",
    "lat":35.72334,
    "lon":139.855882
  },
  {
    "id":443,
    "name":"やすらぎリバーシティ相談支援事業所",
    "address":"葛飾区新小岩１－５－２",
    "lat":35.71383,
    "lon":139.853847
  },
  {
    "id":444,
    "name":"西水元福祉館　相談支援事業所",
    "address":"葛飾区西水元３－１１－１",
    "lat":35.788404,
    "lon":139.847005
  },
  {
    "id":445,
    "name":"風の子相談室",
    "address":"葛飾区西水元５－１１－３",
    "lat":35.78446,
    "lon":139.854533
  },
  {
    "id":446,
    "name":"相談支援センター　そよかぜ",
    "address":"葛飾区水元５－１６－１１",
    "lat":35.789346,
    "lon":139.862899
  },
  {
    "id":447,
    "name":"地域活動支援センターコパン",
    "address":"葛飾区新宿３－９－１１",
    "lat":35.760231,
    "lon":139.86293
  },
  {
    "id":448,
    "name":"相談支援センターかがやけ",
    "address":"葛飾区新宿１－１－１５",
    "lat":35.757192,
    "lon":139.859466
  },
  {
    "id":449,
    "name":"にじいろ相談支援事業所",
    "address":"葛飾区柴又７－１４－４",
    "lat":35.759842,
    "lon":139.879159
  },
  {
    "id":450,
    "name":"鎌倉福祉館相談支援事業　なかま",
    "address":"葛飾区鎌倉３－７－１",
    "lat":35.749176,
    "lon":139.875127
  },
  {
    "id":451,
    "name":"高砂福祉館相談支援事業　なないろ",
    "address":"葛飾区高砂５－１０－１",
    "lat":35.751804,
    "lon":139.864011
  },
  {
    "id":452,
    "name":"相談支援センター　しょうぶ",
    "address":"葛飾区高砂２－８－１",
    "lat":35.748865,
    "lon":139.863797
  },
  {
    "id":453,
    "name":"オリーブ相談支援事業所",
    "address":"葛飾区亀有３－１６－１５",
    "lat":35.763541,
    "lon":139.848545
  },
  {
    "id":454,
    "name":"相談支援事業所ひかり",
    "address":"葛飾区亀有２－２２－１１",
    "lat":35.760061,
    "lon":139.85232
  },
  {
    "id":455,
    "name":"相談支援事業所　さい",
    "address":"葛飾区青戸５－１４－２　仙ノ倉ハイツ１階",
    "lat":35.747482,
    "lon":139.854234
  },
  {
    "id":456,
    "name":"葛飾区子ども総合センター",
    "address":"葛飾区青戸４－１５－１４",
    "lat":35.751567,
    "lon":139.850589
  },
  {
    "id":457,
    "name":"相談支援センターぽむぽむ",
    "address":"葛飾区青戸５－２－９　青戸ハイツ１０３",
    "lat":35.74769,
    "lon":139.853828
  },
  {
    "id":458,
    "name":"きらら介護サービス　亀有",
    "address":"葛飾区青戸８－９－１６",
    "lat":35.756234,
    "lon":139.851834
  },
  {
    "id":459,
    "name":"相談支援センター　あおと",
    "address":"葛飾区青戸５－２０－６",
    "lat":35.750157,
    "lon":139.854317
  },
  {
    "id":460,
    "name":"白鳥福祉館相談支援センター",
    "address":"葛飾区白鳥四丁目８番１号",
    "lat":35.752409,
    "lon":139.846395
  },
  {
    "id":461,
    "name":"ケアステーション大空",
    "address":"江戸川区新堀２－３２－１０　コンビニエンスオフィス稲毛１号",
    "lat":35.704143,
    "lon":139.893193
  },
  {
    "id":462,
    "name":"地域活動支援センター　はるえ野",
    "address":"江戸川区春江町２－４１－８",
    "lat":35.699504,
    "lon":139.890744
  },
  {
    "id":463,
    "name":"永仁介護サービス　瑞江相談支援事業所",
    "address":"江戸川区春江町３－５１－４",
    "lat":35.697255,
    "lon":139.891288
  },
  {
    "id":464,
    "name":"有限会社　椿ケアステーション",
    "address":"江戸川区春江町３－２９－１２",
    "lat":35.694988,
    "lon":139.886933
  },
  {
    "id":465,
    "name":"江東園ケアセンターつばき　えぽっく",
    "address":"江戸川区春江町２－５－１５",
    "lat":35.700762,
    "lon":139.887083
  },
  {
    "id":466,
    "name":"ウィット相談支援室",
    "address":"江戸川区瑞江４－４８－２",
    "lat":35.69323,
    "lon":139.894896
  },
  {
    "id":467,
    "name":"特定非営利活動法人　江戸川在宅支援グループ",
    "address":"江戸川区江戸川３－１７",
    "lat":35.686433,
    "lon":139.893205
  },
  {
    "id":468,
    "name":"江東園さわやか相談室　宙",
    "address":"江戸川区東瑞江１－１１－５　ラ・ヴェルフルート１０３号室",
    "lat":35.688733,
    "lon":139.899527
  },
  {
    "id":469,
    "name":"わだつみケアサービス",
    "address":"江戸川区西瑞江３－９－１０３　ルミエール１階－Ａ",
    "lat":35.687511,
    "lon":139.892416
  },
  {
    "id":470,
    "name":"にじいろ相談支援事業所",
    "address":"江戸川区中央４－２５－１６　石井ビル２階",
    "lat":35.708736,
    "lon":139.867615
  },
  {
    "id":471,
    "name":"あるぷす相談室",
    "address":"江戸川区中央３－７－１３",
    "lat":35.712867,
    "lon":139.871825
  },
  {
    "id":472,
    "name":"ケア　あんじゅ",
    "address":"江戸川区大杉５－２０－１",
    "lat":35.708871,
    "lon":139.877689
  },
  {
    "id":473,
    "name":"東京福祉交通サービス株式会社　相談支援センター",
    "address":"江戸川区西一之江３－１２－３０　シンコーポレーションビル４階",
    "lat":35.6927,
    "lon":139.875768
  },
  {
    "id":474,
    "name":"日本リック相談支援一之江事業所",
    "address":"江戸川区一之江４－６－２２",
    "lat":35.690029,
    "lon":139.879228
  },
  {
    "id":475,
    "name":"ゆたか福祉サービス",
    "address":"江戸川区一之江３－７－１１　プレジデント１０２",
    "lat":35.688071,
    "lon":139.885111
  },
  {
    "id":476,
    "name":"相談支援センターぽこ・あ・ぽこ",
    "address":"江戸川区松島３－４２－１１",
    "lat":35.711711,
    "lon":139.864635
  },
  {
    "id":477,
    "name":"地域活動支援センターえどがわ",
    "address":"江戸川区松島３－４６－１０　かとりコーポ１０１",
    "lat":35.709844,
    "lon":139.865904
  },
  {
    "id":478,
    "name":"ひまわり介護サービス",
    "address":"江戸川区松島１－４３－１４　小森ビル１階",
    "lat":35.705095,
    "lon":139.867707
  },
  {
    "id":479,
    "name":"永仁介護サービス　平井相談支援事業所",
    "address":"江戸川区平井４－１－１９",
    "lat":35.703905,
    "lon":139.847148
  },
  {
    "id":480,
    "name":"ＨＡＬＯ（ハロ）相談支援センター",
    "address":"江戸川区本一色１－２８－７　タカエイマンション４０１",
    "lat":35.715528,
    "lon":139.869448
  },
  {
    "id":481,
    "name":"江戸川区立みんなの家",
    "address":"江戸川区本一色３－３８－３",
    "lat":35.720763,
    "lon":139.872578
  },
  {
    "id":482,
    "name":"トロールケアサービス",
    "address":"江戸川区北小岩５－１－９",
    "lat":35.741091,
    "lon":139.885671
  },
  {
    "id":483,
    "name":"でこぽん",
    "address":"江戸川区北小岩１－１０－１　サンライズⅡ１０３",
    "lat":35.736245,
    "lon":139.889656
  },
  {
    "id":484,
    "name":"赤とんぼ",
    "address":"江戸川区東小岩５－１６－６　ライトハイツ２階",
    "lat":35.731959,
    "lon":139.887615
  },
  {
    "id":485,
    "name":"相談支援センター　カピリナ",
    "address":"江戸川区東小岩２－２３－３",
    "lat":35.726883,
    "lon":139.893401
  },
  {
    "id":486,
    "name":"あいしんケア相談支援センター",
    "address":"江戸川区上篠崎３－２－２　金子ハイツ１０１",
    "lat":35.710136,
    "lon":139.898609
  },
  {
    "id":487,
    "name":"いきいきサポートケアプラン",
    "address":"江戸川区南小岩３－５－４　第一アネストマンション店舗Ａ",
    "lat":35.724797,
    "lon":139.884457
  },
  {
    "id":488,
    "name":"なでしこプランセンター",
    "address":"江戸川区南小岩３－２５－１４　パスカルビル２０５",
    "lat":35.725202,
    "lon":139.888701
  },
  {
    "id":489,
    "name":"マミー相談支援",
    "address":"江戸川区南小岩３－２０－２",
    "lat":35.726488,
    "lon":139.886912
  },
  {
    "id":490,
    "name":"相談支援事業所　けいプラン",
    "address":"江戸川区西小岩１－２１－１６　エーチワイ江戸川２０１",
    "lat":35.73449,
    "lon":139.880424
  },
  {
    "id":491,
    "name":"やわらぎ介護",
    "address":"江戸川区西小岩４－６－６",
    "lat":35.740497,
    "lon":139.878202
  },
  {
    "id":492,
    "name":"江東園さわやか相談室　海",
    "address":"江戸川区篠崎町７－１８－８　第２シャトレーマンション１０２",
    "lat":35.707362,
    "lon":139.901795
  },
  {
    "id":493,
    "name":"ＳＴＥＰえどがわ",
    "address":"江戸川区南篠崎町３－９－７－１階",
    "lat":35.695572,
    "lon":139.898904
  },
  {
    "id":494,
    "name":"相談支援センター　むくむく",
    "address":"江戸川区鹿骨１－５６－１",
    "lat":35.709536,
    "lon":139.891265
  },
  {
    "id":495,
    "name":"東京ケア",
    "address":"江戸川区鹿骨３－１８－８",
    "lat":35.716107,
    "lon":139.891971
  },
  {
    "id":496,
    "name":"江戸川区立希望の家",
    "address":"江戸川区江戸川５－３２－６",
    "lat":35.673036,
    "lon":139.882976
  },
  {
    "id":497,
    "name":"蜂輪",
    "address":"江戸川区中葛西２－７－１２　Ｌｕｘｕｒｙ　ＳＵＮＬＡＫＥ１０８号室",
    "lat":35.672788,
    "lon":139.874307
  },
  {
    "id":498,
    "name":"「まある」相談支援事業所",
    "address":"江戸川区中葛西１－３８－１８",
    "lat":35.671255,
    "lon":139.871208
  },
  {
    "id":499,
    "name":"江戸川区立障害者支援ハウス",
    "address":"江戸川区中葛西２－１１－８",
    "lat":35.673425,
    "lon":139.875032
  },
  {
    "id":500,
    "name":"ハート　ケア",
    "address":"江戸川区中葛西３－１８－１１　ハイツ星１０２",
    "lat":35.664911,
    "lon":139.870461
  },
  {
    "id":501,
    "name":"ゆーあいスマイル",
    "address":"江戸川区中葛西２－１０－１５　２階",
    "lat":35.673072,
    "lon":139.874432
  },
  {
    "id":502,
    "name":"相談支援センター　ハート花きりん",
    "address":"江戸川区東葛西７－２－５　エビス東葛西１０２",
    "lat":35.659926,
    "lon":139.873361
  },
  {
    "id":503,
    "name":"相談支援センター　こんにちわ",
    "address":"江戸川区東葛西７－８－１５　メゾン・ド・フォレ１０３",
    "lat":35.65899,
    "lon":139.874572
  },
  {
    "id":504,
    "name":"相談支援ＮＰＯ虹の会",
    "address":"江戸川区南葛西７－２－３",
    "lat":35.647153,
    "lon":139.882261
  },
  {
    "id":505,
    "name":"いわいだ介護相談室",
    "address":"江戸川区南葛西２－６－５－１０２",
    "lat":35.655224,
    "lon":139.873528
  },
  {
    "id":506,
    "name":"相談支援センターFUREAI（ふれあい）",
    "address":"江戸川区西葛西６－２３－３　秀合ビル１Ｆ",
    "lat":35.664064,
    "lon":139.863209
  },
  {
    "id":507,
    "name":"相談支援センターくらふと",
    "address":"江戸川区船堀１－４－１０　第二乙女屋マンション６０４",
    "lat":35.686253,
    "lon":139.864536
  },
  {
    "id":508,
    "name":"まごころ相談室",
    "address":"八王子市中野町２６３２",
    "lat":35.680999,
    "lon":139.323493
  },
  {
    "id":509,
    "name":"ぽんぽこ相談室",
    "address":"八王子市大和田町２－２０－７",
    "lat":35.665101,
    "lon":139.359596
  },
  {
    "id":510,
    "name":"障害者相談支援センター　ぴあらいふ",
    "address":"八王子市明神町４－１４－１　１階",
    "lat":35.659863,
    "lon":139.342334
  },
  {
    "id":511,
    "name":"マインドはちおうじ相談支援センター",
    "address":"八王子市小門町７５－７　エイビット小門町ビル３階",
    "lat":35.659423,
    "lon":139.323463
  },
  {
    "id":512,
    "name":"相談支援センター「タック」",
    "address":"八王子市横山町２５－１６　フロイデンビル２階",
    "lat":35.660212,
    "lon":139.340226
  },
  {
    "id":513,
    "name":"有限会社多摩ヘルパーセンター",
    "address":"八王子市横山町８－７",
    "lat":35.659124,
    "lon":139.335748
  },
  {
    "id":514,
    "name":"美山相談支援事業所",
    "address":"八王子市美山町２５５４",
    "lat":35.703388,
    "lon":139.230166
  },
  {
    "id":515,
    "name":"相談支援室ポレポレ",
    "address":"八王子市西寺方町７６　東京都八王子福祉園内",
    "lat":35.673745,
    "lon":139.264126
  },
  {
    "id":516,
    "name":"相談支援センター　レガーレ",
    "address":"八王子市堀之内１２３６－８",
    "lat":35.63443,
    "lon":139.390869
  },
  {
    "id":517,
    "name":"相談支援センター待夢",
    "address":"八王子市松木４８－１０　グランドゥール１０５",
    "lat":35.623685,
    "lon":139.394425
  },
  {
    "id":518,
    "name":"障害者生活支援センター　サポート南多摩",
    "address":"八王子市南大沢２－２５　フォレストモール南大沢２０８号室",
    "lat":35.613144,
    "lon":139.381346
  },
  {
    "id":519,
    "name":"相談支援事業所　桜草",
    "address":"八王子市上野町９３－１",
    "lat":35.655077,
    "lon":139.325571
  },
  {
    "id":520,
    "name":"障がい者（児）の夢を実現させる相談支援",
    "address":"八王子市上野町３４－１１　１Ｆ",
    "lat":35.656576,
    "lon":139.326277
  },
  {
    "id":521,
    "name":"相談支援室あん・ぷらん",
    "address":"八王子市子安町１－８－３　コーポ森１階",
    "lat":35.653113,
    "lon":139.341053
  },
  {
    "id":522,
    "name":"地域生活支援センターあくせす",
    "address":"八王子市子安町３－６－７　サザンエイトビル３Ｆ",
    "lat":35.651691,
    "lon":139.338215
  },
  {
    "id":523,
    "name":"まゆにっと",
    "address":"八王子市長沼町１３０６－４　長沼通所センター内",
    "lat":35.646939,
    "lon":139.360496
  },
  {
    "id":524,
    "name":"ＰＡＳＴＥＬ",
    "address":"八王子市打越町３４７－３　安井ビル１０２号",
    "lat":35.645048,
    "lon":139.355469
  },
  {
    "id":525,
    "name":"ウェーブ・フォー・ネット相談室",
    "address":"八王子市片倉町３５９－４　パラグアスＦ１階１０２",
    "lat":35.642803,
    "lon":139.338226
  },
  {
    "id":526,
    "name":"わかこま相談支援室",
    "address":"八王子市横川町５２１－１",
    "lat":35.664664,
    "lon":139.304304
  },
  {
    "id":527,
    "name":"サポートＮＡＲＳ",
    "address":"八王子市横川町５３８－１　馬場レヂデンス２",
    "lat":35.666405,
    "lon":139.304331
  },
  {
    "id":528,
    "name":"八王子地域生活支援室　高尾",
    "address":"八王子市東浅川町９１４－６　東浅川ビル１階",
    "lat":35.642138,
    "lon":139.285964
  },
  {
    "id":529,
    "name":"トマリ相談支援研究所",
    "address":"八王子市高尾町１６４２　リバーサイド小林２０７",
    "lat":35.643094,
    "lon":139.277737
  },
  {
    "id":530,
    "name":"ぽぴー相談支援センター",
    "address":"八王子市高尾町１１１５－１　ハタノコーポ１０３号",
    "lat":35.643757,
    "lon":139.285375
  },
  {
    "id":531,
    "name":"相談支援事業所　もなか",
    "address":"八王子市台町１－２４－２７　１Ｆ",
    "lat":35.650535,
    "lon":139.325649
  },
  {
    "id":532,
    "name":"相談支援室ぱれっと",
    "address":"八王子市台町４－３３－１３",
    "lat":35.65749,
    "lon":139.318544
  },
  {
    "id":533,
    "name":"相談支援スペース「ゆめ」",
    "address":"八王子市緑町９３５－１５",
    "lat":35.647489,
    "lon":139.335921
  },
  {
    "id":534,
    "name":"障害者自立支援センター「おあしす」",
    "address":"八王子市館町３８１－１－１１０",
    "lat":35.635395,
    "lon":139.295675
  },
  {
    "id":535,
    "name":"相談支援事業所　暖",
    "address":"立川市高松町１－１７－２０",
    "lat":35.708761,
    "lon":139.418015
  },
  {
    "id":536,
    "name":"相談支援センターにんじん・立川",
    "address":"立川市高松町２－２７－２７",
    "lat":35.703776,
    "lon":139.418956
  },
  {
    "id":537,
    "name":"相談支援事業所暖",
    "address":"立川市高松町１－１７－２０　粕谷ビル２階",
    "lat":35.708761,
    "lon":139.418015
  },
  {
    "id":538,
    "name":"立川市社会福祉協議会障害者相談支援事業所",
    "address":"立川市富士見町２－３６－４７",
    "lat":35.701298,
    "lon":139.401802
  },
  {
    "id":539,
    "name":"相談支援事業所イロドリ",
    "address":"立川市富士見町７－５－１１",
    "lat":35.693832,
    "lon":139.398275
  },
  {
    "id":540,
    "name":"相談支援事業所　介護グループふれあい",
    "address":"立川市羽衣町２－４１－１　羽衣第一ビル２階",
    "lat":35.694049,
    "lon":139.426056
  },
  {
    "id":541,
    "name":"イドコロ相談所",
    "address":"立川市羽衣町３－１－１２　マンション青３０１",
    "lat":35.691822,
    "lon":139.424353
  },
  {
    "id":542,
    "name":"相談支援事業所　すたんど",
    "address":"立川市錦町１－５－１　グランドホープ２０１",
    "lat":35.69771,
    "lon":139.417484
  },
  {
    "id":543,
    "name":"特定指定相談支援事業　自立生活センター・立川",
    "address":"立川市柴崎町２－１０－１６　オオノビル２階",
    "lat":35.696268,
    "lon":139.408882
  },
  {
    "id":544,
    "name":"特定相談支援事業所たちふく",
    "address":"立川市柴崎町３－１３－１１",
    "lat":35.693782,
    "lon":139.412327
  },
  {
    "id":545,
    "name":"相談支援センター　らいふぱる",
    "address":"立川市西砂町４－７５－２",
    "lat":35.735837,
    "lon":139.355911
  },
  {
    "id":546,
    "name":"地域生活支援センターびーと",
    "address":"武蔵野市吉祥寺北町４－１１－１６",
    "lat":35.71575,
    "lon":139.565901
  },
  {
    "id":547,
    "name":"日介センター吉祥寺",
    "address":"武蔵野市吉祥寺南町２－２９－１０　三成参番館４階",
    "lat":35.70005,
    "lon":139.58577
  },
  {
    "id":548,
    "name":"特定相談支援事業所　ハローワールド",
    "address":"武蔵野市御殿山１－６－１１　Ｋ２ビル４階",
    "lat":35.702877,
    "lon":139.574918
  },
  {
    "id":549,
    "name":"ライフサポートＭＥＷ、ワークショップＭＥＷ",
    "address":"武蔵野市中町３－４－９　ディアハイム武蔵野ビル１階",
    "lat":35.71224,
    "lon":139.564263
  },
  {
    "id":550,
    "name":"生活リハビリサポート　すばる",
    "address":"武蔵野市八幡町４－２８－１３",
    "lat":35.720011,
    "lon":139.554458
  },
  {
    "id":551,
    "name":"地域療育相談室　ハビット",
    "address":"武蔵野市緑町２－６－８",
    "lat":35.716931,
    "lon":139.561899
  },
  {
    "id":552,
    "name":"コット",
    "address":"武蔵野市境１－９－９　温泉通りビル２０５",
    "lat":35.704465,
    "lon":139.544943
  },
  {
    "id":553,
    "name":"相談支援事業所せんかわ",
    "address":"武蔵野市境南町４－２０－５",
    "lat":35.698446,
    "lon":139.536946
  },
  {
    "id":554,
    "name":"相談支援事業所　結い",
    "address":"三鷹市井の頭２－２１－１８",
    "lat":35.691187,
    "lon":139.584342
  },
  {
    "id":555,
    "name":"三鷹市北野ハピネスセンター",
    "address":"三鷹市北野１－９－２９",
    "lat":35.679899,
    "lon":139.586148
  },
  {
    "id":556,
    "name":"めだか相談室",
    "address":"三鷹市新川４－９－５",
    "lat":35.672142,
    "lon":139.570753
  },
  {
    "id":557,
    "name":"障がい者相談センター　つなぐ手",
    "address":"三鷹市新川３－２１－１９　はなはなテラス１階",
    "lat":35.678271,
    "lon":139.569528
  },
  {
    "id":558,
    "name":"相談支援事業所にじアート",
    "address":"三鷹市新川４－１１－１３",
    "lat":35.673208,
    "lon":139.57133
  },
  {
    "id":559,
    "name":"三鷹市子ども発達支援センター",
    "address":"三鷹市新川６－３７－１",
    "lat":35.681774,
    "lon":139.561834
  },
  {
    "id":560,
    "name":"三鷹市障がい者自立支援センターゆー・あい",
    "address":"三鷹市上連雀４－１－８",
    "lat":35.697155,
    "lon":139.558983
  },
  {
    "id":561,
    "name":"ひまわり",
    "address":"三鷹市下連雀４－１５－２　ホワイトマンション１０３",
    "lat":35.697178,
    "lon":139.561594
  },
  {
    "id":562,
    "name":"障がい者計画相談センターくも",
    "address":"三鷹市下連雀４－１５－２３",
    "lat":35.694886,
    "lon":139.561744
  },
  {
    "id":563,
    "name":"野の花",
    "address":"三鷹市野崎２－６－４２",
    "lat":35.68329,
    "lon":139.548488
  },
  {
    "id":564,
    "name":"相談支援事業所にじネット",
    "address":"三鷹市大沢１－６－３",
    "lat":35.670777,
    "lon":139.541422
  },
  {
    "id":565,
    "name":"じゅうと生活サポートセンター",
    "address":"三鷹市大沢１－１６－２６",
    "lat":35.673994,
    "lon":139.539844
  },
  {
    "id":566,
    "name":"長谷川病院特定相談支援事業所",
    "address":"三鷹市深大寺２－３０－１７－２０１",
    "lat":35.685887,
    "lon":139.540363
  },
  {
    "id":567,
    "name":"相談支援事業所おおぞら",
    "address":"青梅市成木２－１３０－２",
    "lat":35.832507,
    "lon":139.271746
  },
  {
    "id":568,
    "name":"特定相談支援事業所だいもん",
    "address":"青梅市大門２－２６１－１　青梅市障がい者サポートセンター内",
    "lat":35.795681,
    "lon":139.29145
  },
  {
    "id":569,
    "name":"相談支援センターわかば",
    "address":"青梅市大門２－２５９－３",
    "lat":35.795176,
    "lon":139.291306
  },
  {
    "id":570,
    "name":"特定・障害児相談支援事業所じりつ",
    "address":"青梅市今井５－２４３４－２",
    "lat":35.793435,
    "lon":139.328378
  },
  {
    "id":571,
    "name":"相談支援事業所　くらやしき",
    "address":"青梅市新町１－８－２",
    "lat":35.786022,
    "lon":139.297739
  },
  {
    "id":572,
    "name":"相談支援事業所　もしもしすばる",
    "address":"青梅市新町３－２０－３　ダイヤパレス１階",
    "lat":35.78002,
    "lon":139.302077
  },
  {
    "id":573,
    "name":"ケアープラン新町",
    "address":"青梅市新町７－６３－５　エルベール新町Ⅱ号館１３３",
    "lat":35.7888,
    "lon":139.316854
  },
  {
    "id":574,
    "name":"ポラリス相談室",
    "address":"青梅市新町７－５－５",
    "lat":35.783836,
    "lon":139.315835
  },
  {
    "id":575,
    "name":"自立支援塾おうめ・相談室",
    "address":"青梅市東青梅３－８－５　葵マンション１０６",
    "lat":35.788912,
    "lon":139.276668
  },
  {
    "id":576,
    "name":"有限会社アイケアーサービス青梅",
    "address":"青梅市東青梅１－７－８",
    "lat":35.788243,
    "lon":139.27393
  },
  {
    "id":577,
    "name":"もみの木",
    "address":"青梅市東青梅６－２－２９　カーサオヤマ１０２号",
    "lat":35.793787,
    "lon":139.273071
  },
  {
    "id":578,
    "name":"花の里",
    "address":"青梅市長淵５－１０８０－２",
    "lat":35.769306,
    "lon":139.260343
  },
  {
    "id":579,
    "name":"多機能型支援施設　ほたるの里",
    "address":"青梅市長淵５－１０８６",
    "lat":35.77092,
    "lon":139.261929
  },
  {
    "id":580,
    "name":"たましろセンター",
    "address":"青梅市長淵５－１４２０－２",
    "lat":35.768106,
    "lon":139.258123
  },
  {
    "id":581,
    "name":"シエル相談支援センター",
    "address":"府中市紅葉丘１－３８－７１",
    "lat":35.676926,
    "lon":139.513683
  },
  {
    "id":582,
    "name":"し～ま",
    "address":"府中市若松町１－９－１",
    "lat":35.669174,
    "lon":139.498853
  },
  {
    "id":583,
    "name":"ケアチーム大芽",
    "address":"府中市若松町１－２－５　芽生会ＢＬＤ５階",
    "lat":35.670265,
    "lon":139.495584
  },
  {
    "id":584,
    "name":"つくしんぼう",
    "address":"府中市押立町１－１７－１３",
    "lat":35.659686,
    "lon":139.509261
  },
  {
    "id":585,
    "name":"地域生活支援センターふらっと",
    "address":"府中市清水が丘３－２３－１７　１階",
    "lat":35.66631,
    "lon":139.503473
  },
  {
    "id":586,
    "name":"ＪＰＳ相談支援センター",
    "address":"府中市宮西町３－５－４　パークヒル１Ｆ",
    "lat":35.67182,
    "lon":139.473958
  },
  {
    "id":587,
    "name":"相談支援ワンセルフ",
    "address":"府中市宮西町２－４－３　アイスバーグビル５階",
    "lat":35.670176,
    "lon":139.478447
  },
  {
    "id":588,
    "name":"地域生活支援センターみ～な",
    "address":"府中市南町５－３８",
    "lat":35.654888,
    "lon":139.467787
  },
  {
    "id":589,
    "name":"コンパス",
    "address":"府中市本町１－１５－３　宮ノ森コーポ１０３",
    "lat":35.666671,
    "lon":139.478636
  },
  {
    "id":590,
    "name":"つづれおり",
    "address":"府中市住吉町２－１３－３　ベルメゾン住吉第２　２０１",
    "lat":35.658032,
    "lon":139.458746
  },
  {
    "id":591,
    "name":"わの会相談支援",
    "address":"府中市住吉町１－６０－１０",
    "lat":35.660743,
    "lon":139.460032
  },
  {
    "id":592,
    "name":"相談支援センター　みさきのいえ",
    "address":"府中市住吉町２－１５－９　アローヒルズ府中２０３",
    "lat":35.658863,
    "lon":139.457724
  },
  {
    "id":593,
    "name":"地域生活支援センタープラザ",
    "address":"府中市美好町１－７－２　第一市川マンション２０２",
    "lat":35.672967,
    "lon":139.472328
  },
  {
    "id":594,
    "name":"相談室ウェル",
    "address":"府中市美好町１－１－１８　石川ビル２０１",
    "lat":35.67307,
    "lon":139.472983
  },
  {
    "id":595,
    "name":"相談支援センターリアン",
    "address":"府中市美好町３－１３－３　第一グリーンテラス２",
    "lat":35.671917,
    "lon":139.466048
  },
  {
    "id":596,
    "name":"エンパワメントふちゅう",
    "address":"府中市府中町２－１０－１１　清田第二ビル１階",
    "lat":35.674587,
    "lon":139.482002
  },
  {
    "id":597,
    "name":"相談支援　やすらぎ",
    "address":"府中市府中町２－２１－４　菊正ビル２階１号室",
    "lat":35.675137,
    "lon":139.484541
  },
  {
    "id":598,
    "name":"地域生活支援センターあけぼの",
    "address":"府中市寿町３－９－１１　山上ビル１階",
    "lat":35.676392,
    "lon":139.473828
  },
  {
    "id":599,
    "name":"サポートにんな",
    "address":"府中市寿町２－２６",
    "lat":35.677969,
    "lon":139.474261
  },
  {
    "id":600,
    "name":"ウイズ相談支援事業所",
    "address":"昭島市松原町４－１０－１３　コーポふじ３０２",
    "lat":35.718883,
    "lon":139.342782
  },
  {
    "id":601,
    "name":"昭島生活実習所",
    "address":"昭島市松原町３－１１－１５",
    "lat":35.717217,
    "lon":139.344846
  },
  {
    "id":602,
    "name":"ゆいのもり相談支援センター",
    "address":"昭島市つつじが丘３－５－６－１１４",
    "lat":35.71339,
    "lon":139.368094
  },
  {
    "id":603,
    "name":"昭島市障害者相談支援センター",
    "address":"昭島市昭和町４－７－１　昭島市保健福祉センター内",
    "lat":35.710835,
    "lon":139.364125
  },
  {
    "id":604,
    "name":"特定非営利活動法人昭島ひよこ教室",
    "address":"昭島市昭和町４－７－１　昭島市保健福祉センター２階",
    "lat":35.710835,
    "lon":139.364125
  },
  {
    "id":605,
    "name":"虹のセンター２５",
    "address":"昭島市中神町１１７６－１９－１０１",
    "lat":35.709519,
    "lon":139.376768
  },
  {
    "id":606,
    "name":"特定非営利活動法人自立生活センター・昭島",
    "address":"昭島市朝日町３－１８－１２",
    "lat":35.707985,
    "lon":139.373463
  },
  {
    "id":607,
    "name":"めりーらいふ",
    "address":"昭島市東町４－９－３",
    "lat":35.701225,
    "lon":139.390314
  },
  {
    "id":608,
    "name":"特定非営利活動法人にこにこ",
    "address":"昭島市玉川町３－１７－１３",
    "lat":35.704903,
    "lon":139.382626
  },
  {
    "id":609,
    "name":"地域生活支援センター希望ヶ丘",
    "address":"調布市東つつじケ丘２－２９－１",
    "lat":35.656341,
    "lon":139.576819
  },
  {
    "id":610,
    "name":"ちょうふだぞう",
    "address":"調布市国領町３－１９－１",
    "lat":35.651716,
    "lon":139.56164
  },
  {
    "id":611,
    "name":"エアリ",
    "address":"調布市国領町１－４０－６　モンターニュ国領３０８",
    "lat":35.650377,
    "lon":139.556016
  },
  {
    "id":612,
    "name":"社会福祉法人調布市社会福祉協議会相談支援事業所調布市こころの健康支援センター",
    "address":"調布市布田５－４６－１",
    "lat":35.645684,
    "lon":139.54184
  },
  {
    "id":613,
    "name":"社会福祉法人調布市社会福祉協議会相談支援事業所ドルチェ",
    "address":"調布市小島町２－４７－１",
    "lat":35.651397,
    "lon":139.542753
  },
  {
    "id":614,
    "name":"銀河ケアサービス",
    "address":"調布市小島町１－２１－６　アジャンタ調布２０５",
    "lat":35.654599,
    "lon":139.54047
  },
  {
    "id":615,
    "name":"ＣＩＬちょうふ",
    "address":"調布市小島町２－２１－５　１階",
    "lat":35.650986,
    "lon":139.538804
  },
  {
    "id":616,
    "name":"プラントシード",
    "address":"調布市小島町１－２２－７",
    "lat":35.654638,
    "lon":139.540153
  },
  {
    "id":617,
    "name":"ケア２１　調布",
    "address":"調布市小島町２－５１－９　高野ビル３０１",
    "lat":35.65028,
    "lon":139.543195
  },
  {
    "id":618,
    "name":"調布市子ども発達センター",
    "address":"調布市西町２９０－４９",
    "lat":35.666277,
    "lon":139.522529
  },
  {
    "id":619,
    "name":"調布市福祉健康部障害福祉課",
    "address":"調布市小島町２－３５－１",
    "lat":35.650627,
    "lon":139.540682
  },
  {
    "id":620,
    "name":"はる風",
    "address":"町田市金森６－７－２１",
    "lat":35.525428,
    "lon":139.458353
  },
  {
    "id":621,
    "name":"障害者生活支援センターまちだや",
    "address":"町田市原町田２－２２－２６　プリモ・レガーロ町田１Ｆ",
    "lat":35.538918,
    "lon":139.453845
  },
  {
    "id":622,
    "name":"町田相談支援センター・ビギン",
    "address":"町田市原町田５－４－１９",
    "lat":35.544781,
    "lon":139.449459
  },
  {
    "id":623,
    "name":"パーソナルアシスタント町田",
    "address":"町田市原町田４－１８－６　マーブルパレス１０２",
    "lat":35.543537,
    "lon":139.451209
  },
  {
    "id":624,
    "name":"合掌苑障がい者支援センター",
    "address":"町田市金森東４－２－２５",
    "lat":35.527295,
    "lon":139.464736
  },
  {
    "id":625,
    "name":"町田市すみれ教室",
    "address":"町田市中町２－１３－１４",
    "lat":35.551569,
    "lon":139.444459
  },
  {
    "id":626,
    "name":"千手　町田",
    "address":"町田市中町１－１５－９　ＡＵビル２０３",
    "lat":35.546953,
    "lon":139.446445
  },
  {
    "id":627,
    "name":"相談支援事業所うらら",
    "address":"町田市森野２－４－１４　メゾンボヌール１０１",
    "lat":35.547266,
    "lon":139.437668
  },
  {
    "id":628,
    "name":"相談支援センターアイケア",
    "address":"町田市旭町２－１２－２",
    "lat":35.557835,
    "lon":139.435735
  },
  {
    "id":629,
    "name":"みずきの会ケアマネクラブ",
    "address":"町田市本町田２７９７",
    "lat":35.566426,
    "lon":139.445584
  },
  {
    "id":630,
    "name":"グリーングラス相談支援事業",
    "address":"町田市忠生２－３１－１４　メゾンＮ＆Ｂ３０３",
    "lat":35.579752,
    "lon":139.419308
  },
  {
    "id":631,
    "name":"相談支援センター　ポンテ",
    "address":"町田市木曽西２－１７－１６",
    "lat":35.570011,
    "lon":139.415397
  },
  {
    "id":632,
    "name":"地の星なんでも相談室",
    "address":"町田市成瀬８－９－１４",
    "lat":35.543107,
    "lon":139.468416
  },
  {
    "id":633,
    "name":"相談支援事業かけはし",
    "address":"町田市下小山田町３２６７－２",
    "lat":35.585665,
    "lon":139.410634
  },
  {
    "id":634,
    "name":"とびら",
    "address":"町田市図師町１６７７－１",
    "lat":35.581057,
    "lon":139.418386
  },
  {
    "id":635,
    "name":"相談支援センター　すばる町田",
    "address":"町田市図師町９７１－２",
    "lat":35.581013,
    "lon":139.413164
  },
  {
    "id":636,
    "name":"相談支援センター　あい羽",
    "address":"町田市図師町１３３２－１５",
    "lat":35.581729,
    "lon":139.420808
  },
  {
    "id":637,
    "name":"相談支援センターさくら",
    "address":"町田市小山町１２３４－１",
    "lat":35.596271,
    "lon":139.374872
  },
  {
    "id":638,
    "name":"ＡＴＯＭ相談支援事業",
    "address":"町田市能ヶ谷３－２－１　鶴川地域コミュニティ１階",
    "lat":35.584706,
    "lon":139.486018
  },
  {
    "id":639,
    "name":"つるかわ学園相談支援センター　こころ",
    "address":"町田市野津田町８５１－１",
    "lat":35.588227,
    "lon":139.451627
  },
  {
    "id":640,
    "name":"共働学舎相談室",
    "address":"町田市小野路町１７３３",
    "lat":35.594756,
    "lon":139.449455
  },
  {
    "id":641,
    "name":"小金井市児童発達支援センター　きらり",
    "address":"小金井市梶野町１－２－３",
    "lat":35.701987,
    "lon":139.528755
  },
  {
    "id":642,
    "name":"小金井市障害者地域自立生活支援センター",
    "address":"小金井市緑町４－１７－１０",
    "lat":35.708678,
    "lon":139.517392
  },
  {
    "id":643,
    "name":"小金井市精神障害者地域生活支援センターそら",
    "address":"小金井市本町１－１８－５　村松ビル小金井３階",
    "lat":35.700227,
    "lon":139.507313
  },
  {
    "id":644,
    "name":"にこにこパートナーズ",
    "address":"小金井市本町１－２－２０　ＢＬＤ５５　２０５号",
    "lat":35.698646,
    "lon":139.511179
  },
  {
    "id":645,
    "name":"ケアマネジメントセンターうてな",
    "address":"小金井市本町５－３７－８",
    "lat":35.704339,
    "lon":139.504332
  },
  {
    "id":646,
    "name":"ふらっとヨハネ",
    "address":"小金井市東町５－２４－３",
    "lat":35.693072,
    "lon":139.520959
  },
  {
    "id":647,
    "name":"ＮＰＯ法人Ｐａｓｓｏ　ａ　ｐａｓｓｏ",
    "address":"小金井市前原町３－４１－２８",
    "lat":35.698218,
    "lon":139.505705
  },
  {
    "id":648,
    "name":"合同会社いちいちのはな",
    "address":"小金井市前原町４－２－１－２１４　ウエスト小金井",
    "lat":35.684308,
    "lon":139.501894
  },
  {
    "id":649,
    "name":"武蔵野中央病院相談支援事業所",
    "address":"小金井市東町１丁目４４－２６",
    "lat":35.693905,
    "lon":139.52995
  },
  {
    "id":650,
    "name":"サポートみらい",
    "address":"小平市大沼町２－１－３",
    "lat":35.738679,
    "lon":139.492543
  },
  {
    "id":651,
    "name":"テラスこだいら",
    "address":"小平市花小金井８－１－１０",
    "lat":35.731692,
    "lon":139.50204
  },
  {
    "id":652,
    "name":"障害者相談支援センター・ぴありす",
    "address":"小平市花小金井南町１８－４５－１０－１階",
    "lat":35.725029,
    "lon":139.511792
  },
  {
    "id":653,
    "name":"小平市立あおぞら福祉センター",
    "address":"小平市鈴木町１－４７２",
    "lat":35.719829,
    "lon":139.497918
  },
  {
    "id":654,
    "name":"地域生活支援センターあさやけ",
    "address":"小平市小川東町４－２－１　小平元気村おがわ東１階",
    "lat":35.740151,
    "lon":139.474067
  },
  {
    "id":655,
    "name":"曙光園　特定相談支援事業所",
    "address":"小平市小川町１－５９０",
    "lat":35.725399,
    "lon":139.444864
  },
  {
    "id":656,
    "name":"地域生活支援センター澄水",
    "address":"小平市小川町１－４８５",
    "lat":35.727651,
    "lon":139.440373
  },
  {
    "id":657,
    "name":"あい",
    "address":"小平市小川西町５－２２－１２",
    "lat":35.734376,
    "lon":139.458429
  },
  {
    "id":658,
    "name":"小平市立障害者福祉センター",
    "address":"小平市小川西町５－２５－１５",
    "lat":35.736612,
    "lon":139.458943
  },
  {
    "id":659,
    "name":"なんでも相談いるおーる",
    "address":"小平市仲町２６９－１",
    "lat":35.730897,
    "lon":139.490468
  },
  {
    "id":660,
    "name":"スカイサポートセンター",
    "address":"小平市仲町３５７－６",
    "lat":35.728267,
    "lon":139.489696
  },
  {
    "id":661,
    "name":"小平市障がい者地域自立生活支援センター",
    "address":"小平市学園東町１－１９－１３　小平市福祉会館内",
    "lat":35.726567,
    "lon":139.478114
  },
  {
    "id":662,
    "name":"指定特定相談事業所ほっとぽむ",
    "address":"日野市栄町２－２－１５　シティハイム日野１０１号",
    "lat":35.681775,
    "lon":139.390732
  },
  {
    "id":663,
    "name":"なごみ在宅介護サービス日野",
    "address":"日野市新町１－５－３５　大沢新町ビル２階",
    "lat":35.681356,
    "lon":139.391165
  },
  {
    "id":664,
    "name":"地域相談室ぽらりす",
    "address":"日野市日野本町３－１３－１４",
    "lat":35.6786,
    "lon":139.396073
  },
  {
    "id":665,
    "name":"地域生活支援センターゆうき",
    "address":"日野市高幡８６４－１５",
    "lat":35.663891,
    "lon":139.409439
  },
  {
    "id":666,
    "name":"日野市障害者生活支援センター　ぴあ・たかはた",
    "address":"日野市高幡２－９　ウィステリアガーデン１階",
    "lat":35.662136,
    "lon":139.411872
  },
  {
    "id":667,
    "name":"プラン湧水路",
    "address":"日野市百草１０４２－２０　石坂ビル２Ｆ",
    "lat":35.646305,
    "lon":139.424588
  },
  {
    "id":668,
    "name":"相談支援ステーション　ほたる",
    "address":"日野市落川２４５－１",
    "lat":35.661651,
    "lon":139.430623
  },
  {
    "id":669,
    "name":"地域生活相談室おあしす",
    "address":"日野市程久保８７２－１",
    "lat":35.651401,
    "lon":139.415328
  },
  {
    "id":670,
    "name":"ここななお",
    "address":"日野市多摩平２－５－１",
    "lat":35.66268,
    "lon":139.379817
  },
  {
    "id":671,
    "name":"光の家相談支援事業所",
    "address":"日野市旭が丘１－１７－１７",
    "lat":35.656652,
    "lon":139.372803
  },
  {
    "id":672,
    "name":"やまばと",
    "address":"日野市旭が丘２－４２－５",
    "lat":35.663135,
    "lon":139.369165
  },
  {
    "id":673,
    "name":"日野市発達・教育支援センター",
    "address":"日野市旭が丘２－４２－８",
    "lat":35.662991,
    "lon":139.368756
  },
  {
    "id":674,
    "name":"コロニー障害者計画相談支援室",
    "address":"東村山市秋津町２－２２－９",
    "lat":35.768765,
    "lon":139.487895
  },
  {
    "id":675,
    "name":"相談支援室アシスト",
    "address":"東村山市秋津町２－３２－１５",
    "lat":35.770684,
    "lon":139.488795
  },
  {
    "id":676,
    "name":"秋津療育園相談支援センター",
    "address":"東村山市青葉町３－３１－１",
    "lat":35.769818,
    "lon":139.495492
  },
  {
    "id":677,
    "name":"くおりあ相談室",
    "address":"東村山市久米川町３－１２－７",
    "lat":35.766095,
    "lon":139.47301
  },
  {
    "id":678,
    "name":"東京都社会福祉事業団東村山相談支援事業所",
    "address":"東村山市萩山町１－３５－１",
    "lat":35.737102,
    "lon":139.482663
  },
  {
    "id":679,
    "name":"相談支援事業所　ふわり",
    "address":"東村山市萩山町１－３５－１　東京都東村山福祉園内",
    "lat":35.737102,
    "lon":139.482663
  },
  {
    "id":680,
    "name":"相談支援センター　こだま",
    "address":"東村山市栄町２－９－３２　晃正プラザ３０３",
    "lat":35.749458,
    "lon":139.471716
  },
  {
    "id":681,
    "name":"地域生活支援センターふれあいの郷",
    "address":"東村山市本町２－８－２　プイラムビル２０７",
    "lat":35.763412,
    "lon":139.466755
  },
  {
    "id":682,
    "name":"みのり障害生活支援センター",
    "address":"東村山市本町２－２４－１　ラヴィアンオランジュ１１０号",
    "lat":35.759163,
    "lon":139.469633
  },
  {
    "id":683,
    "name":"相談支援事業所トビラ",
    "address":"東村山市富士見町３－４－１６",
    "lat":35.748711,
    "lon":139.454413
  },
  {
    "id":684,
    "name":"さやま園相談支援事業所",
    "address":"東村山市富士見町２－７－１３",
    "lat":35.740334,
    "lon":139.454216
  },
  {
    "id":685,
    "name":"地域活動支援センター虹",
    "address":"国分寺市戸倉４－１４　福祉センター内",
    "lat":35.708513,
    "lon":139.455311
  },
  {
    "id":686,
    "name":"こどもの発達センターつくしんぼ",
    "address":"国分寺市戸倉３－１－１",
    "lat":35.707935,
    "lon":139.455022
  },
  {
    "id":687,
    "name":"あいうぃ・生活サポートセンター",
    "address":"国分寺市西恋ケ窪２－２１－１５",
    "lat":35.701319,
    "lon":139.463197
  },
  {
    "id":688,
    "name":"地域生活支援センタープラッツ",
    "address":"国分寺市南町３－４－４",
    "lat":35.697787,
    "lon":139.478868
  },
  {
    "id":689,
    "name":"ヘルパーステーションびいと",
    "address":"国分寺市西元町３－６－１４",
    "lat":35.689448,
    "lon":139.469341
  },
  {
    "id":690,
    "name":"地域活動支援センターつばさ",
    "address":"国分寺市泉町２－３－８",
    "lat":35.696398,
    "lon":139.468855
  },
  {
    "id":691,
    "name":"相談支援事業所のぞみ",
    "address":"国分寺市光町２－１９－１２　１階",
    "lat":35.704462,
    "lon":139.437816
  },
  {
    "id":692,
    "name":"ピアス",
    "address":"国立市富士見台１－１７－４",
    "lat":35.681338,
    "lon":139.447816
  },
  {
    "id":693,
    "name":"相談支援エプシロン",
    "address":"国立市富士見台２－１６－４　トーコービル４０６",
    "lat":35.681835,
    "lon":139.44606
  },
  {
    "id":694,
    "name":"指定相談支援事業所福祉サポートライン",
    "address":"国立市中１－１８－３５　国立ヒルズ１０１",
    "lat":35.696469,
    "lon":139.442493
  },
  {
    "id":695,
    "name":"ケアプランセンターたまぷらねっと",
    "address":"国立市中１－１４－３０－１",
    "lat":35.69705,
    "lon":139.44216
  },
  {
    "id":696,
    "name":"ハッピーテラス国立",
    "address":"国立市北１－５－８　プラース壱番館２階　店舗Ｅ",
    "lat":35.699974,
    "lon":139.44686
  },
  {
    "id":697,
    "name":"相談支援事業ルピナス",
    "address":"国立市西２－２０－１０　第２村上ビル２階",
    "lat":35.693372,
    "lon":139.436072
  },
  {
    "id":698,
    "name":"相談支援センター「みなも」",
    "address":"国立市谷保６３１２",
    "lat":35.680959,
    "lon":139.429501
  },
  {
    "id":699,
    "name":"指定障害者相談支援事業所　国立",
    "address":"国立市谷保３１４０",
    "lat":35.676701,
    "lon":139.428187
  },
  {
    "id":700,
    "name":"ともにーサポート",
    "address":"国立市泉５－２０－４",
    "lat":35.677954,
    "lon":139.43815
  },
  {
    "id":701,
    "name":"福生市社会福祉協議会",
    "address":"福生市南田園２－１３－１",
    "lat":35.727485,
    "lon":139.332271
  },
  {
    "id":702,
    "name":"相談支援センター　ウィステリア福生",
    "address":"福生市福生２１６９－２　ウィステリア福生",
    "lat":35.744697,
    "lon":139.336445
  },
  {
    "id":703,
    "name":"特定非営利活動法人　青少年自立援助センター　ジョブスペース游",
    "address":"福生市福生字武蔵野２３５１－１",
    "lat":35.739606,
    "lon":139.337988
  },
  {
    "id":704,
    "name":"麦わら帽子",
    "address":"福生市大字福生２１２５－３",
    "lat":35.744127,
    "lon":139.334232
  },
  {
    "id":705,
    "name":"介護センター　みらい",
    "address":"福生市加美平２－１－１３",
    "lat":35.745674,
    "lon":139.325585
  },
  {
    "id":706,
    "name":"地域活動支援センターハッピーウイング",
    "address":"福生市東町６－８　ＭＥビル３階",
    "lat":35.744,
    "lon":139.327785
  },
  {
    "id":707,
    "name":"やなぎ社会福祉事務所",
    "address":"福生市志茂１６９－１　ライオンズマンション福生１０５",
    "lat":35.737823,
    "lon":139.329216
  },
  {
    "id":708,
    "name":"地域生活支援センターリヒト",
    "address":"狛江市元和泉２－３５－１　あいとぴあセンター３階",
    "lat":35.6333,
    "lon":139.567777
  },
  {
    "id":709,
    "name":"狛江市特定相談支援事業所サポート",
    "address":"狛江市元和泉２－３５－１　あいとぴあセンター内",
    "lat":35.6333,
    "lon":139.567777
  },
  {
    "id":710,
    "name":"相談支援センターみずき",
    "address":"狛江市東和泉１－３２－２１",
    "lat":35.6304,
    "lon":139.575946
  },
  {
    "id":711,
    "name":"相談支援にじ",
    "address":"東大和市清水３－８５５－２",
    "lat":35.753549,
    "lon":139.443224
  },
  {
    "id":712,
    "name":"東大和市立やまとあけぼの学園",
    "address":"東大和市新堀１－１５２３－２",
    "lat":35.741078,
    "lon":139.45173
  },
  {
    "id":713,
    "name":"特定非営利活動法人自立生活センター東大和",
    "address":"東大和市南街１－２２－６　シティコート南街１階",
    "lat":35.740497,
    "lon":139.43169
  },
  {
    "id":714,
    "name":"東大和市精神障害者地域生活支援センター",
    "address":"東大和市中央３－９１２－３",
    "lat":35.746638,
    "lon":139.427398
  },
  {
    "id":715,
    "name":"はるもにあ",
    "address":"東大和市中央２－１１０１－４３　中央コーポ",
    "lat":35.742638,
    "lon":139.431595
  },
  {
    "id":716,
    "name":"イコールケアマネセンター",
    "address":"東大和市仲原１－６－２",
    "lat":35.743644,
    "lon":139.444269
  },
  {
    "id":717,
    "name":"東大和市総合福祉センターは～とふる",
    "address":"東大和市桜が丘２－５３－６",
    "lat":35.734917,
    "lon":139.41938
  },
  {
    "id":718,
    "name":"地域生活支援センターどんぐり",
    "address":"清瀬市元町１－１３－２４",
    "lat":35.774373,
    "lon":139.518123
  },
  {
    "id":719,
    "name":"清瀬市社会福祉協議会相談支援事業所",
    "address":"清瀬市上清戸１－１６－６２",
    "lat":35.773265,
    "lon":139.527664
  },
  {
    "id":720,
    "name":"東京アフターケア協会相談支援事業所",
    "address":"清瀬市松山２－１８－２",
    "lat":35.774134,
    "lon":139.511501
  },
  {
    "id":721,
    "name":"たまみずき相談支援事業所　清瀬",
    "address":"清瀬市松山２－２－１５　清瀬シティハイム２階",
    "lat":35.769838,
    "lon":139.516287
  },
  {
    "id":722,
    "name":"株式会社みのり",
    "address":"清瀬市松山２－５－２０　Ａ－１０１",
    "lat":35.770685,
    "lon":139.515484
  },
  {
    "id":723,
    "name":"清瀬市子どもの発達支援・交流センター",
    "address":"清瀬市竹丘１－１５－８",
    "lat":35.76811,
    "lon":139.511101
  },
  {
    "id":724,
    "name":"清瀬療護園障害者相談支援センター",
    "address":"清瀬市竹丘３－１－７２",
    "lat":35.764535,
    "lon":139.504321
  },
  {
    "id":725,
    "name":"日本社会事業大学附属子ども学園",
    "address":"清瀬市梅園１－２－５０",
    "lat":35.773956,
    "lon":139.50729
  },
  {
    "id":726,
    "name":"相談支援センター　ひだまり",
    "address":"清瀬市梅園３－１－３０",
    "lat":35.769584,
    "lon":139.502644
  },
  {
    "id":727,
    "name":"モナモナ相談支援センター",
    "address":"東久留米市神宝町２－１４－２３",
    "lat":35.768738,
    "lon":139.544282
  },
  {
    "id":728,
    "name":"ライフパートナーこぶし",
    "address":"東久留米市氷川台２－３１－１９",
    "lat":35.768602,
    "lon":139.531183
  },
  {
    "id":729,
    "name":"広域地域ケアセンター　バオバブ",
    "address":"東久留米市大門町２－１３－１１",
    "lat":35.763722,
    "lon":139.54289
  },
  {
    "id":730,
    "name":"すぎのこ相談室",
    "address":"東久留米市大門町２－１３－１１",
    "lat":35.763722,
    "lon":139.54289
  },
  {
    "id":731,
    "name":"自立生活センターグッドライフ",
    "address":"東久留米市東本町１４－７　滝ビル１階",
    "lat":35.762608,
    "lon":139.535341
  },
  {
    "id":732,
    "name":"相談支援センター　武蔵野の里",
    "address":"東久留米市東本町１２－９　貫井総業ビル２０１",
    "lat":35.763591,
    "lon":139.535596
  },
  {
    "id":733,
    "name":"東久留米市立わかくさ学園発達相談室",
    "address":"東久留米市南沢２－２０－５１",
    "lat":35.749635,
    "lon":139.531389
  },
  {
    "id":734,
    "name":"相談ステーションむくむく",
    "address":"東久留米市南町４－１０－２６",
    "lat":35.746057,
    "lon":139.520471
  },
  {
    "id":735,
    "name":"相談支援センターくるみ",
    "address":"東久留米市南町４－９－２１",
    "lat":35.744366,
    "lon":139.52214
  },
  {
    "id":736,
    "name":"相談支援事業所　すばる",
    "address":"東久留米市前沢５－５－８",
    "lat":35.740594,
    "lon":139.512052
  },
  {
    "id":737,
    "name":"特定相談支援事業所　コイノニア",
    "address":"東久留米市八幡町２－１２－１５　八幡町コイノニアホーム２０３",
    "lat":35.75582,
    "lon":139.512493
  },
  {
    "id":738,
    "name":"東久留米市地域生活支援センターめるくまーる",
    "address":"東久留米市幸町３－６－２　アトモスビル１階",
    "lat":35.756523,
    "lon":139.519954
  },
  {
    "id":739,
    "name":"東久留米市立さいわい福祉センター",
    "address":"東久留米市幸町３－９－２８",
    "lat":35.759047,
    "lon":139.519284
  },
  {
    "id":740,
    "name":"イリアンソス相談支援センター",
    "address":"東久留米市幸町３－８－２３",
    "lat":35.758264,
    "lon":139.51912
  },
  {
    "id":741,
    "name":"相談支援事業所　まいんど",
    "address":"東久留米市本町１－１０－２２",
    "lat":35.757725,
    "lon":139.535255
  },
  {
    "id":742,
    "name":"相談支援センターぬくもり",
    "address":"東久留米市中央町２－１－４　清美荘１０２号",
    "lat":35.757328,
    "lon":139.523606
  },
  {
    "id":743,
    "name":"武蔵村山市精神障害者地域活動支援センターお伊勢の森",
    "address":"武蔵村山市学園４－５－１　武蔵村山市民総合センター２階",
    "lat":35.746304,
    "lon":139.403259
  },
  {
    "id":744,
    "name":"武蔵村山市社会福祉協議会特定相談支援事業所",
    "address":"武蔵村山市学園４－５－１",
    "lat":35.746304,
    "lon":139.403259
  },
  {
    "id":745,
    "name":"東京小児療育病院地域支援センター",
    "address":"武蔵村山市学園４－１０－１",
    "lat":35.744062,
    "lon":139.398104
  },
  {
    "id":746,
    "name":"相談支援センター　クローバー",
    "address":"武蔵村山市学園１－１１２－８　エステート武蔵村山２０５",
    "lat":35.746232,
    "lon":139.396723
  },
  {
    "id":747,
    "name":"相談支援事業所みつふじ",
    "address":"武蔵村山市三ツ藤２－３４－１",
    "lat":35.752636,
    "lon":139.376733
  },
  {
    "id":748,
    "name":"あかつきコロニー相談支援センター",
    "address":"武蔵村山市伊奈平１－６４－１",
    "lat":35.74547,
    "lon":139.377814
  },
  {
    "id":749,
    "name":"れすと相談支援センター",
    "address":"多摩市和田１８７０－２",
    "lat":35.64695,
    "lon":139.433824
  },
  {
    "id":750,
    "name":"マルシェたま　障害者相談支援事業所",
    "address":"多摩市関戸４－１９－５　市立健康センター４階",
    "lat":35.649044,
    "lon":139.449511
  },
  {
    "id":751,
    "name":"相談支援センター　あゆーと",
    "address":"多摩市貝取４－３－１－１１０",
    "lat":35.61459,
    "lon":139.438525
  },
  {
    "id":752,
    "name":"社会福祉法人桜ヶ丘社会事業協会桜ヶ丘記念病院",
    "address":"多摩市連光寺１－１－１",
    "lat":35.647819,
    "lon":139.457608
  },
  {
    "id":753,
    "name":"相談支援センター　くぬぎ",
    "address":"多摩市永山３－９　東永山複合施設内",
    "lat":35.623381,
    "lon":139.449454
  },
  {
    "id":754,
    "name":"社会福祉法人多摩市社会福祉協議会",
    "address":"多摩市南野３－１５－１",
    "lat":35.612536,
    "lon":139.412677
  },
  {
    "id":755,
    "name":"特定非営利活動法人多摩市障害者福祉協会",
    "address":"多摩市南野３－１５－１　総合福祉センター５階　障害者団体共用室",
    "lat":35.612536,
    "lon":139.412677
  },
  {
    "id":756,
    "name":"啓光相談支援センター",
    "address":"多摩市南野３－１５－１　多摩市総合福祉センター１階",
    "lat":35.612536,
    "lon":139.412677
  },
  {
    "id":757,
    "name":"おもと介護多摩事業所",
    "address":"多摩市落合１－１－３０",
    "lat":35.627399,
    "lon":139.427381
  },
  {
    "id":758,
    "name":"相談支援センター　しまだ",
    "address":"多摩市中沢１－３１－１",
    "lat":35.621988,
    "lon":139.411496
  },
  {
    "id":759,
    "name":"ベック多摩",
    "address":"多摩市愛宕４－９－７　ハロッズプラザ１０６",
    "lat":35.628824,
    "lon":139.429069
  },
  {
    "id":760,
    "name":"相談支援センターぽわん",
    "address":"多摩市愛宕４－９－２２　池田ビル２階２０３号室",
    "lat":35.628657,
    "lon":139.428953
  },
  {
    "id":761,
    "name":"稲城市障害者総合相談センターマルシェいなぎ",
    "address":"稲城市東長沼２１０７－３　ヒルテラス稲城１０３",
    "lat":35.638601,
    "lon":139.505008
  },
  {
    "id":762,
    "name":"ケアセンターあんさんぶる稲城",
    "address":"稲城市東長沼８７０　エクセル松本２０３",
    "lat":35.646561,
    "lon":139.502246
  },
  {
    "id":763,
    "name":"社会福祉法人稲城市社会福祉協議会",
    "address":"稲城市百村７",
    "lat":35.639609,
    "lon":139.499861
  },
  {
    "id":764,
    "name":"相談支援センターまはろ",
    "address":"稲城市矢野口５４１　美里コーポ１０１",
    "lat":35.638471,
    "lon":139.521587
  },
  {
    "id":765,
    "name":"相談支援事業所I-Me（ｱｲﾐ―）",
    "address":"羽村市小作台５－１－１　ルミエール・シモダ１０６",
    "lat":35.773737,
    "lon":139.299397
  },
  {
    "id":766,
    "name":"羽村市社会福祉協議会　特定相談支援事業　あおば",
    "address":"羽村市栄町２－１８－１　羽村市福祉センター内",
    "lat":35.770621,
    "lon":139.313052
  },
  {
    "id":767,
    "name":"指定特定相談支援事業所　ゆい",
    "address":"羽村市栄町３－３－１",
    "lat":35.772354,
    "lon":139.31293
  },
  {
    "id":768,
    "name":"相談支援事業所つむぎ",
    "address":"羽村市羽西３－３－１",
    "lat":35.77374,
    "lon":139.296461
  },
  {
    "id":769,
    "name":"障がい者相談支援センターいまここ",
    "address":"あきる野市秋川１－１２－１　エスポワールⅢ番館１－Ｂ",
    "lat":35.729386,
    "lon":139.288155
  },
  {
    "id":770,
    "name":"あきる野市障害者相談支援センター",
    "address":"あきる野市二宮６７０－５　秋川健康会館１階",
    "lat":35.729398,
    "lon":139.30241
  },
  {
    "id":771,
    "name":"をとん",
    "address":"あきる野市油平９８番地　第一中村ビル３０１号",
    "lat":35.726045,
    "lon":139.287958
  },
  {
    "id":772,
    "name":"株式会社ひまわり",
    "address":"あきる野市二宮２２６７",
    "lat":35.729345,
    "lon":139.313553
  },
  {
    "id":773,
    "name":"悠優ヘルパーセンター",
    "address":"あきる野市野辺３０５－６",
    "lat":35.722785,
    "lon":139.312326
  },
  {
    "id":774,
    "name":"ケアサポートセンターかしの木",
    "address":"あきる野市雨間２５４－６　センターヴィレッジ５０１",
    "lat":35.728522,
    "lon":139.290844
  },
  {
    "id":775,
    "name":"西多摩地域生活相談室",
    "address":"あきる野市下代継９４－６",
    "lat":35.727103,
    "lon":139.281845
  },
  {
    "id":776,
    "name":"上代継在宅地域支援センター",
    "address":"あきる野市上代継８４－６",
    "lat":35.730411,
    "lon":139.27824
  },
  {
    "id":777,
    "name":"たまみずき相談支援ひばり",
    "address":"西東京市北原町１－３８－２",
    "lat":35.738011,
    "lon":139.545997
  },
  {
    "id":778,
    "name":"さくらの園",
    "address":"西東京市西原町４－５－６　西東京市西原総合教育施設内",
    "lat":35.737214,
    "lon":139.528381
  },
  {
    "id":779,
    "name":"自立生活企画",
    "address":"西東京市田無町５－６－２０　第２和光ビル２０２",
    "lat":35.732042,
    "lon":139.537392
  },
  {
    "id":780,
    "name":"地域活動支援センター　ハーモニー",
    "address":"西東京市田無町４－１７－１４",
    "lat":35.729365,
    "lon":139.535556
  },
  {
    "id":781,
    "name":"地域活動支援センター　ブルーム",
    "address":"西東京市田無町５－５－１２",
    "lat":35.731809,
    "lon":139.536209
  },
  {
    "id":782,
    "name":"株式会社ケアワーク北多摩",
    "address":"西東京市田無町５－８－１５",
    "lat":35.731681,
    "lon":139.539281
  },
  {
    "id":783,
    "name":"相談支援センターたなし",
    "address":"西東京市田無町３－３－７－８０１",
    "lat":35.731506,
    "lon":139.54067
  },
  {
    "id":784,
    "name":"ミモザ",
    "address":"西東京市南町１－１４－１３－２０３",
    "lat":35.726166,
    "lon":139.545603
  },
  {
    "id":785,
    "name":"ととろクラブ　相談室",
    "address":"西東京市芝久保町２－２２－３２－２０５",
    "lat":35.726248,
    "lon":139.52061
  },
  {
    "id":786,
    "name":"ＹＬひばりが丘相談所",
    "address":"西東京市ひばりが丘北３－４－３－３０４",
    "lat":35.752357,
    "lon":139.546393
  },
  {
    "id":787,
    "name":"テラスこだいら",
    "address":"西東京市住吉町６－１４－７",
    "lat":35.744727,
    "lon":139.552068
  },
  {
    "id":788,
    "name":"相談室　こころ",
    "address":"西東京市住吉町３－１２－１９",
    "lat":35.750249,
    "lon":139.547429
  },
  {
    "id":789,
    "name":"相談支援事業所スワロウ",
    "address":"西東京市東町４－１０－２３　フレックスヴィラ１１０号",
    "lat":35.744336,
    "lon":139.566167
  },
  {
    "id":790,
    "name":"保谷障害者福祉センター",
    "address":"西東京市保谷町１－６－２０",
    "lat":35.734651,
    "lon":139.556374
  },
  {
    "id":791,
    "name":"相談支援事業所　ポラリス",
    "address":"西東京市新町１－１４－１０",
    "lat":35.714883,
    "lon":139.54427
  },
  {
    "id":792,
    "name":"社会福祉法人瑞穂町社会福祉協議会",
    "address":"西多摩郡瑞穂町石畑２００８",
    "lat":35.774469,
    "lon":139.357198
  },
  {
    "id":793,
    "name":"地域活動支援センター　ひまわり",
    "address":"西多摩郡瑞穂町箱根ケ崎８０６－１",
    "lat":35.78099,
    "lon":139.344835
  },
  {
    "id":794,
    "name":"フラップ",
    "address":"西多摩郡瑞穂町箱根ケ崎字武蔵野９４０",
    "lat":35.791888,
    "lon":139.331985
  },
  {
    "id":795,
    "name":"相談　日の出舎",
    "address":"西多摩郡日の出町平井３０３０",
    "lat":35.748197,
    "lon":139.258566
  },
  {
    "id":796,
    "name":"太陽の家相談支援センター",
    "address":"西多摩郡日の出町平井２７３７",
    "lat":35.741734,
    "lon":139.257019
  },
  {
    "id":797,
    "name":"あるって",
    "address":"西多摩郡日の出町平井３２６１－２",
    "lat":35.74192,
    "lon":139.259791
  },
  {
    "id":798,
    "name":"ひのきのその",
    "address":"西多摩郡檜原村５３５４－６",
    "lat":35.725814,
    "lon":139.159673
  },
  {
    "id":799,
    "name":"相談支援事業所「つづみ草」",
    "address":"西多摩郡奥多摩町氷川９５４－１１",
    "lat":35.803526,
    "lon":139.092192
  },
  {
    "id":800,
    "name":"さかみち．ワークショップ奥多摩",
    "address":"西多摩郡奥多摩町海沢５６４",
    "lat":35.799398,
    "lon":139.117041
  },
  {
    "id":801,
    "name":"特定相談支援事業所おおしまふじくら",
    "address":"大島町元町字馬の背１２８番",
    "lat":34.763757,
    "lon":139.360686
  },
  {
    "id":802,
    "name":"大島恵の園　相談支援事業所めぐみ",
    "address":"大島町差木地１",
    "lat":34.690608,
    "lon":139.420234
  },
  {
    "id":803,
    "name":"相談支援　のびのび",
    "address":"八丈島八丈町大賀郷４４３６番地３５",
    "lat":33.117943,
    "lon":139.768244
  }
]