[
  {
    "id":0,
    "name":"相談支援事業所　Ｍｏｉ",
    "address":"千代田区神田神保町２－３　神田古書センタービル６階",
    "lat":35.695697,
    "lon":139.757239
  },
  {
    "id":1,
    "name":"特定非営利活動法人ホープ",
    "address":"千代田区富士見２－３－７　タカオカビル１０１",
    "lat":35.699613,
    "lon":139.745153
  },
  {
    "id":2,
    "name":"中央区立福祉センター",
    "address":"中央区明石町１２番１号",
    "lat":35.666506,
    "lon":139.777035
  },
  {
    "id":3,
    "name":"中央区立知的障害者生活支援施設レインボーハウス明石",
    "address":"中央区明石町１－６",
    "lat":35.669292,
    "lon":139.776716
  },
  {
    "id":4,
    "name":"中央区立福祉センター障害児相談支援事業所",
    "address":"中央区明石町１２－１",
    "lat":35.666506,
    "lon":139.777035
  },
  {
    "id":5,
    "name":"相談支援事業所ヒューマングロー東銀座",
    "address":"中央区築地４－１２－２　ライオンズマンション７０１",
    "lat":35.66557,
    "lon":139.771222
  },
  {
    "id":6,
    "name":"新橋はつらつ太陽",
    "address":"港区新橋６－１９－２",
    "lat":35.661192,
    "lon":139.753738
  },
  {
    "id":7,
    "name":"コスモスケアステーション",
    "address":"港区新橋６－５－４　ＤＩＫマンション新橋８０３号",
    "lat":35.662134,
    "lon":139.754418
  },
  {
    "id":8,
    "name":"ケアネスト",
    "address":"港区芝大門１－１１－９",
    "lat":35.658312,
    "lon":139.752779
  },
  {
    "id":9,
    "name":"港区立障害保健福祉センター　地域活動支援センター",
    "address":"港区芝１－８－２３",
    "lat":35.651618,
    "lon":139.755574
  },
  {
    "id":10,
    "name":"特定非営利活動法人　みなと障がい者福祉事業団",
    "address":"港区芝１－８－２３　港区立障害福祉保健センター内",
    "lat":35.651618,
    "lon":139.755574
  },
  {
    "id":11,
    "name":"社会福祉法人　家庭授産奨励会　西麻布作業所",
    "address":"港区西麻布３－１９－１６",
    "lat":35.659619,
    "lon":139.725665
  },
  {
    "id":12,
    "name":"ＧＩＦＴライフプランナー",
    "address":"港区麻布十番２－１３－２　アザブクマイビル３０２",
    "lat":35.655001,
    "lon":139.735225
  },
  {
    "id":13,
    "name":"ハッピーテラスケアサポート芝浦",
    "address":"港区芝浦４－１２－３１",
    "lat":35.640017,
    "lon":139.749103
  },
  {
    "id":14,
    "name":"訪問介護事業所エブリィ",
    "address":"港区三田２－１１－７－２０２",
    "lat":35.650176,
    "lon":139.744478
  },
  {
    "id":15,
    "name":"ケアコーディネーション",
    "address":"港区三田２－２－２７－４０４",
    "lat":35.649735,
    "lon":139.738578
  },
  {
    "id":16,
    "name":"有限会社すばる介護センター",
    "address":"港区高輪３丁目２番３号　Ｔ３２３プレイスビル２Ｆ",
    "lat":35.635553,
    "lon":139.732682
  },
  {
    "id":17,
    "name":"麻布メンタルヘルス指定相談支援事業所",
    "address":"港区高輪１－４－８",
    "lat":35.642988,
    "lon":139.734898
  },
  {
    "id":18,
    "name":"港区立精神障害者地域活動支援センター",
    "address":"港区高輪１－４－８",
    "lat":35.642988,
    "lon":139.734898
  },
  {
    "id":19,
    "name":"プロキオン",
    "address":"新宿区若葉１－４",
    "lat":35.686641,
    "lon":139.724125
  },
  {
    "id":20,
    "name":"新宿区立子ども総合センター",
    "address":"新宿区新宿７－３－２９",
    "lat":35.701003,
    "lon":139.712681
  },
  {
    "id":21,
    "name":"相談支援事業所　Ｋａｉｅｎ新宿",
    "address":"新宿区西新宿６－２－３　新宿アイランドアネックス２０７",
    "lat":35.693615,
    "lon":139.69413
  },
  {
    "id":22,
    "name":"ホートンケアサービス",
    "address":"新宿区西新宿４－３２－１１　新宿セントビラ永谷７１３号",
    "lat":35.687071,
    "lon":139.688862
  },
  {
    "id":23,
    "name":"新宿区基幹相談支援センター",
    "address":"新宿区歌舞伎町１丁目４－１　新宿区役所本庁舎２階障害者福祉課",
    "lat":35.69389,
    "lon":139.703463
  },
  {
    "id":24,
    "name":"社会福祉支援研究所",
    "address":"新宿区高田馬場１－４－２１",
    "lat":35.711094,
    "lon":139.70957
  },
  {
    "id":25,
    "name":"地域プラザ　ふらっと",
    "address":"文京区小日向２－１６－１５",
    "lat":35.710581,
    "lon":139.734582
  },
  {
    "id":26,
    "name":"タオ",
    "address":"文京区白山１－３２－１１　鈴木ビル１０１",
    "lat":35.720049,
    "lon":139.752472
  },
  {
    "id":27,
    "name":"だんござかハウス　相談支援係",
    "address":"文京区千駄木２－３３－８",
    "lat":35.724461,
    "lon":139.763135
  },
  {
    "id":28,
    "name":"相談支援事業所　リリーフ",
    "address":"文京区湯島３－２０－９－４０１",
    "lat":35.705651,
    "lon":139.767666
  },
  {
    "id":29,
    "name":"文京区児童発達支援センター",
    "address":"文京区湯島４－７－１０",
    "lat":35.708848,
    "lon":139.765768
  },
  {
    "id":30,
    "name":"特定非営利活動法人　自立生活センターたいとう",
    "address":"台東区竜泉３－１９－７　１階",
    "lat":35.725678,
    "lon":139.792452
  },
  {
    "id":31,
    "name":"つばさ相談支援センター",
    "address":"台東区台東１－２５－５　台東複合施設いきいきプラザ３階",
    "lat":35.70188,
    "lon":139.77784
  },
  {
    "id":32,
    "name":"相談支援センターほおずき",
    "address":"台東区日本堤１－３２－３",
    "lat":35.725561,
    "lon":139.796676
  },
  {
    "id":33,
    "name":"障害者支援施設　浅草ほうらい",
    "address":"台東区清川２丁目１４番地７号",
    "lat":35.72717,
    "lon":139.801304
  },
  {
    "id":34,
    "name":"相談支援センターアップル",
    "address":"台東区千束３－２０－２４",
    "lat":35.723372,
    "lon":139.792285
  },
  {
    "id":35,
    "name":"相談支援センターつなぐ",
    "address":"台東区浅草３－９－２　ランドール浅草１０２",
    "lat":35.717054,
    "lon":139.794491
  },
  {
    "id":36,
    "name":"特定非営利活動法人トータルサポートたいとう",
    "address":"台東区浅草５－１５－２",
    "lat":35.720598,
    "lon":139.795016
  },
  {
    "id":37,
    "name":"台東区松が谷福祉会館",
    "address":"台東区松が谷１丁目４番１２号",
    "lat":35.711304,
    "lon":139.785425
  },
  {
    "id":38,
    "name":"かけはし",
    "address":"台東区浅草橋１－３２－６　コスモス浅草橋酒井ビル２階",
    "lat":35.698555,
    "lon":139.785482
  },
  {
    "id":39,
    "name":"ほしのき相談支援",
    "address":"墨田区業平５－１１－１０　岩楯ビル１０２",
    "lat":35.708097,
    "lon":139.816495
  },
  {
    "id":40,
    "name":"相談支援事業所ジョイサポート",
    "address":"墨田区横川５－１０－１　プリメール柳島１１８",
    "lat":35.705555,
    "lon":139.81642
  },
  {
    "id":41,
    "name":"ハーツ相談支援事業所",
    "address":"墨田区石原３－１－１",
    "lat":35.699117,
    "lon":139.802745
  },
  {
    "id":42,
    "name":"らいふ十人会",
    "address":"墨田区緑４－５－１０",
    "lat":35.693184,
    "lon":139.806728
  },
  {
    "id":43,
    "name":"ラック鐘ヶ淵",
    "address":"墨田区東向島２－３６－１１　２０２号室",
    "lat":35.721594,
    "lon":139.818167
  },
  {
    "id":44,
    "name":"エリアサポートすみだ",
    "address":"墨田区向島３－３５－１３　ブランニューハウス１階",
    "lat":35.712666,
    "lon":139.809953
  },
  {
    "id":45,
    "name":"すみだ福祉保健センター相談支援事業所",
    "address":"墨田区向島３－３６－７",
    "lat":35.713374,
    "lon":139.810759
  },
  {
    "id":46,
    "name":"ラック立花",
    "address":"墨田区立花１－２３　２号棟１０１号室",
    "lat":35.706589,
    "lon":139.830724
  },
  {
    "id":47,
    "name":"本所相談支援事業所",
    "address":"墨田区文花３－１４－４",
    "lat":35.712011,
    "lon":139.825938
  },
  {
    "id":48,
    "name":"あしたば相談支援事業所",
    "address":"墨田区押上１－４３－３",
    "lat":35.709966,
    "lon":139.816536
  },
  {
    "id":49,
    "name":"ラックすみだ",
    "address":"墨田区京島１－４７－１７",
    "lat":35.718336,
    "lon":139.821589
  },
  {
    "id":50,
    "name":"あそかライフサービス株式会社",
    "address":"江東区住吉１－１６－１３　富士工第２ビル３階",
    "lat":35.689035,
    "lon":139.812897
  },
  {
    "id":51,
    "name":"グッドワン",
    "address":"江東区住吉１－１４－１１",
    "lat":35.688454,
    "lon":139.813466
  },
  {
    "id":52,
    "name":"乳幼児親子教室",
    "address":"江東区猿江１－１８－９－２０４",
    "lat":35.687024,
    "lon":139.811683
  },
  {
    "id":53,
    "name":"江東区こども発達扇橋センター",
    "address":"江東区扇橋３－７－２",
    "lat":35.682685,
    "lon":139.820443
  },
  {
    "id":54,
    "name":"たんぽぽクラブ",
    "address":"江東区石島５－７　深川ビル１階２０１号室",
    "lat":35.680375,
    "lon":139.811966
  },
  {
    "id":55,
    "name":"なかよし指定訪問介護事業所",
    "address":"江東区福住２－４－１",
    "lat":35.677755,
    "lon":139.79391
  },
  {
    "id":56,
    "name":"こぴあクラブ",
    "address":"江東区冬木６－２０",
    "lat":35.673386,
    "lon":139.801603
  },
  {
    "id":57,
    "name":"ライフアーク相談支援センター",
    "address":"江東区木場６－１０－６　ＴＫＹビル３階",
    "lat":35.668345,
    "lon":139.805822
  },
  {
    "id":58,
    "name":"江東区こども発達センター",
    "address":"江東区塩浜２－５－２０",
    "lat":35.661932,
    "lon":139.805383
  },
  {
    "id":59,
    "name":"あそかライフサービス　辰己営業所",
    "address":"江東区辰巳１－２－９－１０３号　辰己団地９号棟店舗",
    "lat":35.650056,
    "lon":139.808297
  },
  {
    "id":60,
    "name":"スマートキッズ江東相談支援センター",
    "address":"江東区亀戸１－３１－７",
    "lat":35.694709,
    "lon":139.825678
  },
  {
    "id":61,
    "name":"カレッジケア",
    "address":"江東区亀戸６－３０－４－１１０７号",
    "lat":35.696337,
    "lon":139.827986
  },
  {
    "id":62,
    "name":"城東訪問介護",
    "address":"江東区大島３－１５－１３",
    "lat":35.690743,
    "lon":139.828991
  },
  {
    "id":63,
    "name":"さくら・介護ステーション大島",
    "address":"江東区大島７－１０－５　梅田ビル１階",
    "lat":35.692238,
    "lon":139.838729
  },
  {
    "id":64,
    "name":"有限会社ケア・けんこう",
    "address":"江東区北砂６－１９－３",
    "lat":35.684927,
    "lon":139.838266
  },
  {
    "id":65,
    "name":"ツクイ江東北砂",
    "address":"江東区北砂６－２１－４　紅ビル２０１",
    "lat":35.684333,
    "lon":139.837918
  },
  {
    "id":66,
    "name":"江東ヘルパーステーション",
    "address":"江東区南砂２－３７－１０－４０７",
    "lat":35.670393,
    "lon":139.825453
  },
  {
    "id":67,
    "name":"相談支援事業所パルレ",
    "address":"品川区八潮５－９－１１",
    "lat":35.598211,
    "lon":139.752285
  },
  {
    "id":68,
    "name":"グロー障害者相談支援センター",
    "address":"品川区南品川５－１０－４３　楓ハイツ３階",
    "lat":35.609842,
    "lon":139.73961
  },
  {
    "id":69,
    "name":"ケアサークル恵愛障害者相談支援センター",
    "address":"品川区大井３－１７－８　大井本通りビル",
    "lat":35.602054,
    "lon":139.731203
  },
  {
    "id":70,
    "name":"ケアメイト品川居宅介護支援事業所",
    "address":"品川区西大井２－４－１４",
    "lat":35.59964,
    "lon":139.722503
  },
  {
    "id":71,
    "name":"品川区　障害者福祉課",
    "address":"品川区広町２－１－３６",
    "lat":35.608836,
    "lon":139.730241
  },
  {
    "id":72,
    "name":"目黒区児童発達支援センター　相談支援ひまわり",
    "address":"目黒区中央町２－２３－２４",
    "lat":35.630827,
    "lon":139.690941
  },
  {
    "id":73,
    "name":"アトリエそうだん",
    "address":"目黒区碑文谷１－１１－１５",
    "lat":35.621315,
    "lon":139.691005
  },
  {
    "id":74,
    "name":"福祉相談事務所　エール",
    "address":"目黒区鷹番２－２０－１３　ＲＳ牛山２０３",
    "lat":35.6294,
    "lon":139.686203
  },
  {
    "id":75,
    "name":"ナイスケア目黒相談支援センター",
    "address":"目黒区大岡山１－５－１５　ＮＣビル２階",
    "lat":35.610685,
    "lon":139.68442
  },
  {
    "id":76,
    "name":"たんぽぽの会　相談支援",
    "address":"目黒区五本木３－３２－８",
    "lat":35.629744,
    "lon":139.681284
  },
  {
    "id":77,
    "name":"ふれんず",
    "address":"目黒区中目黒５－２８－２１　ＳＶ祐天寺ビル３Ｆ",
    "lat":35.636071,
    "lon":139.694391
  },
  {
    "id":78,
    "name":"相談支援事業所ここん",
    "address":"大田区大森北５－１６－１－１３１０",
    "lat":35.580817,
    "lon":139.724043
  },
  {
    "id":79,
    "name":"相談支援　山王ケアサポート中央",
    "address":"大田区中央１－２１－５　フタバビル２０１",
    "lat":35.579814,
    "lon":139.71981
  },
  {
    "id":80,
    "name":"ＮＰＯ法人結ぶ会",
    "address":"大田区中央５－８－１４",
    "lat":35.581322,
    "lon":139.7081
  },
  {
    "id":81,
    "name":"あいりすキッズ",
    "address":"大田区西馬込１－３２－１５　共信ビル３０３",
    "lat":35.589785,
    "lon":139.70333
  },
  {
    "id":82,
    "name":"おおた相談支援センター",
    "address":"大田区東蒲田２－１－１３　アストラルＨＴＫ１２階",
    "lat":35.563,
    "lon":139.72633
  },
  {
    "id":83,
    "name":"ケア２１　大田",
    "address":"大田区蒲田４－４１－１　大熊ビル１階",
    "lat":35.559786,
    "lon":139.719042
  },
  {
    "id":84,
    "name":"TOMOソーシャルサポートネット",
    "address":"大田区蒲田１－２４－１７",
    "lat":35.564664,
    "lon":139.719511
  },
  {
    "id":85,
    "name":"障がい者相談支援事業所らっこ",
    "address":"大田区蒲田本町２－１２－１　松井ビル１階",
    "lat":35.556498,
    "lon":139.719506
  },
  {
    "id":86,
    "name":"リトル　コールケア　相談支援事業所",
    "address":"大田区南雪谷４－７－１３　１０１号室",
    "lat":35.588807,
    "lon":139.682022
  },
  {
    "id":87,
    "name":"あかしろきいろ子ども発達相談るーむ",
    "address":"大田区池上４－３０－９－３０１",
    "lat":35.573232,
    "lon":139.705203
  },
  {
    "id":88,
    "name":"麻布メンタルヘルス指定相談支援事業所大田支局",
    "address":"大田区池上６－１０－１１　遠藤ビル２０２",
    "lat":35.571371,
    "lon":139.703498
  },
  {
    "id":89,
    "name":"大田区立こども発達センターわかばの家　相談支援事業所",
    "address":"大田区千鳥３－７－５",
    "lat":35.573002,
    "lon":139.690366
  },
  {
    "id":90,
    "name":"特定相談支援事業所　ワークスタッフ鵜の木",
    "address":"大田区鵜の木２－１７－３",
    "lat":35.576165,
    "lon":139.679562
  },
  {
    "id":91,
    "name":"森の実相談室",
    "address":"大田区東矢口１－１７－１１　蓮沼ビル１階",
    "lat":35.564475,
    "lon":139.707068
  },
  {
    "id":92,
    "name":"重症心身障害児療育相談センター",
    "address":"世田谷区三宿２－３０－９",
    "lat":35.650927,
    "lon":139.672903
  },
  {
    "id":93,
    "name":"相談支援センター架け橋",
    "address":"世田谷区駒沢５－１５－１５",
    "lat":35.622558,
    "lon":139.654778
  },
  {
    "id":94,
    "name":"ナイスケア世田谷相談支援センター",
    "address":"世田谷区駒沢２－８－６",
    "lat":35.633526,
    "lon":139.659147
  },
  {
    "id":95,
    "name":"桜新町総合支援サービス",
    "address":"世田谷区新町２－７－２　富岡ビル３階",
    "lat":35.629371,
    "lon":139.650148
  },
  {
    "id":96,
    "name":"自立生活センターハンズ世田谷",
    "address":"世田谷区豪徳寺１－３２－２１　スマイルホーム豪徳寺１階",
    "lat":35.652896,
    "lon":139.649664
  },
  {
    "id":97,
    "name":"相談支援センター　かりんとう",
    "address":"世田谷区豪徳寺１－４１－６",
    "lat":35.655032,
    "lon":139.648102
  },
  {
    "id":98,
    "name":"相談支援センターわんぱく",
    "address":"世田谷区若林２－３９－２－２階",
    "lat":35.650369,
    "lon":139.662001
  },
  {
    "id":99,
    "name":"シモキタステーション",
    "address":"世田谷区代沢２－２８－８－１ＦＡ",
    "lat":35.658276,
    "lon":139.668381
  },
  {
    "id":100,
    "name":"まつばらけやき相談支援センター",
    "address":"世田谷区松原６－４３－１７　松原けやき寮内",
    "lat":35.656198,
    "lon":139.649311
  },
  {
    "id":101,
    "name":"総合福祉センター相談支援事業所",
    "address":"世田谷区松原６－４１－７",
    "lat":35.656426,
    "lon":139.649747
  },
  {
    "id":102,
    "name":"おおきなき明大前",
    "address":"世田谷区松原２－３８－９　明大前グランドハイツ１階",
    "lat":35.668519,
    "lon":139.647924
  },
  {
    "id":103,
    "name":"相棒相談支援センター",
    "address":"世田谷区松原１－３４－１９－３０６",
    "lat":35.666836,
    "lon":139.651307
  },
  {
    "id":104,
    "name":"東京総合福祉",
    "address":"世田谷区桜上水１－１－３－１０４",
    "lat":35.657842,
    "lon":139.633979
  },
  {
    "id":105,
    "name":"子どもの生活研究所",
    "address":"世田谷区船橋１－３０－９",
    "lat":35.648043,
    "lon":139.620908
  },
  {
    "id":106,
    "name":"相談支援　ここから",
    "address":"世田谷区北烏山３－１１－５",
    "lat":35.673914,
    "lon":139.60245
  },
  {
    "id":107,
    "name":"相談室にじのこ",
    "address":"世田谷区南烏山６－３－９",
    "lat":35.669459,
    "lon":139.599998
  },
  {
    "id":108,
    "name":"相談支援ルーム　きたみ",
    "address":"世田谷区喜多見８－１５－３５",
    "lat":35.635358,
    "lon":139.589372
  },
  {
    "id":109,
    "name":"オリーブ・ケア千歳台",
    "address":"世田谷区千歳台３－２８－４－１０１",
    "lat":35.65282,
    "lon":139.613172
  },
  {
    "id":110,
    "name":"相談支援センターあい",
    "address":"世田谷区祖師谷３－２１－１",
    "lat":35.642849,
    "lon":139.604615
  },
  {
    "id":111,
    "name":"世田谷区発達障害相談・療育センター相談支援事業所",
    "address":"世田谷区大蔵２－１０－１８",
    "lat":35.634633,
    "lon":139.612803
  },
  {
    "id":112,
    "name":"エムツー・サポート指定特定相談支援事業所",
    "address":"世田谷区深沢１－４１－１１－２階",
    "lat":35.6186,
    "lon":139.660203
  },
  {
    "id":113,
    "name":"相談支援事業所　青い鳥",
    "address":"世田谷区奥沢７－１２－２５－２階",
    "lat":35.607318,
    "lon":139.664042
  },
  {
    "id":114,
    "name":"なかまっち相談室",
    "address":"世田谷区中町２－１７－２１",
    "lat":35.611081,
    "lon":139.644763
  },
  {
    "id":115,
    "name":"相談支援　ツナカン",
    "address":"世田谷区瀬田１－７－１３",
    "lat":35.615014,
    "lon":139.631506
  },
  {
    "id":116,
    "name":"渋谷区子ども発達相談センター",
    "address":"渋谷区神宮前３－１８－３３",
    "lat":35.670937,
    "lon":139.709272
  },
  {
    "id":117,
    "name":"宮代学園相談支援センター",
    "address":"渋谷区広尾４－２－１２",
    "lat":35.655159,
    "lon":139.722279
  },
  {
    "id":118,
    "name":"パールケア",
    "address":"渋谷区鉢山町３－２７",
    "lat":35.652756,
    "lon":139.698709
  },
  {
    "id":119,
    "name":"渋谷区障害者福祉センター代々木の杜",
    "address":"渋谷区代々木２－３５－１",
    "lat":35.684158,
    "lon":139.697725
  },
  {
    "id":120,
    "name":"障がい者相談支援センター　樹音",
    "address":"渋谷区代々木１－３８－８－４７",
    "lat":35.682833,
    "lon":139.701116
  },
  {
    "id":121,
    "name":"障害児相談支援事業所　さち",
    "address":"渋谷区本町２－５－１１　三山ビル２階",
    "lat":35.684004,
    "lon":139.683515
  },
  {
    "id":122,
    "name":"東京総合福祉",
    "address":"渋谷区笹塚１－６１－８－８２３",
    "lat":35.673033,
    "lon":139.663545
  },
  {
    "id":123,
    "name":"社会福祉法人中野あいいく会　中部すこやか障害者相談支援事業所",
    "address":"中野区中央３－１９－１",
    "lat":35.7004,
    "lon":139.674176
  },
  {
    "id":124,
    "name":"ふらっとなかの",
    "address":"中野区本町５－４０－１４",
    "lat":35.691709,
    "lon":139.668269
  },
  {
    "id":125,
    "name":"相談支援事業所あいだっく",
    "address":"中野区本町３－１９－１１　ライフピアハラ１階",
    "lat":35.69537,
    "lon":139.674302
  },
  {
    "id":126,
    "name":"中野区療育センターゆめなりあ",
    "address":"中野区弥生町５－５－２",
    "lat":35.686165,
    "lon":139.666333
  },
  {
    "id":127,
    "name":"南部すこやか障害者相談支援事業所",
    "address":"中野区弥生町５－１１－２６",
    "lat":35.688192,
    "lon":139.668377
  },
  {
    "id":128,
    "name":"北部すこやか障害者相談支援事業所",
    "address":"中野区江古田４－３１－１０",
    "lat":35.724616,
    "lon":139.661418
  },
  {
    "id":129,
    "name":"まっしろキャンバス",
    "address":"中野区野方５－２８－１",
    "lat":35.719461,
    "lon":139.653441
  },
  {
    "id":130,
    "name":"鷺宮すこやか障害者相談支援事業所",
    "address":"中野区若宮３－５８－１０",
    "lat":35.722082,
    "lon":139.640337
  },
  {
    "id":131,
    "name":"相談支援事業所　なでしこ",
    "address":"杉並区高円寺北１－２８－１",
    "lat":35.709012,
    "lon":139.657789
  },
  {
    "id":132,
    "name":"発達支援ルーム　にこっと",
    "address":"杉並区高円寺北３－４０－１３　ＢＩＧ　ＶＡＬＬＥＹ２階",
    "lat":35.710514,
    "lon":139.64657
  },
  {
    "id":133,
    "name":"ＮＰＯ法人　すぎなみ障害者生活支援コーディネートセンター",
    "address":"杉並区高円寺南４－２７－４　高円寺ホワイトレジデンス２０２号",
    "lat":35.704132,
    "lon":139.649826
  },
  {
    "id":134,
    "name":"相談支援事業所　ＨＵＧ　はぐ",
    "address":"杉並区高円寺南４－４５－４　高円寺南サマリアマンション７０４",
    "lat":35.704921,
    "lon":139.650475
  },
  {
    "id":135,
    "name":"朝焼け相談支援事業所",
    "address":"杉並区高円寺南２－３７－１４",
    "lat":35.701307,
    "lon":139.654417
  },
  {
    "id":136,
    "name":"相談支援事業所　リリーフ",
    "address":"杉並区阿佐谷南３－３７－１３　大同ビル４０３号",
    "lat":35.704573,
    "lon":139.635649
  },
  {
    "id":137,
    "name":"杉並区児童発達相談係",
    "address":"杉並区阿佐谷南１－１４－８",
    "lat":35.699774,
    "lon":139.63711
  },
  {
    "id":138,
    "name":"キラキラステーション",
    "address":"杉並区阿佐谷南２－１２－２",
    "lat":35.703568,
    "lon":139.638999
  },
  {
    "id":139,
    "name":"ケア２１　堀之内",
    "address":"杉並区堀ノ内２－２７－１２　パレドール方南町１０３",
    "lat":35.690075,
    "lon":139.654581
  },
  {
    "id":140,
    "name":"ヘルプメイト井草相談支援部",
    "address":"杉並区井草３－２－４　レヂオンス井荻３０３",
    "lat":35.724876,
    "lon":139.613914
  },
  {
    "id":141,
    "name":"八成相談支援事業所",
    "address":"杉並区井草２－２５－４",
    "lat":35.72855,
    "lon":139.619555
  },
  {
    "id":142,
    "name":"株式会社　よりみち",
    "address":"杉並区天沼３－２９－１４　魚市ビル３階",
    "lat":35.706375,
    "lon":139.620411
  },
  {
    "id":143,
    "name":"いたる相談室",
    "address":"杉並区天沼１－１５－１８",
    "lat":35.707697,
    "lon":139.630027
  },
  {
    "id":144,
    "name":"地域福祉研究所",
    "address":"杉並区天沼１－２８－１１",
    "lat":35.708322,
    "lon":139.629508
  },
  {
    "id":145,
    "name":"しゃろーむ杉並",
    "address":"杉並区天沼２－４－１　井上ビル２０３号",
    "lat":35.705323,
    "lon":139.623386
  },
  {
    "id":146,
    "name":"相談支援　ＯＫプラネット",
    "address":"杉並区桃井２－１－６　シャトレ・オギ１－Ｃ号",
    "lat":35.710622,
    "lon":139.610631
  },
  {
    "id":147,
    "name":"杉並障害者自立生活支援センターすだち",
    "address":"杉並区今川２－１４－１２",
    "lat":35.718062,
    "lon":139.609034
  },
  {
    "id":148,
    "name":"福は家相談室",
    "address":"杉並区善福寺４－１７－６",
    "lat":35.719906,
    "lon":139.590874
  },
  {
    "id":149,
    "name":"ケアセンターこもれび",
    "address":"杉並区荻窪１－３２－３",
    "lat":35.693654,
    "lon":139.618531
  },
  {
    "id":150,
    "name":"相談支援事業所　木の実",
    "address":"杉並区南荻窪１－５－１１　１階",
    "lat":35.694962,
    "lon":139.617259
  },
  {
    "id":151,
    "name":"相談支援事業所かすみ草",
    "address":"杉並区和泉３－２２－１５　グランヴェール和泉１０１",
    "lat":35.677813,
    "lon":139.647741
  },
  {
    "id":152,
    "name":"永福南社会福祉ガーデン　相談支援事業所",
    "address":"杉並区永福１－７－６",
    "lat":35.669383,
    "lon":139.642103
  },
  {
    "id":153,
    "name":"あおいサポートステーション",
    "address":"杉並区浜田山３－２５－１６　エスカイア浜田山１０２",
    "lat":35.682073,
    "lon":139.629234
  },
  {
    "id":154,
    "name":"杉並区立こども発達センター",
    "address":"杉並区高井戸東１－１８－５",
    "lat":35.682622,
    "lon":139.619729
  },
  {
    "id":155,
    "name":"Link福祉相談局",
    "address":"豊島区東池袋１－２５－１７",
    "lat":35.728078,
    "lon":139.716233
  },
  {
    "id":156,
    "name":"障害児相談支援事業所・アニマートとしま",
    "address":"豊島区東池袋２－２２－４　市川ビル１０１",
    "lat":35.731095,
    "lon":139.722279
  },
  {
    "id":157,
    "name":"イルカ相談支援事業所",
    "address":"豊島区池袋２－３５－５　ウチダビル２階",
    "lat":35.733447,
    "lon":139.706586
  },
  {
    "id":158,
    "name":"相談支援センターさくら",
    "address":"豊島区要町１－２８－２０",
    "lat":35.735138,
    "lon":139.697259
  },
  {
    "id":159,
    "name":"豊島区立西部子ども家庭支援センター",
    "address":"豊島区千早４－６－１４",
    "lat":35.737684,
    "lon":139.682466
  },
  {
    "id":160,
    "name":"生活サポートセンター・こっとん",
    "address":"豊島区長崎２－１５－１６　１階",
    "lat":35.728783,
    "lon":139.693196
  },
  {
    "id":161,
    "name":"相談支援事業　ゆきわりそう",
    "address":"豊島区南長崎６－１９－５",
    "lat":35.72976,
    "lon":139.680286
  },
  {
    "id":162,
    "name":"あすか山訪問看護ステーション",
    "address":"北区東十条１－９－１２　溝口ビル１階",
    "lat":35.760689,
    "lon":139.731483
  },
  {
    "id":163,
    "name":"スマイルハート王子",
    "address":"北区豊島６－７－１６　モリヤマンション３０１",
    "lat":35.764475,
    "lon":139.746779
  },
  {
    "id":164,
    "name":"株式会社かいごのきもち",
    "address":"北区中里１－１５－１",
    "lat":35.737481,
    "lon":139.750629
  },
  {
    "id":165,
    "name":"つみき相談室",
    "address":"北区王子本町１－１９－１",
    "lat":35.753856,
    "lon":139.733005
  },
  {
    "id":166,
    "name":"就労・生活支援センター飛鳥晴山苑",
    "address":"北区西ケ原４－５１－１",
    "lat":35.74141,
    "lon":139.735978
  },
  {
    "id":167,
    "name":"東京都北区立子ども発達支援センターさくらんぼ園発達相談室",
    "address":"北区中十条１－２－１８",
    "lat":35.757603,
    "lon":139.729536
  },
  {
    "id":168,
    "name":"ドリームヴイ相談支援センター",
    "address":"北区上十条２－１－１２",
    "lat":35.757492,
    "lon":139.722164
  },
  {
    "id":169,
    "name":"リーフ介護ステーション",
    "address":"北区上十条３－２５－８－３０１",
    "lat":35.762421,
    "lon":139.717903
  },
  {
    "id":170,
    "name":"つみき相談室",
    "address":"北区上十条１－１９－６",
    "lat":35.759352,
    "lon":139.723289
  },
  {
    "id":171,
    "name":"障がい者相談支援センターしらゆり",
    "address":"北区赤羽南１－３－１　髙橋ビル４Ｆ",
    "lat":35.7761,
    "lon":139.722847
  },
  {
    "id":172,
    "name":"ヘルパーステーション赤羽",
    "address":"北区赤羽２－６９－２",
    "lat":35.782491,
    "lon":139.722749
  },
  {
    "id":173,
    "name":"宮本相談支援センター",
    "address":"荒川区町屋２－１４－９　メゾンドカスターナ１０１",
    "lat":35.744492,
    "lon":139.778805
  },
  {
    "id":174,
    "name":"荒川区立障害者福祉会館",
    "address":"荒川区荒川２－５７－８",
    "lat":35.740549,
    "lon":139.783264
  },
  {
    "id":175,
    "name":"トラム相談支援事業所",
    "address":"荒川区荒川６－６４－９　Ｋ’ｓハウス２０１",
    "lat":35.742418,
    "lon":139.775992
  },
  {
    "id":176,
    "name":"荒川区立精神障害者地域生活支援センター",
    "address":"荒川区東尾久５－４５－１１",
    "lat":35.748694,
    "lon":139.766383
  },
  {
    "id":177,
    "name":"荒川自立支援センター",
    "address":"荒川区西日暮里５－３４－２　日金ビル６階",
    "lat":35.73306,
    "lon":139.767793
  },
  {
    "id":178,
    "name":"荒川区障害者福祉課",
    "address":"荒川区荒川２丁目２－３",
    "lat":35.736083,
    "lon":139.783373
  },
  {
    "id":179,
    "name":"東京都板橋区立加賀福祉園",
    "address":"板橋区加賀１－７－２",
    "lat":35.754192,
    "lon":139.718715
  },
  {
    "id":180,
    "name":"レインボーブリッジ板橋ケアセンター",
    "address":"板橋区板橋３－５－１５",
    "lat":35.750628,
    "lon":139.712265
  },
  {
    "id":181,
    "name":"相談支援　フォレストサポート",
    "address":"板橋区板橋３－２６－６　リバティオザワ１階",
    "lat":35.750231,
    "lon":139.713465
  },
  {
    "id":182,
    "name":"ケーアイサポート介護事業部",
    "address":"板橋区大和町１０－１１　パラストネオ板橋２０２",
    "lat":35.758716,
    "lon":139.706171
  },
  {
    "id":183,
    "name":"泰心訪問介護センター",
    "address":"板橋区栄町３０－１５",
    "lat":35.754278,
    "lon":139.700344
  },
  {
    "id":184,
    "name":"介護センターともに",
    "address":"板橋区栄町２０－５　小田嶋ビル１階",
    "lat":35.753708,
    "lon":139.703183
  },
  {
    "id":185,
    "name":"よつば介護",
    "address":"板橋区中板橋２２－９",
    "lat":35.755358,
    "lon":139.697033
  },
  {
    "id":186,
    "name":"心身障害児総合医療療育センター",
    "address":"板橋区小茂根１－１－１０",
    "lat":35.747517,
    "lon":139.682715
  },
  {
    "id":187,
    "name":"志村ゆめの園　障害者相談支援センター",
    "address":"板橋区坂下１－１１－３－１０２",
    "lat":35.778727,
    "lon":139.683197
  },
  {
    "id":188,
    "name":"東京ＹＷＣＡキッズガーデン",
    "address":"板橋区坂下１－３４－２５",
    "lat":35.780993,
    "lon":139.684505
  },
  {
    "id":189,
    "name":"株式会社ユーモア",
    "address":"板橋区中台１－４４－４",
    "lat":35.767486,
    "lon":139.677034
  },
  {
    "id":190,
    "name":"アイサービス",
    "address":"板橋区常盤台２－３３－４－１０１",
    "lat":35.763309,
    "lon":139.686789
  },
  {
    "id":191,
    "name":"ヘルパーステーション上板橋",
    "address":"板橋区常盤台４－２２－１２",
    "lat":35.763395,
    "lon":139.678498
  },
  {
    "id":192,
    "name":"ハートケア相談支援センター",
    "address":"板橋区南常盤台１－３４－９　高橋ビル１階",
    "lat":35.757388,
    "lon":139.688248
  },
  {
    "id":193,
    "name":"ふれあいパーク",
    "address":"板橋区南常盤台２－９－１３",
    "lat":35.756963,
    "lon":139.685409
  },
  {
    "id":194,
    "name":"すこやかサポート雅",
    "address":"板橋区東新町２－２０－１",
    "lat":35.754219,
    "lon":139.680748
  },
  {
    "id":195,
    "name":"株式会社福ぶくろ介護のたくみ",
    "address":"板橋区上板橋２－３０－２",
    "lat":35.762326,
    "lon":139.674293
  },
  {
    "id":196,
    "name":"相談支援事業所　わくわくリンク",
    "address":"板橋区西台４－４－１１",
    "lat":35.769708,
    "lon":139.667493
  },
  {
    "id":197,
    "name":"さくらヘルプケア",
    "address":"板橋区高島平１－４８－５－１０２",
    "lat":35.784284,
    "lon":139.668871
  },
  {
    "id":198,
    "name":"生活サポート　こころ",
    "address":"板橋区高島平１－４８－６　１階",
    "lat":35.784287,
    "lon":139.668651
  },
  {
    "id":199,
    "name":"株式会社ケアプラン徳丸",
    "address":"板橋区四葉２－１９－６",
    "lat":35.781312,
    "lon":139.650161
  },
  {
    "id":200,
    "name":"相談支援センターftlアクセス",
    "address":"板橋区成増２－２４－３　バーチヒルズ１０６",
    "lat":35.779198,
    "lon":139.630007
  },
  {
    "id":201,
    "name":"シルバーハートひまわり相談支援事業所",
    "address":"板橋区成増１－５－１１",
    "lat":35.773251,
    "lon":139.632588
  },
  {
    "id":202,
    "name":"かすたねっと相談支援事業所",
    "address":"練馬区練馬２－１－９",
    "lat":35.741336,
    "lon":139.65604
  },
  {
    "id":203,
    "name":"ねりま相談支援事業所みらい",
    "address":"練馬区中村１－７－１０　マーベラスＡ１０１号",
    "lat":35.731992,
    "lon":139.647638
  },
  {
    "id":204,
    "name":"かがやき相談支援事業所",
    "address":"練馬区中村南２－１８－１４　マウントスクウエア１０１号室",
    "lat":35.727026,
    "lon":139.641934
  },
  {
    "id":205,
    "name":"未来こどもランドすまいる相談支援室",
    "address":"練馬区石神井町３－２７－１４－２０７",
    "lat":35.743001,
    "lon":139.603294
  },
  {
    "id":206,
    "name":"相談支援事業所さくら",
    "address":"練馬区上石神井３－１６－２５",
    "lat":35.731208,
    "lon":139.596076
  },
  {
    "id":207,
    "name":"相談支援事業所陽(てぃーら)",
    "address":"練馬区石神井台７－２６－５",
    "lat":35.731607,
    "lon":139.578036
  },
  {
    "id":208,
    "name":"たまみずき相談支援事業所",
    "address":"練馬区石神井台３－２－１８",
    "lat":35.742956,
    "lon":139.593515
  },
  {
    "id":209,
    "name":"ヘルプメイト関町相談支援部",
    "address":"練馬区関町北４－２－１２　ワイズビル",
    "lat":35.728063,
    "lon":139.576153
  },
  {
    "id":210,
    "name":"相談支援事業所スプラウト",
    "address":"練馬区関町北２－２９－９　七尾屋ビル２０１号室",
    "lat":35.727516,
    "lon":139.575978
  },
  {
    "id":211,
    "name":"ケアセンター彩り",
    "address":"練馬区東大泉６－１８－１８",
    "lat":35.744484,
    "lon":139.586135
  },
  {
    "id":212,
    "name":"練馬区立こども発達支援センター",
    "address":"練馬区光が丘３－１－１",
    "lat":35.754201,
    "lon":139.630961
  },
  {
    "id":213,
    "name":"障害者相談支援事業所　あかり",
    "address":"練馬区高松２－２６－６",
    "lat":35.750937,
    "lon":139.631497
  },
  {
    "id":214,
    "name":"相談支援事業所　あしたも笑顔",
    "address":"足立区谷中２－１０－１　小倉ビル１階",
    "lat":35.776212,
    "lon":139.832429
  },
  {
    "id":215,
    "name":"相談室あだち",
    "address":"足立区千住仲町２４－２",
    "lat":35.744929,
    "lon":139.800853
  },
  {
    "id":216,
    "name":"相談支援センター　えにし",
    "address":"足立区神明１－６－２",
    "lat":35.792982,
    "lon":139.830059
  },
  {
    "id":217,
    "name":"ぷらちな相談支援センター",
    "address":"足立区加平１－８－２３",
    "lat":35.774848,
    "lon":139.826032
  },
  {
    "id":218,
    "name":"ひるがお足立",
    "address":"足立区花畑４－２３－８",
    "lat":35.804494,
    "lon":139.810277
  },
  {
    "id":219,
    "name":"相談支援事業所夢工房",
    "address":"足立区花畑１－３５－１５　メゾンエスポワール１０１",
    "lat":35.800497,
    "lon":139.817088
  },
  {
    "id":220,
    "name":"のんの相談支援事業所",
    "address":"足立区東保木間２－８－１６　章江二番館１階",
    "lat":35.79332,
    "lon":139.811669
  },
  {
    "id":221,
    "name":"ハートぽっぽ相談支援事業所",
    "address":"足立区保木間１－５－２１",
    "lat":35.789587,
    "lon":139.805111
  },
  {
    "id":222,
    "name":"相談支援ＳＯ・ＳＩ・ＲＥ・ＭＩ",
    "address":"足立区保木間２－２－１　オオサキ竹ノ塚マンション１階",
    "lat":35.793867,
    "lon":139.802675
  },
  {
    "id":223,
    "name":"竹の塚相談支援センター",
    "address":"足立区竹の塚７－１９－９",
    "lat":35.800822,
    "lon":139.795945
  },
  {
    "id":224,
    "name":"日介センター足立東",
    "address":"足立区竹の塚５－１－１４",
    "lat":35.793648,
    "lon":139.797684
  },
  {
    "id":225,
    "name":"株式会社ベル訪問介護ステーション",
    "address":"足立区六月３－３－４",
    "lat":35.785737,
    "lon":139.790796
  },
  {
    "id":226,
    "name":"成仁　相談支援事業所",
    "address":"足立区島根３－２－１",
    "lat":35.778733,
    "lon":139.796318
  },
  {
    "id":227,
    "name":"足立区障がい福祉センター自立生活支援室",
    "address":"足立区梅島３－３１－１９",
    "lat":35.777505,
    "lon":139.792921
  },
  {
    "id":228,
    "name":"しっぷす相談支援事業所",
    "address":"足立区西竹の塚１－１４－１６　紺屋ビル２０１",
    "lat":35.793884,
    "lon":139.788793
  },
  {
    "id":229,
    "name":"ぽぽらーと相談室",
    "address":"足立区入谷１－１６－１３",
    "lat":35.805459,
    "lon":139.766872
  },
  {
    "id":230,
    "name":"スマイル相談支援センター",
    "address":"足立区西新井１－３８－１１",
    "lat":35.78246,
    "lon":139.780333
  },
  {
    "id":231,
    "name":"うめだ・あけぼの子ども相談支援センター",
    "address":"足立区梅田７－１２－１５",
    "lat":35.76922,
    "lon":139.800899
  },
  {
    "id":232,
    "name":"相談室とまりぎ",
    "address":"足立区扇１－４４－１５",
    "lat":35.766673,
    "lon":139.776915
  },
  {
    "id":233,
    "name":"ケアステーションダッシュ",
    "address":"葛飾区お花茶屋１－５－１０",
    "lat":35.748624,
    "lon":139.836885
  },
  {
    "id":234,
    "name":"葛飾区自立生活支援センター",
    "address":"葛飾区堀切３丁目３４－１",
    "lat":35.744335,
    "lon":139.834522
  },
  {
    "id":235,
    "name":"葛飾区子ども発達センター",
    "address":"葛飾区堀切３－３４－１",
    "lat":35.744335,
    "lon":139.834522
  },
  {
    "id":236,
    "name":"花しょうぶ指定特定相談支援事業所",
    "address":"葛飾区堀切６－５－１１　１階",
    "lat":35.752267,
    "lon":139.830011
  },
  {
    "id":237,
    "name":"フタバ介護サービス",
    "address":"葛飾区四つ木４－２８－１１",
    "lat":35.739625,
    "lon":139.835611
  },
  {
    "id":238,
    "name":"相談支援事業さくら",
    "address":"葛飾区四つ木５－６－７",
    "lat":35.740716,
    "lon":139.838294
  },
  {
    "id":239,
    "name":"相談支援センターおおぞら",
    "address":"葛飾区細田５－１６－１１",
    "lat":35.738242,
    "lon":139.876299
  },
  {
    "id":240,
    "name":"広伸会相談支援事業所",
    "address":"葛飾区東新小岩５－１８－１　１階",
    "lat":35.72331,
    "lon":139.857049
  },
  {
    "id":241,
    "name":"相談支援室　ひまわり",
    "address":"葛飾区東新小岩５－１６－１１－２０２",
    "lat":35.72334,
    "lon":139.855882
  },
  {
    "id":242,
    "name":"風の子相談室",
    "address":"葛飾区西水元５－１１－３",
    "lat":35.78446,
    "lon":139.854533
  },
  {
    "id":243,
    "name":"にじいろ相談支援事業所",
    "address":"葛飾区柴又７－１４－４",
    "lat":35.759842,
    "lon":139.879159
  },
  {
    "id":244,
    "name":"オリーブ相談支援事業所",
    "address":"葛飾区亀有３－１６－１５",
    "lat":35.763541,
    "lon":139.848545
  },
  {
    "id":245,
    "name":"相談支援事業所ひかり",
    "address":"葛飾区亀有２－２２－１１",
    "lat":35.760061,
    "lon":139.85232
  },
  {
    "id":246,
    "name":"葛飾区子ども総合センター",
    "address":"葛飾区青戸４丁目１５－１４",
    "lat":35.751567,
    "lon":139.850589
  },
  {
    "id":247,
    "name":"きらら介護サービス亀有",
    "address":"葛飾区青戸８－９－１６",
    "lat":35.756234,
    "lon":139.851834
  },
  {
    "id":248,
    "name":"ケアステーション大空",
    "address":"江戸川区新堀２－３２－１０　コンビニエンスオフィス稲毛１号",
    "lat":35.704143,
    "lon":139.893193
  },
  {
    "id":249,
    "name":"地域活動支援センター　はるえ野",
    "address":"江戸川区春江町２－４１－８",
    "lat":35.699504,
    "lon":139.890744
  },
  {
    "id":250,
    "name":"永仁介護サービス　瑞江相談支援事業所",
    "address":"江戸川区春江町３－５１－４",
    "lat":35.697255,
    "lon":139.891288
  },
  {
    "id":251,
    "name":"有限会社　椿ケアステーション",
    "address":"江戸川区春江町３－２９－１２",
    "lat":35.694988,
    "lon":139.886933
  },
  {
    "id":252,
    "name":"江東園ケアセンターつばき　えぽっく",
    "address":"江戸川区春江町２－５－１５",
    "lat":35.700762,
    "lon":139.887083
  },
  {
    "id":253,
    "name":"ウィット相談支援室",
    "address":"江戸川区瑞江４－４８－２",
    "lat":35.69323,
    "lon":139.894896
  },
  {
    "id":254,
    "name":"特定非営利活動法人　江戸川在宅支援グループ",
    "address":"江戸川区江戸川３－１７",
    "lat":35.686433,
    "lon":139.893205
  },
  {
    "id":255,
    "name":"江東園さわやか相談室　宙",
    "address":"江戸川区東瑞江１－１１－５",
    "lat":35.688733,
    "lon":139.899527
  },
  {
    "id":256,
    "name":"わだつみケアサービス",
    "address":"江戸川区西瑞江３－９－１０３",
    "lat":35.687511,
    "lon":139.892416
  },
  {
    "id":257,
    "name":"にじいろ相談支援事業所",
    "address":"江戸川区中央４－２５－１６　石井ビル２階",
    "lat":35.708736,
    "lon":139.867615
  },
  {
    "id":258,
    "name":"あるぷす相談室",
    "address":"江戸川区中央３－７－１３",
    "lat":35.712867,
    "lon":139.871825
  },
  {
    "id":259,
    "name":"ケア　あんじゅ",
    "address":"江戸川区大杉５－２０－１",
    "lat":35.708871,
    "lon":139.877689
  },
  {
    "id":260,
    "name":"東京福祉交通サービス株式会社　相談支援センター",
    "address":"江戸川区西一之江３－１２－３０",
    "lat":35.6927,
    "lon":139.875768
  },
  {
    "id":261,
    "name":"日本リック相談支援一之江事業所",
    "address":"江戸川区一之江４－６－２２",
    "lat":35.690029,
    "lon":139.879228
  },
  {
    "id":262,
    "name":"ゆたか福祉サービス",
    "address":"江戸川区一之江３－７－１１　プレジデント１０２",
    "lat":35.688071,
    "lon":139.885111
  },
  {
    "id":263,
    "name":"相談支援センターぽこ・あ・ぽこ",
    "address":"江戸川区松島３－４２－１１",
    "lat":35.711711,
    "lon":139.864635
  },
  {
    "id":264,
    "name":"地域活動支援センターえどがわ",
    "address":"江戸川区松島３－４６－１０　かとりコーポ１０１",
    "lat":35.709844,
    "lon":139.865904
  },
  {
    "id":265,
    "name":"ひまわり介護サービス",
    "address":"江戸川区松島１－４３－１４　小森ビル１階",
    "lat":35.705095,
    "lon":139.867707
  },
  {
    "id":266,
    "name":"永仁介護サービス　平井相談支援事業所",
    "address":"江戸川区平井４－１－１９",
    "lat":35.703905,
    "lon":139.847148
  },
  {
    "id":267,
    "name":"江戸川区立みんなの家",
    "address":"江戸川区本一色３－３８－３",
    "lat":35.720763,
    "lon":139.872578
  },
  {
    "id":268,
    "name":"江戸川区鹿本育成室",
    "address":"江戸川区本一色２－１０－１５",
    "lat":35.718194,
    "lon":139.872933
  },
  {
    "id":269,
    "name":"ＨＡＬＯ（ハロ）相談支援センター",
    "address":"江戸川区本一色１－２８－７",
    "lat":35.715528,
    "lon":139.869448
  },
  {
    "id":270,
    "name":"トロールケアサービス",
    "address":"江戸川区北小岩５－１－９",
    "lat":35.741091,
    "lon":139.885671
  },
  {
    "id":271,
    "name":"でこぽん",
    "address":"江戸川区北小岩１－１０－１　サンライズⅡ１０３",
    "lat":35.736245,
    "lon":139.889656
  },
  {
    "id":272,
    "name":"赤とんぼ",
    "address":"江戸川区東小岩５－１６－６　ライトハイツ２階",
    "lat":35.731959,
    "lon":139.887615
  },
  {
    "id":273,
    "name":"相談支援センター　カピリナ",
    "address":"江戸川区東小岩２－２３－３",
    "lat":35.726883,
    "lon":139.893401
  },
  {
    "id":274,
    "name":"あいしんケア相談支援センター",
    "address":"江戸川区上篠崎３－２－２　金子ハイツ１０１",
    "lat":35.710136,
    "lon":139.898609
  },
  {
    "id":275,
    "name":"いきいきサポートケアプラン",
    "address":"江戸川区南小岩３－５－４",
    "lat":35.724797,
    "lon":139.884457
  },
  {
    "id":276,
    "name":"なでしこプランセンター",
    "address":"江戸川区南小岩３－２５－１４　パスカルビル２０５号室",
    "lat":35.725202,
    "lon":139.888701
  },
  {
    "id":277,
    "name":"マミー相談支援",
    "address":"江戸川区南小岩３－２０－２",
    "lat":35.726488,
    "lon":139.886912
  },
  {
    "id":278,
    "name":"相談支援事業所　けいプラン",
    "address":"江戸川区西小岩１－２１－１６　エーチワイ江戸川２０１",
    "lat":35.73449,
    "lon":139.880424
  },
  {
    "id":279,
    "name":"江東園さわやか相談室　海",
    "address":"江戸川区篠崎町７－１８－８",
    "lat":35.707362,
    "lon":139.901795
  },
  {
    "id":280,
    "name":"ＳＴＥＰえどがわ",
    "address":"江戸川区南篠崎町３－９－７－１Ｆ",
    "lat":35.695572,
    "lon":139.898904
  },
  {
    "id":281,
    "name":"相談支援センターむくむく",
    "address":"江戸川区鹿骨１－５６－１",
    "lat":35.709536,
    "lon":139.891265
  },
  {
    "id":282,
    "name":"東京ケア",
    "address":"江戸川区鹿骨３－１８－８",
    "lat":35.716107,
    "lon":139.891971
  },
  {
    "id":283,
    "name":"江戸川区立希望の家",
    "address":"江戸川区江戸川５－３２－６",
    "lat":35.673036,
    "lon":139.882976
  },
  {
    "id":284,
    "name":"蜂輪",
    "address":"江戸川区中葛西２－７－１２",
    "lat":35.672788,
    "lon":139.874307
  },
  {
    "id":285,
    "name":"江戸川区立障害者支援ハウス",
    "address":"江戸川区中葛西２－１１－８",
    "lat":35.673425,
    "lon":139.875032
  },
  {
    "id":286,
    "name":"｢まある｣相談支援事業所",
    "address":"江戸川区中葛西１－３８－１８",
    "lat":35.671255,
    "lon":139.871208
  },
  {
    "id":287,
    "name":"ハートケア",
    "address":"江戸川区中葛西３－１８－１１　ハイツ星１０２号",
    "lat":35.664911,
    "lon":139.870461
  },
  {
    "id":288,
    "name":"ゆーあいスマイル",
    "address":"江戸川区中葛西２－１０－１５　２階",
    "lat":35.673072,
    "lon":139.874432
  },
  {
    "id":289,
    "name":"相談支援センター　こんにちわ",
    "address":"江戸川区東葛西７－８－１５　メゾン・ド・フォレ１０３",
    "lat":35.65899,
    "lon":139.874572
  },
  {
    "id":290,
    "name":"相談支援ＮＰＯ虹の会",
    "address":"江戸川区南葛西７－２－３",
    "lat":35.647153,
    "lon":139.882261
  },
  {
    "id":291,
    "name":"いわいだ介護相談室",
    "address":"江戸川区南葛西２－６－５－１０２",
    "lat":35.655224,
    "lon":139.873528
  },
  {
    "id":292,
    "name":"相談支援センターＦＵＲＥＡＩ（ふれあい）",
    "address":"江戸川区西葛西６－２３－３　秀合ビル１Ｆ",
    "lat":35.664064,
    "lon":139.863209
  },
  {
    "id":293,
    "name":"相談支援センターくらふと",
    "address":"江戸川区船堀１－４－１０",
    "lat":35.686253,
    "lon":139.864536
  },
  {
    "id":294,
    "name":"ぽんぽこ相談室",
    "address":"八王子市大和田町２－２０－７",
    "lat":35.665101,
    "lon":139.359596
  },
  {
    "id":295,
    "name":"障害者相談支援センター　ぴあらいふ",
    "address":"八王子市明神町４－１４－１　１階",
    "lat":35.659863,
    "lon":139.342334
  },
  {
    "id":296,
    "name":"相談支援スペース「ゆめ」",
    "address":"八王子市小門町８－２７　サンビレッジ１階",
    "lat":35.65901,
    "lon":139.326971
  },
  {
    "id":297,
    "name":"相談支援センター　｢タック｣",
    "address":"八王子市横山町２５－１６　フロイデンビル２階",
    "lat":35.660212,
    "lon":139.340226
  },
  {
    "id":298,
    "name":"美山相談支援事業所",
    "address":"八王子市美山町２５５４",
    "lat":35.703388,
    "lon":139.230166
  },
  {
    "id":299,
    "name":"障がい者（児）の夢を実現させる相談支援",
    "address":"八王子市上野町３４－１１　１階",
    "lat":35.656576,
    "lon":139.326277
  },
  {
    "id":300,
    "name":"ウェーブ・フォー・ネット相談室",
    "address":"八王子市片倉町３５９－４　パラグアスＦ１階１０２号",
    "lat":35.642803,
    "lon":139.338226
  },
  {
    "id":301,
    "name":"わかこま相談支援室",
    "address":"八王子市横川町５２１－１",
    "lat":35.664664,
    "lon":139.304304
  },
  {
    "id":302,
    "name":"サポートＮＡＲＳ",
    "address":"八王子市横川町５３８－１",
    "lat":35.666405,
    "lon":139.304331
  },
  {
    "id":303,
    "name":"トマリ相談支援研究所",
    "address":"八王子市高尾町１６４２",
    "lat":35.643094,
    "lon":139.277737
  },
  {
    "id":304,
    "name":"相談支援事業所もなか",
    "address":"八王子市台町１－２４－２７　１階",
    "lat":35.650535,
    "lon":139.325649
  },
  {
    "id":305,
    "name":"相談支援室ぱれっと",
    "address":"八王子市台町４－３３－１３",
    "lat":35.65749,
    "lon":139.318544
  },
  {
    "id":306,
    "name":"障害者而立支援センター「おあしす」",
    "address":"八王子市館町３８１－１－１１０",
    "lat":35.635395,
    "lon":139.295675
  },
  {
    "id":307,
    "name":"相談支援センターにんじん・立川",
    "address":"立川市高松町２－２７－２７",
    "lat":35.703776,
    "lon":139.418956
  },
  {
    "id":308,
    "name":"相談支援事業所暖",
    "address":"立川市高松町１－１７－２０　粕谷ビル２階",
    "lat":35.708761,
    "lon":139.418015
  },
  {
    "id":309,
    "name":"相談支援事業所　介護グループふれあい",
    "address":"立川市羽衣町２－４１－１　羽衣第一ビル２階",
    "lat":35.694049,
    "lon":139.426056
  },
  {
    "id":310,
    "name":"特定指定相談支援事業　自立生活センター・立川",
    "address":"立川市柴崎町２－１０－１６　オオノビル２Ｆ",
    "lat":35.696268,
    "lon":139.408882
  },
  {
    "id":311,
    "name":"相談支援センター　らいふぱる",
    "address":"立川市西砂町４－７５－２",
    "lat":35.735837,
    "lon":139.355911
  },
  {
    "id":312,
    "name":"地域生活支援センター　びーと",
    "address":"武蔵野市吉祥寺北町４－１１－１６",
    "lat":35.71575,
    "lon":139.565901
  },
  {
    "id":313,
    "name":"相談支援事業所ハローワールド",
    "address":"武蔵野市御殿山１－６－１１　Ｋ２ビル４階",
    "lat":35.702877,
    "lon":139.574918
  },
  {
    "id":314,
    "name":"地域療育相談室　ハビット",
    "address":"武蔵野市緑町２－６－８",
    "lat":35.716931,
    "lon":139.561899
  },
  {
    "id":315,
    "name":"相談支援事業所せんかわ",
    "address":"武蔵野市境南町４－２０－５",
    "lat":35.698446,
    "lon":139.536946
  },
  {
    "id":316,
    "name":"相談支援事業所　結い",
    "address":"三鷹市井の頭２－２１－１８",
    "lat":35.691187,
    "lon":139.584342
  },
  {
    "id":317,
    "name":"三鷹市北野ハピネスセンター",
    "address":"三鷹市北野一丁目９番２９号",
    "lat":35.679899,
    "lon":139.586148
  },
  {
    "id":318,
    "name":"障がい者相談センター　つなぐ手",
    "address":"三鷹市新川３－２１－１９　はなはなテラス１階",
    "lat":35.678271,
    "lon":139.569528
  },
  {
    "id":319,
    "name":"相談支援事業所にじアート",
    "address":"三鷹市新川４－１１－１３",
    "lat":35.673208,
    "lon":139.57133
  },
  {
    "id":320,
    "name":"三鷹市子ども発達支援センター",
    "address":"三鷹市新川６－３７－１",
    "lat":35.681774,
    "lon":139.561834
  },
  {
    "id":321,
    "name":"じゅうと生活サポートセンター",
    "address":"三鷹市大沢１－１６－２６",
    "lat":35.673994,
    "lon":139.539844
  },
  {
    "id":322,
    "name":"相談支援事業所おおぞら",
    "address":"青梅市成木２－１３０－２",
    "lat":35.832507,
    "lon":139.271746
  },
  {
    "id":323,
    "name":"特定相談支援事業所だいもん",
    "address":"青梅市大門２－２６１－１",
    "lat":35.795681,
    "lon":139.29145
  },
  {
    "id":324,
    "name":"相談支援センターわかば",
    "address":"青梅市大門２－２５９－３",
    "lat":35.795176,
    "lon":139.291306
  },
  {
    "id":325,
    "name":"特定・障害児相談支援事業所じりつ",
    "address":"青梅市今井５－２４３４－２",
    "lat":35.793435,
    "lon":139.328378
  },
  {
    "id":326,
    "name":"相談支援事業所　くらやしき",
    "address":"青梅市新町１－８－２",
    "lat":35.786022,
    "lon":139.297739
  },
  {
    "id":327,
    "name":"相談支援事業所　もしもしすばる",
    "address":"青梅市新町３－２０－３",
    "lat":35.78002,
    "lon":139.302077
  },
  {
    "id":328,
    "name":"ケアープラン新町",
    "address":"青梅市新町７－６３－５",
    "lat":35.7888,
    "lon":139.316854
  },
  {
    "id":329,
    "name":"ポラリス相談室",
    "address":"青梅市新町７－５－５",
    "lat":35.783836,
    "lon":139.315835
  },
  {
    "id":330,
    "name":"有限会社アイケアーサービス青梅",
    "address":"青梅市東青梅１－７－８",
    "lat":35.788243,
    "lon":139.27393
  },
  {
    "id":331,
    "name":"もみの木",
    "address":"青梅市東青梅６－２－２９－１０２",
    "lat":35.793787,
    "lon":139.273071
  },
  {
    "id":332,
    "name":"シエル相談支援センター",
    "address":"府中市紅葉丘１－３８－７１",
    "lat":35.676926,
    "lon":139.513683
  },
  {
    "id":333,
    "name":"つくしんぼう",
    "address":"府中市押立町１－１７－１３",
    "lat":35.659686,
    "lon":139.509261
  },
  {
    "id":334,
    "name":"地域生活支援センターふらっと",
    "address":"府中市清水が丘３－２３－１７　１Ｆ",
    "lat":35.66631,
    "lon":139.503473
  },
  {
    "id":335,
    "name":"ＪＰＳ相談支援センター",
    "address":"府中市宮西町３－５－４　パークヒル１階",
    "lat":35.67182,
    "lon":139.473958
  },
  {
    "id":336,
    "name":"相談支援ワンセルフ",
    "address":"府中市宮西町２－４－３　アイスバーグビル５階",
    "lat":35.670176,
    "lon":139.478447
  },
  {
    "id":337,
    "name":"地域生活支援センターみ～な",
    "address":"府中市南町５－３８",
    "lat":35.654888,
    "lon":139.467787
  },
  {
    "id":338,
    "name":"コンパス",
    "address":"府中市本町１－１５－３　宮ノ森コーポ１０３",
    "lat":35.666671,
    "lon":139.478636
  },
  {
    "id":339,
    "name":"つづれおり",
    "address":"府中市住吉町２－１３－３　ベルメゾン住吉第２　２０１号",
    "lat":35.658032,
    "lon":139.458746
  },
  {
    "id":340,
    "name":"わの会相談支援",
    "address":"府中市住吉町１－６０－１０",
    "lat":35.660743,
    "lon":139.460032
  },
  {
    "id":341,
    "name":"相談室ウェル",
    "address":"府中市美好町１－１－１８　石川ビル２０１",
    "lat":35.67307,
    "lon":139.472983
  },
  {
    "id":342,
    "name":"相談支援センターリアン",
    "address":"府中市美好町３－１３－３　第一グリーンテラス２",
    "lat":35.671917,
    "lon":139.466048
  },
  {
    "id":343,
    "name":"相談支援　やすらぎ",
    "address":"府中市府中町２－２１－４",
    "lat":35.675137,
    "lon":139.484541
  },
  {
    "id":344,
    "name":"地域生活支援センターあけぼの",
    "address":"府中市寿町３－９－１１　山上ビル１階",
    "lat":35.676392,
    "lon":139.473828
  },
  {
    "id":345,
    "name":"昭島生活実習所",
    "address":"昭島市松原町３－１１－１５",
    "lat":35.717217,
    "lon":139.344846
  },
  {
    "id":346,
    "name":"ウイズ相談支援事業所",
    "address":"昭島市緑町４－１５－２３",
    "lat":35.71534,
    "lon":139.345004
  },
  {
    "id":347,
    "name":"ゆいのもり相談支援センター",
    "address":"昭島市つつじが丘３－５－６－１１４",
    "lat":35.71339,
    "lon":139.368094
  },
  {
    "id":348,
    "name":"昭島市障害者相談支援センター",
    "address":"昭島市昭和町４－７－１　昭島市保健福祉センター内",
    "lat":35.710835,
    "lon":139.364125
  },
  {
    "id":349,
    "name":"特定非営利活動法人　昭島ひよこ教室",
    "address":"昭島市昭和町４－７－１",
    "lat":35.710835,
    "lon":139.364125
  },
  {
    "id":350,
    "name":"虹のセンター２５",
    "address":"昭島市朝日町３－７－１８",
    "lat":35.707658,
    "lon":139.374568
  },
  {
    "id":351,
    "name":"特定非営利活動法人自立生活センター・昭島",
    "address":"昭島市朝日町３－１８－１２",
    "lat":35.707985,
    "lon":139.373463
  },
  {
    "id":352,
    "name":"めりーらいふ",
    "address":"昭島市東町４－９－３",
    "lat":35.701225,
    "lon":139.390314
  },
  {
    "id":353,
    "name":"特定非営利活動法人にこにこ",
    "address":"昭島市玉川町３－１７－１３",
    "lat":35.704903,
    "lon":139.382626
  },
  {
    "id":354,
    "name":"エアリ",
    "address":"調布市国領町１－４０－６　モンターニュ国領３０８",
    "lat":35.650377,
    "lon":139.556016
  },
  {
    "id":355,
    "name":"社会福祉法人調布市社会福祉協議会相談支援事業所調布市こころの健康支援センター",
    "address":"調布市布田５－４６－１",
    "lat":35.645684,
    "lon":139.54184
  },
  {
    "id":356,
    "name":"銀河ケアサービス",
    "address":"調布市小島町１－２１－６　アジャンタ調布２０５",
    "lat":35.654599,
    "lon":139.54047
  },
  {
    "id":357,
    "name":"社会福祉法人調布市社会福祉協議会相談支援事業所ドルチェ",
    "address":"調布市小島町２－４７－１",
    "lat":35.651397,
    "lon":139.542753
  },
  {
    "id":358,
    "name":"ＣＩＬちょうふ",
    "address":"調布市小島町２－２１－５　１階",
    "lat":35.650986,
    "lon":139.538804
  },
  {
    "id":359,
    "name":"ケア２１　調布",
    "address":"調布市小島町２－５１－９",
    "lat":35.65028,
    "lon":139.543195
  },
  {
    "id":360,
    "name":"調布市子ども発達センター",
    "address":"調布市西町２９０－４９",
    "lat":35.666277,
    "lon":139.522529
  },
  {
    "id":361,
    "name":"調布市福祉健康部障害福祉課",
    "address":"調布市小島町２丁目３５－１",
    "lat":35.650627,
    "lon":139.540682
  },
  {
    "id":362,
    "name":"障害者生活支援センターまちだや",
    "address":"町田市原町田２－２２－２６　プリモ・レガーロ町田１Ｆ",
    "lat":35.538918,
    "lon":139.453845
  },
  {
    "id":363,
    "name":"町田市子ども発達センター",
    "address":"町田市中町２－１３－１４",
    "lat":35.551569,
    "lon":139.444459
  },
  {
    "id":364,
    "name":"相談支援事業所　うらら",
    "address":"町田市森野２－４－１４　メゾンボヌール１０１",
    "lat":35.547266,
    "lon":139.437668
  },
  {
    "id":365,
    "name":"相談支援センター　アイケア",
    "address":"町田市旭町２－１２－２",
    "lat":35.557835,
    "lon":139.435735
  },
  {
    "id":366,
    "name":"みずきの会ケアマネクラブ",
    "address":"町田市本町田２７９７",
    "lat":35.566426,
    "lon":139.445584
  },
  {
    "id":367,
    "name":"相談支援センター　ポンテ",
    "address":"町田市木曽西２－１７－１６",
    "lat":35.570011,
    "lon":139.415397
  },
  {
    "id":368,
    "name":"相談支援事業　かけはし",
    "address":"町田市下小山田町３２６７－２",
    "lat":35.585665,
    "lon":139.410634
  },
  {
    "id":369,
    "name":"小金井市児童発達支援センター　きらり",
    "address":"小金井市梶野町１－２－３",
    "lat":35.701987,
    "lon":139.528755
  },
  {
    "id":370,
    "name":"小金井市障害者地域自立生活支援センター",
    "address":"小金井市緑町４－１７－１０",
    "lat":35.708678,
    "lon":139.517392
  },
  {
    "id":371,
    "name":"にこにこパートナーズ",
    "address":"小金井市本町１－２－２０　ＢＬＤ５５　２０５号",
    "lat":35.698646,
    "lon":139.511179
  },
  {
    "id":372,
    "name":"ふらっとヨハネ",
    "address":"小金井市東町５－２４－３",
    "lat":35.693072,
    "lon":139.520959
  },
  {
    "id":373,
    "name":"NPO法人　Passo　a　Passo",
    "address":"小金井市前原町３－４１－２８",
    "lat":35.698218,
    "lon":139.505705
  },
  {
    "id":374,
    "name":"合同会社いちいちのはな",
    "address":"小金井市前原町４－２－１－２１４　ウエスト小金井",
    "lat":35.684308,
    "lon":139.501894
  },
  {
    "id":375,
    "name":"テラスこだいら",
    "address":"小平市花小金井８－１－１０",
    "lat":35.731692,
    "lon":139.50204
  },
  {
    "id":376,
    "name":"障がい者相談支援センターぴありす",
    "address":"小平市花小金井南町１－１８－４５－１０－１階",
    "lat":35.725029,
    "lon":139.511792
  },
  {
    "id":377,
    "name":"小平市立あおぞら福祉センター",
    "address":"小平市鈴木町１－４７２",
    "lat":35.720067,
    "lon":139.497493
  },
  {
    "id":378,
    "name":"地域生活支援センター澄水",
    "address":"小平市小川町１－４８５",
    "lat":35.727651,
    "lon":139.440373
  },
  {
    "id":379,
    "name":"ＮＰＯあい",
    "address":"小平市小川西町五丁目２２番１２号",
    "lat":35.734376,
    "lon":139.458429
  },
  {
    "id":380,
    "name":"小平市立障害者福祉センター",
    "address":"小平市小川西町５－２５－１５",
    "lat":35.736612,
    "lon":139.458943
  },
  {
    "id":381,
    "name":"なんでも相談いるおーる",
    "address":"小平市仲町２６９－１　サンハイム小山１０２",
    "lat":35.730897,
    "lon":139.490468
  },
  {
    "id":382,
    "name":"スカイサポートセンター",
    "address":"小平市仲町３５７－６",
    "lat":35.728267,
    "lon":139.489696
  },
  {
    "id":383,
    "name":"小平市障がい者地域自立生活支援センター",
    "address":"小平市学園東町１－１９－１３　小平市福祉会館内",
    "lat":35.726567,
    "lon":139.478114
  },
  {
    "id":384,
    "name":"指定特定相談事業所　ほっとぽむ",
    "address":"日野市栄町２－２－１５　シティハイム日野１０１号",
    "lat":35.681775,
    "lon":139.390732
  },
  {
    "id":385,
    "name":"なごみ在宅介護サービス日野",
    "address":"日野市新町１－５－３５　大沢新町ビル２階",
    "lat":35.681356,
    "lon":139.391165
  },
  {
    "id":386,
    "name":"プラン湧水路",
    "address":"日野市百草１０４２－２０　石坂ビル２Ｆ",
    "lat":35.646305,
    "lon":139.424588
  },
  {
    "id":387,
    "name":"地域生活相談室　おあしす",
    "address":"日野市程久保８７２－１",
    "lat":35.651401,
    "lon":139.415328
  },
  {
    "id":388,
    "name":"やまばと",
    "address":"日野市旭が丘２－４２－５",
    "lat":35.663135,
    "lon":139.369165
  },
  {
    "id":389,
    "name":"日野市発達・教育支援センター",
    "address":"日野市旭が丘２－４２－８",
    "lat":35.662991,
    "lon":139.368756
  },
  {
    "id":390,
    "name":"くおりあ相談室",
    "address":"東村山市久米川町３－１２－７",
    "lat":35.766095,
    "lon":139.47301
  },
  {
    "id":391,
    "name":"相談支援事業所　ふわり",
    "address":"東村山市萩山町１－３５－１　東京都東村山福祉園内",
    "lat":35.737102,
    "lon":139.482663
  },
  {
    "id":392,
    "name":"相談支援センター　こだま",
    "address":"東村山市栄町２－９－３２　晃生プラザ３０３",
    "lat":35.749458,
    "lon":139.471716
  },
  {
    "id":393,
    "name":"みのり障害生活支援センター",
    "address":"東村山市本町二丁目２４番地１",
    "lat":35.759163,
    "lon":139.469633
  },
  {
    "id":394,
    "name":"相談支援事業所トビラ",
    "address":"東村山市富士見町３－４－１６",
    "lat":35.748711,
    "lon":139.454413
  },
  {
    "id":395,
    "name":"地域活動支援センター虹",
    "address":"国分寺市戸倉４－１４　福祉センター内",
    "lat":35.708513,
    "lon":139.455311
  },
  {
    "id":396,
    "name":"こどもの発達センターつくしんぼ",
    "address":"国分寺市戸倉３－１－１",
    "lat":35.707935,
    "lon":139.455022
  },
  {
    "id":397,
    "name":"ヘルパーステーション　びいと",
    "address":"国分寺市西元町３－６－１４",
    "lat":35.689448,
    "lon":139.469341
  },
  {
    "id":398,
    "name":"国分寺市障害者センター　地域活動支援センターつばさ",
    "address":"国分寺市泉町２－３－８",
    "lat":35.696398,
    "lon":139.468855
  },
  {
    "id":399,
    "name":"相談支援事業所のぞみ",
    "address":"国分寺市光町２－１９－１２　１階",
    "lat":35.704462,
    "lon":139.437816
  },
  {
    "id":400,
    "name":"ハッピーテラス国立駅前",
    "address":"国立市北１－５－８　プラース壱番館２階　店舗Ｅ",
    "lat":35.699974,
    "lon":139.44686
  },
  {
    "id":401,
    "name":"相談支援エプシロン",
    "address":"国立市富士見台２－１６－４　トーコービル４０６",
    "lat":35.681835,
    "lon":139.44606
  },
  {
    "id":402,
    "name":"指定相談支援事業所福祉サポートライン",
    "address":"国立市中１－１８－３５",
    "lat":35.696469,
    "lon":139.442493
  },
  {
    "id":403,
    "name":"相談支援事業ルピナス",
    "address":"国立市西２－２０－１０　第２村上ビル２階",
    "lat":35.693372,
    "lon":139.436072
  },
  {
    "id":404,
    "name":"相談支援センター「みなも」",
    "address":"国立市谷保６３１２",
    "lat":35.680959,
    "lon":139.429501
  },
  {
    "id":405,
    "name":"福生市社会福祉協議会",
    "address":"福生市南田園２－１３－１",
    "lat":35.727485,
    "lon":139.332271
  },
  {
    "id":406,
    "name":"介護センター　みらい",
    "address":"福生市加美平２－１－１３",
    "lat":35.745674,
    "lon":139.325585
  },
  {
    "id":407,
    "name":"やなぎ社会福祉事務所",
    "address":"福生市志茂１６９－１",
    "lat":35.737823,
    "lon":139.329216
  },
  {
    "id":408,
    "name":"狛江市特定相談支援事業所サポート",
    "address":"狛江市元和泉２－３５－１　あいとぴあセンター内",
    "lat":35.6333,
    "lon":139.567777
  },
  {
    "id":409,
    "name":"相談支援センターみずき",
    "address":"狛江市東和泉１－３２－２１",
    "lat":35.6304,
    "lon":139.575946
  },
  {
    "id":410,
    "name":"相談支援にじ",
    "address":"東大和市清水３－８５５－２",
    "lat":35.753549,
    "lon":139.443224
  },
  {
    "id":411,
    "name":"東大和市立やまとあけぼの学園",
    "address":"東大和市新堀１－１５２３－２",
    "lat":35.741078,
    "lon":139.45173
  },
  {
    "id":412,
    "name":"特定非営利活動法人　自立生活センター・東大和",
    "address":"東大和市南街１－２２－６",
    "lat":35.740497,
    "lon":139.43169
  },
  {
    "id":413,
    "name":"はるもにあ",
    "address":"東大和市中央２－１１０１－４３",
    "lat":35.742638,
    "lon":139.431595
  },
  {
    "id":414,
    "name":"イコールケアマネセンター",
    "address":"東大和市仲原１－６－２",
    "lat":35.743644,
    "lon":139.444269
  },
  {
    "id":415,
    "name":"東大和市総合福祉センターは～とふる",
    "address":"東大和市桜が丘２－５３－６",
    "lat":35.734917,
    "lon":139.41938
  },
  {
    "id":416,
    "name":"清瀬市社会福祉協議会相談支援事業所",
    "address":"清瀬市上清戸一丁目１６番６２号",
    "lat":35.773265,
    "lon":139.527664
  },
  {
    "id":417,
    "name":"たまみずき相談支援事業所　清瀬",
    "address":"清瀬市松山２－２－１５　清瀬シティハイム２階",
    "lat":35.769838,
    "lon":139.516287
  },
  {
    "id":418,
    "name":"株式会社みのり",
    "address":"清瀬市松山２－５－２０",
    "lat":35.770685,
    "lon":139.515484
  },
  {
    "id":419,
    "name":"清瀬市子どもの発達支援・交流センター",
    "address":"清瀬市竹丘１－１５－８",
    "lat":35.76811,
    "lon":139.511101
  },
  {
    "id":420,
    "name":"日本社会事業大学附属　子ども学園",
    "address":"清瀬市梅園１－２－５０",
    "lat":35.773956,
    "lon":139.50729
  },
  {
    "id":421,
    "name":"自立生活センターグッドライフ",
    "address":"東久留米市東本町１４－７　滝ビル１階",
    "lat":35.762608,
    "lon":139.535341
  },
  {
    "id":422,
    "name":"東久留米市立わかくさ学園発達相談室",
    "address":"東久留米市南沢２－２０－５１",
    "lat":35.749635,
    "lon":139.531389
  },
  {
    "id":423,
    "name":"相談ステーションむくむく",
    "address":"東久留米市南町４－１０－２６",
    "lat":35.746057,
    "lon":139.520471
  },
  {
    "id":424,
    "name":"相談支援センター　くるみ",
    "address":"東久留米市南町４－９－２１",
    "lat":35.744366,
    "lon":139.52214
  },
  {
    "id":425,
    "name":"イリアンソス相談支援センター",
    "address":"東久留米市幸町３－８－２３",
    "lat":35.758264,
    "lon":139.51912
  },
  {
    "id":426,
    "name":"相談支援センターぬくもり",
    "address":"東久留米市中央町２－１－４　清美荘１０２号",
    "lat":35.757328,
    "lon":139.523606
  },
  {
    "id":427,
    "name":"東京小児療育病院地域支援センター",
    "address":"武蔵村山市学園４－１０－１",
    "lat":35.744062,
    "lon":139.398104
  },
  {
    "id":428,
    "name":"相談支援センター　クローバー",
    "address":"武蔵村山市学園１－１１２－８　エステート武蔵村山２０５",
    "lat":35.746232,
    "lon":139.396723
  },
  {
    "id":429,
    "name":"あかつきコロニー相談支援センター",
    "address":"武蔵村山市伊奈平１－６４－１",
    "lat":35.74547,
    "lon":139.377814
  },
  {
    "id":430,
    "name":"れすと相談支援センター",
    "address":"多摩市和田１８７０－２",
    "lat":35.64695,
    "lon":139.433824
  },
  {
    "id":431,
    "name":"マルシェたま　障害者相談支援事業所",
    "address":"多摩市関戸４－１９－５　市立健康センター４階",
    "lat":35.649044,
    "lon":139.449511
  },
  {
    "id":432,
    "name":"相談支援センター　あゆーと",
    "address":"多摩市貝取４－３－１－１１０",
    "lat":35.61459,
    "lon":139.438525
  },
  {
    "id":433,
    "name":"相談支援センター　くぬぎ",
    "address":"多摩市永山３－９　東永山複合施設内",
    "lat":35.623381,
    "lon":139.449454
  },
  {
    "id":434,
    "name":"相談支援センター　しまだ",
    "address":"多摩市中沢１－３１－１",
    "lat":35.621988,
    "lon":139.411496
  },
  {
    "id":435,
    "name":"ベック多摩",
    "address":"多摩市愛宕４丁目９番７号　ハロッズプラザ１０６号室",
    "lat":35.628824,
    "lon":139.429069
  },
  {
    "id":436,
    "name":"相談支援センターぽわん",
    "address":"多摩市愛宕４－９－２２　池田ビル２階２０３号室",
    "lat":35.628657,
    "lon":139.428953
  },
  {
    "id":437,
    "name":"稲城市障害者総合相談センター　マルシェいなぎ",
    "address":"稲城市東長沼２１０７－３　ヒルテラス稲城１０３",
    "lat":35.638601,
    "lon":139.505008
  },
  {
    "id":438,
    "name":"ケアセンターあんさんぶる稲城",
    "address":"稲城市東長沼８７０　エクセル松本２０３",
    "lat":35.646547,
    "lon":139.502244
  },
  {
    "id":439,
    "name":"社会福祉法人　稲城市社会福祉協議会",
    "address":"稲城市百村７番地",
    "lat":35.639609,
    "lon":139.499861
  },
  {
    "id":440,
    "name":"相談支援センターまはろ",
    "address":"稲城市矢野口５４１　美里コーポ１０１",
    "lat":35.638471,
    "lon":139.521587
  },
  {
    "id":441,
    "name":"相談支援事業所　つむぎ",
    "address":"羽村市羽西３－３－１",
    "lat":35.77374,
    "lon":139.296461
  },
  {
    "id":442,
    "name":"障がい者相談支援センターいまここ",
    "address":"あきる野市秋川１－１２－１",
    "lat":35.729386,
    "lon":139.288155
  },
  {
    "id":443,
    "name":"株式会社ひまわり",
    "address":"あきる野市二宮２２６７",
    "lat":35.729345,
    "lon":139.313553
  },
  {
    "id":444,
    "name":"あきる野市障がい者相談支援センター",
    "address":"あきる野市二宮６７０－５　秋川健康会館１階",
    "lat":35.729398,
    "lon":139.30241
  },
  {
    "id":445,
    "name":"悠優ヘルパーセンター",
    "address":"あきる野市野辺３０５－６",
    "lat":35.722785,
    "lon":139.312326
  },
  {
    "id":446,
    "name":"ケアサポートセンターかしの木",
    "address":"あきる野市雨間２５４－６　センターヴィレッジ５０１",
    "lat":35.728522,
    "lon":139.290844
  },
  {
    "id":447,
    "name":"をとん",
    "address":"あきる野市油平９８　第一中村ビル３０１号",
    "lat":35.726045,
    "lon":139.287958
  },
  {
    "id":448,
    "name":"西多摩地域生活相談室",
    "address":"あきる野市下代継９４－６　２階",
    "lat":35.727103,
    "lon":139.281845
  },
  {
    "id":449,
    "name":"上代継在宅地域支援センター",
    "address":"あきる野市上代継８４－６",
    "lat":35.730411,
    "lon":139.27824
  },
  {
    "id":450,
    "name":"たまみずき相談支援ひばり",
    "address":"西東京市北原町１－３８－２",
    "lat":35.738011,
    "lon":139.545997
  },
  {
    "id":451,
    "name":"さくらの園",
    "address":"西東京市西原町４－５－６　西東京市西原総合教育施設内",
    "lat":35.737214,
    "lon":139.528381
  },
  {
    "id":452,
    "name":"地域活動支援センター　ブルーム",
    "address":"西東京市田無町５－５－１２",
    "lat":35.731809,
    "lon":139.536209
  },
  {
    "id":453,
    "name":"自立生活企画",
    "address":"西東京市田無町５－６－２０",
    "lat":35.732042,
    "lon":139.537392
  },
  {
    "id":454,
    "name":"株式会社　ケアワーク北多摩",
    "address":"西東京市田無町五丁目８番１５号",
    "lat":35.731681,
    "lon":139.539281
  },
  {
    "id":455,
    "name":"ととろクラブ　相談室",
    "address":"西東京市芝久保町２－２２－３２－２０５",
    "lat":35.726248,
    "lon":139.52061
  },
  {
    "id":456,
    "name":"ＹＬひばりが丘相談所",
    "address":"西東京市ひばりが丘北３－４－３－３０４",
    "lat":35.752357,
    "lon":139.546393
  },
  {
    "id":457,
    "name":"相談室　こころ",
    "address":"西東京市住吉町３－１２－１９",
    "lat":35.750249,
    "lon":139.547429
  },
  {
    "id":458,
    "name":"相談支援事業所　ポラリス",
    "address":"西東京市新町１－１４－１０",
    "lat":35.714883,
    "lon":139.54427
  },
  {
    "id":459,
    "name":"フラップ",
    "address":"西多摩郡瑞穂町箱根ケ崎字武蔵野９４０",
    "lat":35.791903,
    "lon":139.332152
  },
  {
    "id":460,
    "name":"あるって",
    "address":"西多摩郡日の出町平井３２６１番地２",
    "lat":35.74192,
    "lon":139.259791
  },
  {
    "id":461,
    "name":"ひのきのその",
    "address":"西多摩郡檜原村５３５４番６",
    "lat":35.725814,
    "lon":139.159673
  },
  {
    "id":462,
    "name":"相談支援事業所「つづみ草」",
    "address":"西多摩郡奥多摩町氷川９５４－１１",
    "lat":35.803526,
    "lon":139.092192
  }
]