[
  {
    "id":0,
    "name":"LITALICOジュニアお茶の水教室",
    "address":"千代田区外神田２－２－１８　東信御茶の水ビル２階",
    "lat":35.699672,
    "lon":139.767502
  },
  {
    "id":1,
    "name":"ＴＥＥＮＳ御茶ノ水",
    "address":"千代田区神田駿河台三丁目５番地１　三五ビル１階",
    "lat":35.695822,
    "lon":139.763958
  },
  {
    "id":2,
    "name":"ぴかいち",
    "address":"千代田区九段南３丁目７番７号　九段南グリーンビル７階",
    "lat":35.693008,
    "lon":139.743154
  },
  {
    "id":3,
    "name":"放課後等デイサービス　ポジリブ",
    "address":"中央区日本橋久松町６－９　ＡＳ　ＯＮＥ日本橋Ｅａｓｔ２階",
    "lat":35.689481,
    "lon":139.784357
  },
  {
    "id":4,
    "name":"放課後等デイサービス　ミライエ日本橋",
    "address":"中央区日本橋蛎殻町２－５－３",
    "lat":35.683924,
    "lon":139.785185
  },
  {
    "id":5,
    "name":"児童デイサービス　スマイル日本橋",
    "address":"中央区日本橋茅場町２－１７－９　長尾ビル２０１号室",
    "lat":35.678607,
    "lon":139.780696
  },
  {
    "id":6,
    "name":"ゆうゆうらいふアカデミー中央",
    "address":"中央区新川２－１８－５　ＡＳビル２階",
    "lat":35.674519,
    "lon":139.781649
  },
  {
    "id":7,
    "name":"トリプル・ハート",
    "address":"中央区新富２－２－１４　２階",
    "lat":35.671872,
    "lon":139.772563
  },
  {
    "id":8,
    "name":"中央区立福祉センター",
    "address":"中央区明石町１２－１",
    "lat":35.666506,
    "lon":139.777035
  },
  {
    "id":9,
    "name":"メルケアみなとセンター",
    "address":"港区西新橋１－２４－１６　平和ビル",
    "lat":35.668738,
    "lon":139.751307
  },
  {
    "id":10,
    "name":"スマートキッズプラス芝公園",
    "address":"港区芝３－２５－２　黒田芝ビル２階",
    "lat":35.651554,
    "lon":139.747058
  },
  {
    "id":11,
    "name":"スポーツ塾　ハートフルデイ東麻布",
    "address":"港区東麻布２－５－９　サンエイビル２階",
    "lat":35.657087,
    "lon":139.741828
  },
  {
    "id":12,
    "name":"幸せの缶詰",
    "address":"港区南麻布２－１－１８",
    "lat":35.649398,
    "lon":139.733901
  },
  {
    "id":13,
    "name":"ＫＯＫＯＺＯ　南青山",
    "address":"港区南青山４－３－２４　青山ＮＫビル１階",
    "lat":35.666224,
    "lon":139.720154
  },
  {
    "id":14,
    "name":"ハッピーテラス芝浦教室",
    "address":"港区芝浦４－１２－３１",
    "lat":35.640017,
    "lon":139.749103
  },
  {
    "id":15,
    "name":"スポーツ塾　ハートフルデイ芝浦",
    "address":"港区芝浦２－１７－１０　新大友ビル１階",
    "lat":35.645135,
    "lon":139.75263
  },
  {
    "id":16,
    "name":"ＴＯＤＡＹ児童デイサービス白金",
    "address":"港区白金３－１６－９",
    "lat":35.644418,
    "lon":139.728021
  },
  {
    "id":17,
    "name":"こどもサポート教室「きらり」白金高輪校",
    "address":"港区三田４－１０－５　テラドール１階",
    "lat":35.641838,
    "lon":139.73844
  },
  {
    "id":18,
    "name":"プレミア・ケア・ジュニア　三田店",
    "address":"港区三田２－９－５　みずほビル１階",
    "lat":35.65064,
    "lon":139.744286
  },
  {
    "id":19,
    "name":"すてっぷわん",
    "address":"港区高輪１－１７－１５　オーク高輪ビル２階",
    "lat":35.640388,
    "lon":139.733207
  },
  {
    "id":20,
    "name":"ハービー＆マックローリン・陽だまり介護センター",
    "address":"港区高輪３－１９－２０－１０３号・１０２号",
    "lat":35.633425,
    "lon":139.737529
  },
  {
    "id":21,
    "name":"アフタースクール　クローバーキッズ麻布十番",
    "address":"港区麻布十番３－１１－１２　",
    "lat":35.65287,
    "lon":139.735226
  },
  {
    "id":22,
    "name":"プレミア・ケア・ジュニア　四ツ谷店",
    "address":"新宿区四谷３－１－４　斉藤ビルディング２階",
    "lat":35.687708,
    "lon":139.72267
  },
  {
    "id":23,
    "name":"新宿区立子ども総合センター",
    "address":"新宿区新宿７－３－２９",
    "lat":35.701003,
    "lon":139.712681
  },
  {
    "id":24,
    "name":"ＴＥＥＮＳ新宿",
    "address":"新宿区西新宿６－２－３",
    "lat":35.693615,
    "lon":139.69413
  },
  {
    "id":25,
    "name":"放課後デイサービス　スリーセブン",
    "address":"新宿区西落合１－１６－９　フラットＭＯＮＡ１階",
    "lat":35.722433,
    "lon":139.681419
  },
  {
    "id":26,
    "name":"ケアステップ新宿",
    "address":"新宿区早稲田鶴巻町５２５　稲田ビル１階",
    "lat":35.706867,
    "lon":139.723997
  },
  {
    "id":27,
    "name":"テラコヤキッズ　新宿本教室",
    "address":"新宿区住吉町２－１０　ソフィアＭ３Ｆ",
    "lat":35.691957,
    "lon":139.720745
  },
  {
    "id":28,
    "name":"ノーサイド新宿＠Ｌｅａｆ音楽療法センター",
    "address":"新宿区矢来町４３　三新ビル１階",
    "lat":35.704045,
    "lon":139.73106
  },
  {
    "id":29,
    "name":"ベアーズ",
    "address":"新宿区榎町４５　さくらビル２階",
    "lat":35.704664,
    "lon":139.72898
  },
  {
    "id":30,
    "name":"にこにこルームベリタス",
    "address":"新宿区西早稲田２－７－１７　イールハウス１０１号",
    "lat":35.708144,
    "lon":139.71467
  },
  {
    "id":31,
    "name":"放課後等デイサービス　アトリエたいよう",
    "address":"新宿区北新宿４－４－１３",
    "lat":35.707496,
    "lon":139.694008
  },
  {
    "id":32,
    "name":"スポーツひろばプレイス　高田馬場教室",
    "address":"新宿区高田馬場１－９－２１　エムハットビル１階",
    "lat":35.71016,
    "lon":139.708895
  },
  {
    "id":33,
    "name":"放課後等デイサービス　すまいる",
    "address":"新宿区高田馬場１－２５－３６　タイオー･インターナショナルビルディング３０Ｃ号室",
    "lat":35.711844,
    "lon":139.706348
  },
  {
    "id":34,
    "name":"サッカーあいだっく",
    "address":"新宿区高田馬場３－２５－３　東京京装ビル２階",
    "lat":35.712454,
    "lon":139.697727
  },
  {
    "id":35,
    "name":"児童発達支援・放課後等デイサービス　Ｓｍｉｌｅ　Ｓｅｅｄ（すまいるしーど）",
    "address":"新宿区高田馬場１－５－８　ＹＳビル１階",
    "lat":35.710755,
    "lon":139.708145
  },
  {
    "id":36,
    "name":"運動発達支援スタジオＵＮＩＭＯ後楽園",
    "address":"文京区小石川２－２５－１０",
    "lat":35.712211,
    "lon":139.750652
  },
  {
    "id":37,
    "name":"富坂子どもの家",
    "address":"文京区小石川２－１７－４１",
    "lat":35.711125,
    "lon":139.748361
  },
  {
    "id":38,
    "name":"発達支援ルーム　ぽけっと",
    "address":"文京区小石川５－３８－２　クレストヒルズ小石川２階",
    "lat":35.718166,
    "lon":139.742953
  },
  {
    "id":39,
    "name":"放課後等デイサービス　びおら",
    "address":"文京区小日向２丁目１６－１５",
    "lat":35.710581,
    "lon":139.734582
  },
  {
    "id":40,
    "name":"運動発達支援スタジオＵＮＩＭＯ文京千石",
    "address":"文京区千石１－２９－１２　千石片岡ビル１０１",
    "lat":35.727271,
    "lon":139.74518
  },
  {
    "id":41,
    "name":"放課後等デイサービス　あんプラス江戸川橋",
    "address":"文京区関口１－４８－６　日火江戸川橋ビル第２　２０１",
    "lat":35.709486,
    "lon":139.730463
  },
  {
    "id":42,
    "name":"エデュクエスト",
    "address":"文京区白山１－１８－７　石川ビル２０２号室",
    "lat":35.717747,
    "lon":139.752236
  },
  {
    "id":43,
    "name":"放課後等デイサービス　カリタス翼",
    "address":"文京区本駒込５－４－４",
    "lat":35.732379,
    "lon":139.750074
  },
  {
    "id":44,
    "name":"文京区放課後等デイサービスＪＯＹ",
    "address":"文京区本駒込四丁目３５番１５号　文京区勤労福祉会館２階",
    "lat":35.733468,
    "lon":139.75514
  },
  {
    "id":45,
    "name":"ハッピーテラス千駄木教室",
    "address":"文京区根津２－３７－８",
    "lat":35.72118,
    "lon":139.76241
  },
  {
    "id":46,
    "name":"文京区児童発達支援センター",
    "address":"文京区湯島４－７－１０",
    "lat":35.708848,
    "lon":139.765768
  },
  {
    "id":47,
    "name":"スマートキッズプラス南千住",
    "address":"台東区竜泉３－４０－６　ハイツエスポワール１階",
    "lat":35.72668,
    "lon":139.792232
  },
  {
    "id":48,
    "name":"ユニゾン上野",
    "address":"台東区北上野１－８－５　ビリーフ上野１階",
    "lat":35.717258,
    "lon":139.782166
  },
  {
    "id":49,
    "name":"オアゾ子供クラブ",
    "address":"台東区北上野２－２５－８",
    "lat":35.718465,
    "lon":139.785217
  },
  {
    "id":50,
    "name":"結ふる美谷東京",
    "address":"台東区東上野１丁目２５番８号　萬屋ビル３階",
    "lat":35.708615,
    "lon":139.780323
  },
  {
    "id":51,
    "name":"つばさ放課後クラブ",
    "address":"台東区千束３－２８－１３　千束保健福祉センター６階",
    "lat":35.723086,
    "lon":139.793627
  },
  {
    "id":52,
    "name":"ＳＴＥＰ浅草",
    "address":"台東区浅草４－３８－４　ヤチヨハイム１階",
    "lat":35.719104,
    "lon":139.795521
  },
  {
    "id":53,
    "name":"台東区松が谷福祉会館",
    "address":"台東区松が谷１－４－１２",
    "lat":35.711304,
    "lon":139.785425
  },
  {
    "id":54,
    "name":"コラゾン台東",
    "address":"台東区浅草橋５－２－３　柳北ビル２階",
    "lat":35.699216,
    "lon":139.781546
  },
  {
    "id":55,
    "name":"コラゾン浅草橋",
    "address":"台東区浅草橋１－２－８　マルイチビル７階",
    "lat":35.696525,
    "lon":139.784235
  },
  {
    "id":56,
    "name":"スマートキッズジュニア元浅草",
    "address":"台東区鳥越1－２２－５　平岡ビル２階",
    "lat":35.703505,
    "lon":139.781437
  },
  {
    "id":57,
    "name":"コラゾン吾妻橋浅草",
    "address":"墨田区吾妻橋１－４－４　両野ビル２階",
    "lat":35.708057,
    "lon":139.800955
  },
  {
    "id":58,
    "name":"放課後等デイサービス　あんず",
    "address":"墨田区業平４－６－３　プレジール１０１",
    "lat":35.707008,
    "lon":139.81502
  },
  {
    "id":59,
    "name":"放課後等デイサービス　ジョイ・キッズ",
    "address":"墨田区横川５－１０－１　プリメール柳島１１８",
    "lat":35.705555,
    "lon":139.81642
  },
  {
    "id":60,
    "name":"キッズデイあすみ",
    "address":"墨田区石原４－１２－５－１０１",
    "lat":35.699794,
    "lon":139.807666
  },
  {
    "id":61,
    "name":"スマートキッズプラス錦糸町",
    "address":"墨田区太平４－２４－１０　ナノトミックビル１F",
    "lat":35.702913,
    "lon":139.818604
  },
  {
    "id":62,
    "name":"スマートキッズプラス両国",
    "address":"墨田区亀沢１－２４－１　アーバンコーポ両国２階２０２号室",
    "lat":35.698428,
    "lon":139.797507
  },
  {
    "id":63,
    "name":"コラゾン両国",
    "address":"墨田区亀沢１－１９－１　田中ビル４階",
    "lat":35.69785,
    "lon":139.79934
  },
  {
    "id":64,
    "name":"ゆうゆうらいふアカデミー両国",
    "address":"墨田区亀沢１－２０－２",
    "lat":35.698208,
    "lon":139.799329
  },
  {
    "id":65,
    "name":"コラゾン錦糸町",
    "address":"墨田区江東橋１－４－１２　メゾンドール錦糸町ツイン１０１",
    "lat":35.693367,
    "lon":139.8099
  },
  {
    "id":66,
    "name":"キッズサポートりま",
    "address":"墨田区立川１－１６－２０　Ｙ２ビルディング１階・２階",
    "lat":35.691598,
    "lon":139.799435
  },
  {
    "id":67,
    "name":"アルファキッズ菊川駅前",
    "address":"墨田区菊川三丁目７番４号　大こく屋第２ビル３階",
    "lat":35.688237,
    "lon":139.806281
  },
  {
    "id":68,
    "name":"キッズデイあすみ菊川",
    "address":"墨田区菊川３－２１－１１－２０５・２０６号",
    "lat":35.690032,
    "lon":139.808106
  },
  {
    "id":69,
    "name":"アプリ児童デイサービス東向島",
    "address":"墨田区東向島五丁目３１番３号　エビハラビル１階",
    "lat":35.728593,
    "lon":139.822269
  },
  {
    "id":70,
    "name":"あったかいデイ　東向島",
    "address":"墨田区東向島５－７－１２　若草ビル１２店舗１階",
    "lat":35.725577,
    "lon":139.820239
  },
  {
    "id":71,
    "name":"すみだ福祉保健センター　みつばち園",
    "address":"墨田区向島３－３６－７　すみだ福祉保健センター内",
    "lat":35.713374,
    "lon":139.810759
  },
  {
    "id":72,
    "name":"すみだ晴山苑　キララ",
    "address":"墨田区八広５－１８－３０",
    "lat":35.72484,
    "lon":139.826514
  },
  {
    "id":73,
    "name":"墨田こどもの家",
    "address":"墨田区八広４－１３－３－１０１",
    "lat":35.723058,
    "lon":139.826963
  },
  {
    "id":74,
    "name":"墨田あゆみの家",
    "address":"墨田区八広２－５６－３－１０１",
    "lat":35.715255,
    "lon":139.828285
  },
  {
    "id":75,
    "name":"児童デイサービス　スマイル八広",
    "address":"墨田区八広六丁目８番２号　リエス八広１階",
    "lat":35.728166,
    "lon":139.826083
  },
  {
    "id":76,
    "name":"スマートキッズプラス平井北",
    "address":"墨田区八広４－４８－５　エコーピア２階４号室",
    "lat":35.720774,
    "lon":139.830251
  },
  {
    "id":77,
    "name":"運動・学習による子供自立支援教室　あんしんキッズ",
    "address":"墨田区立花１－２３－５－１１４",
    "lat":35.70665,
    "lon":139.831241
  },
  {
    "id":78,
    "name":"すみだステップハウスおおぞら　にじの子",
    "address":"墨田区文花１－３２－７",
    "lat":35.708166,
    "lon":139.82378
  },
  {
    "id":79,
    "name":"第２乳幼児親子教室",
    "address":"江東区住吉１－８－１８　住吉ビル１階",
    "lat":35.687379,
    "lon":139.811108
  },
  {
    "id":80,
    "name":"スマートキッズプラス住吉",
    "address":"江東区住吉２－７－１４　國谷ビル２０１",
    "lat":35.688176,
    "lon":139.815574
  },
  {
    "id":81,
    "name":"まつぼっくり子ども教室",
    "address":"江東区猿江２－９－５　２・３階",
    "lat":35.687421,
    "lon":139.815269
  },
  {
    "id":82,
    "name":"乳幼児親子教室",
    "address":"江東区猿江１－１８－９－２０４",
    "lat":35.687024,
    "lon":139.811683
  },
  {
    "id":83,
    "name":"児童デイサービス　スマイル江東",
    "address":"江東区新大橋２－１５－３　飯田ビル１階",
    "lat":35.689573,
    "lon":139.793355
  },
  {
    "id":84,
    "name":"さくらんぼ子ども教室",
    "address":"江東区扇橋３－３－７　宮内ビル１・２階",
    "lat":35.68266,
    "lon":139.818732
  },
  {
    "id":85,
    "name":"放課後等デイサービス　ＧＲＩＰ　キッズ　扇橋校",
    "address":"江東区扇橋２－３－５　１階",
    "lat":35.682841,
    "lon":139.815191
  },
  {
    "id":86,
    "name":"第３親子教室　うみべ",
    "address":"江東区海辺４－１２　第二ユーエスビル１０１",
    "lat":35.679753,
    "lon":139.818626
  },
  {
    "id":87,
    "name":"第２まつぼっくり子ども教室",
    "address":"江東区海辺３－７　シャリオビル１階",
    "lat":35.680441,
    "lon":139.818818
  },
  {
    "id":88,
    "name":"ごえん舎江東",
    "address":"江東区千田８－７　高田ビル２階",
    "lat":35.680769,
    "lon":139.815035
  },
  {
    "id":89,
    "name":"コラゾン江東住吉",
    "address":"江東区千田７－１７　大塚ビル１階",
    "lat":35.680836,
    "lon":139.815441
  },
  {
    "id":90,
    "name":"たんぽぽクラブ",
    "address":"江東区石島５－７　深川ビル１階、２０１号室",
    "lat":35.680375,
    "lon":139.811966
  },
  {
    "id":91,
    "name":"みらいキッズ東陽町",
    "address":"江東区石島９－１４　シャンテ石島１階",
    "lat":35.680014,
    "lon":139.81373
  },
  {
    "id":92,
    "name":"コラゾン東陽町",
    "address":"江東区東陽３－２６－７　東陽大経ビル２階",
    "lat":35.670634,
    "lon":139.813585
  },
  {
    "id":93,
    "name":"コラゾン清澄白河",
    "address":"江東区白河２－８－５　三栄ビル４階",
    "lat":35.682094,
    "lon":139.802543
  },
  {
    "id":94,
    "name":"スマートキッズプラス木場公園",
    "address":"江東区平野四丁目１２番２号　坂戸ビル１階",
    "lat":35.678405,
    "lon":139.81033
  },
  {
    "id":95,
    "name":"スマートキッズジュニア門前仲町",
    "address":"江東区佐賀１丁目９－７　原田ビル・佐賀２階",
    "lat":35.676808,
    "lon":139.790621
  },
  {
    "id":96,
    "name":"スマートキッズプラス門前仲町",
    "address":"江東区永代２－２３－１　内山ビル２Ｆ",
    "lat":35.672378,
    "lon":139.791629
  },
  {
    "id":97,
    "name":"みらいキッズ",
    "address":"江東区永代２－３４－１１　セレナハイム門前仲町１階",
    "lat":35.674467,
    "lon":139.792985
  },
  {
    "id":98,
    "name":"こぴあクラブ",
    "address":"江東区冬木６－２０",
    "lat":35.673386,
    "lon":139.801603
  },
  {
    "id":99,
    "name":"ごえん舎越中島",
    "address":"江東区越中島２－１３－１０　北沢ビル２階",
    "lat":35.666579,
    "lon":139.794862
  },
  {
    "id":100,
    "name":"スマートキッズプラス豊洲",
    "address":"江東区枝川２－１５－２　大岩ビル１Ｆ",
    "lat":35.657716,
    "lon":139.807205
  },
  {
    "id":101,
    "name":"第３こぴあクラブ",
    "address":"江東区枝川１－１１－１６",
    "lat":35.656294,
    "lon":139.805092
  },
  {
    "id":102,
    "name":"放課後等デイサービス　大夢",
    "address":"江東区辰巳１－２－９",
    "lat":35.650056,
    "lon":139.808297
  },
  {
    "id":103,
    "name":"スマートキッズプラス東雲",
    "address":"江東区東雲一丁目６番２３号",
    "lat":35.64577,
    "lon":139.800867
  },
  {
    "id":104,
    "name":"スマートキッズジュニア亀戸",
    "address":"江東区亀戸１－３１－７　亀戸センタービル４階",
    "lat":35.694709,
    "lon":139.825678
  },
  {
    "id":105,
    "name":"このこのリーフ亀戸",
    "address":"江東区亀戸７－３－７　伊藤ビル１階",
    "lat":35.695143,
    "lon":139.83376
  },
  {
    "id":106,
    "name":"こぱんはうすさくら　亀戸教室",
    "address":"江東区亀戸９－１９－７　日商岩井亀戸マンションＡ２棟１階",
    "lat":35.697959,
    "lon":139.844268
  },
  {
    "id":107,
    "name":"このこのリーフ亀戸第２",
    "address":"江東区亀戸４－１１－９　ＡＨＡＶＡビル２階",
    "lat":35.701492,
    "lon":139.830563
  },
  {
    "id":108,
    "name":"第２こぴあクラブ",
    "address":"江東区亀戸６－４８－５",
    "lat":35.69416,
    "lon":139.832063
  },
  {
    "id":109,
    "name":"スマートキッズプラス西大島",
    "address":"江東区大島１－３０－４　Ｌ－ＴＯＷＥＲ３階",
    "lat":35.68919,
    "lon":139.825509
  },
  {
    "id":110,
    "name":"スマートキッズプラス大島",
    "address":"江東区大島５－４５－９　",
    "lat":35.689735,
    "lon":139.836535
  },
  {
    "id":111,
    "name":"らいおんハート遊びリテーション児童デイ北砂",
    "address":"江東区北砂五丁目２０番７号棟第１０１号室",
    "lat":35.68368,
    "lon":139.834177
  },
  {
    "id":112,
    "name":"南砂ぞうさんクラブ",
    "address":"江東区南砂２－２８－３　ＬＡＺＦＩＴＨ　ＴＯＹＯＣＨＯ２０１号",
    "lat":35.675581,
    "lon":139.821768
  },
  {
    "id":113,
    "name":"てんとうむし",
    "address":"品川区北品川４－１－１　松風ビル２階",
    "lat":35.62294,
    "lon":139.734843
  },
  {
    "id":114,
    "name":"アプリ児童デイサービス北品川",
    "address":"品川区北品川２－１８－２",
    "lat":35.618158,
    "lon":139.741437
  },
  {
    "id":115,
    "name":"ちびっこタイム品川",
    "address":"品川区東大井５－２３－１６－１１０号",
    "lat":35.604407,
    "lon":139.737158
  },
  {
    "id":116,
    "name":"めるへんキッズ大森園",
    "address":"品川区南大井６－１６－１　サンハイツ大森１０１号室",
    "lat":35.591441,
    "lon":139.730539
  },
  {
    "id":117,
    "name":"スキップランド　西大井",
    "address":"品川区西大井６－１４－１５",
    "lat":35.599776,
    "lon":139.717037
  },
  {
    "id":118,
    "name":"アプリ児童デイサービス不動前",
    "address":"品川区西五反田三丁目１３番１４号　ロイヤルコート",
    "lat":35.628086,
    "lon":139.714056
  },
  {
    "id":119,
    "name":"品川区立品川児童学園分室",
    "address":"品川区戸越６－１６－１４",
    "lat":35.607372,
    "lon":139.715378
  },
  {
    "id":120,
    "name":"療育スタジオ・ピコ　戸越公園教室",
    "address":"品川区豊町３－１－１　ひかりオークス１階",
    "lat":35.609,
    "lon":139.719884
  },
  {
    "id":121,
    "name":"キッズアイランドワイキキ",
    "address":"品川区二葉４－４－１９",
    "lat":35.602334,
    "lon":139.715223
  },
  {
    "id":122,
    "name":"スタジオそら品川戸越",
    "address":"品川区東中延１－３－１１",
    "lat":35.611277,
    "lon":139.714126
  },
  {
    "id":123,
    "name":"このこのリーフ　中延",
    "address":"品川区中延３－１３－１９　芙蓉ハイツ１０１号",
    "lat":35.606489,
    "lon":139.71134
  },
  {
    "id":124,
    "name":"みんなの家　ゆめっこ",
    "address":"品川区中延６－３－１６",
    "lat":35.602767,
    "lon":139.71256
  },
  {
    "id":125,
    "name":"びりぃぶ",
    "address":"目黒区中央町二丁目３２番５号　スマイルプラザ中央町３階",
    "lat":35.631511,
    "lon":139.688775
  },
  {
    "id":126,
    "name":"アトリエほんちょう",
    "address":"目黒区目黒本町６－９－２０",
    "lat":35.620137,
    "lon":139.696277
  },
  {
    "id":127,
    "name":"スタジオそら学芸大学",
    "address":"目黒区鷹番二丁目１７番１１号　イムーブル鷹番Ａ－１号",
    "lat":35.627192,
    "lon":139.686914
  },
  {
    "id":128,
    "name":"桐塾　学芸大学駅前第二教室",
    "address":"目黒区鷹番２－１５－１８　パル学芸大学２０２",
    "lat":35.629747,
    "lon":139.687094
  },
  {
    "id":129,
    "name":"もうひとつのおうち",
    "address":"目黒区八雲５－１－５",
    "lat":35.624741,
    "lon":139.668971
  },
  {
    "id":130,
    "name":"めぐろアフタースクール",
    "address":"目黒区上目黒５丁目３０－７　サンライズ浅見Ｔ１",
    "lat":35.640982,
    "lon":139.685739
  },
  {
    "id":131,
    "name":"桐塾　祐天寺教室",
    "address":"目黒区祐天寺２－３－１１　第６エスペランス３階",
    "lat":35.637241,
    "lon":139.692488
  },
  {
    "id":132,
    "name":"ハミングツリー",
    "address":"目黒区中目黒５－２７－１２　ライフイン祐天寺１０１",
    "lat":35.635344,
    "lon":139.694883
  },
  {
    "id":133,
    "name":"さくら",
    "address":"目黒区下目黒３－４－４　グランメゾン清和２０２",
    "lat":35.630422,
    "lon":139.708779
  },
  {
    "id":134,
    "name":"アインクラブ大森",
    "address":"大田区大森本町２－２６－１５　松尾ビル２階",
    "lat":35.577854,
    "lon":139.736426
  },
  {
    "id":135,
    "name":"児童デイパーチェ",
    "address":"大田区大森東１－３５　コーシャハイム大森東４－１０８",
    "lat":35.57646,
    "lon":139.740517
  },
  {
    "id":136,
    "name":"こどもプラスほしのこ",
    "address":"大田区大森南３－２４－２",
    "lat":35.56479,
    "lon":139.742532
  },
  {
    "id":137,
    "name":"くれよんくらぶ",
    "address":"大田区大森北１－１１－３　サカエビル５階A号室",
    "lat":35.587122,
    "lon":139.728637
  },
  {
    "id":138,
    "name":"このこのリーフ大森山王",
    "address":"大田区山王１－３１－２　石ビル２階",
    "lat":35.591619,
    "lon":139.725109
  },
  {
    "id":139,
    "name":"ファミリールーム　りぼん",
    "address":"大田区中央８－４－１３　ＫＴＹ中央１０１",
    "lat":35.574584,
    "lon":139.712205
  },
  {
    "id":140,
    "name":"放課後デイ　レインボースター",
    "address":"大田区南蒲田１－１－２３",
    "lat":35.560703,
    "lon":139.724611
  },
  {
    "id":141,
    "name":"スキップランド南六郷",
    "address":"大田区南六郷２－２７－３",
    "lat":35.5472,
    "lon":139.718723
  },
  {
    "id":142,
    "name":"はるはうすｋｉｄｓ",
    "address":"大田区東六郷２－９－１６　阿部ビル１階",
    "lat":35.549866,
    "lon":139.71719
  },
  {
    "id":143,
    "name":"テラコヤキッズ　蒲田教室",
    "address":"大田区西蒲田７－１－３　ステラビル７階",
    "lat":35.563766,
    "lon":139.716272
  },
  {
    "id":144,
    "name":"あかしろきいろ発達支援るーむ",
    "address":"大田区西蒲田２－７－１－１０１",
    "lat":35.569846,
    "lon":139.70634
  },
  {
    "id":145,
    "name":"テラス児童デイサービス西蒲田",
    "address":"大田区西蒲田８－７－１４　中野ビル１階",
    "lat":35.560836,
    "lon":139.710601
  },
  {
    "id":146,
    "name":"Ｋｉｄ’ｓ　Ｔｅｃｈ　蒲田",
    "address":"大田区西蒲田７－１８－６　ロータスフラットⅡ２階１号室",
    "lat":35.563961,
    "lon":139.709012
  },
  {
    "id":147,
    "name":"テラコヤキッズゆめ気球教室",
    "address":"大田区蒲田一丁目２５番７号　グレードワン・ヒラタ１階",
    "lat":35.564936,
    "lon":139.7186
  },
  {
    "id":148,
    "name":"でらいとわーくジュニア　かまたアフタースクール",
    "address":"大田区蒲田５－３０－１５　第２０下川ビル２階",
    "lat":35.561878,
    "lon":139.719622
  },
  {
    "id":149,
    "name":"スキップランド新蒲田",
    "address":"大田区新蒲田１－１３－７",
    "lat":35.55942,
    "lon":139.710376
  },
  {
    "id":150,
    "name":"放課後等デイサービス　ポジティブ",
    "address":"大田区仲六郷２－３９－７　鈴木ビル１階",
    "lat":35.549177,
    "lon":139.71291
  },
  {
    "id":151,
    "name":"リトル　コールケア",
    "address":"大田区南雪谷４－７－１４　２階",
    "lat":35.588957,
    "lon":139.681994
  },
  {
    "id":152,
    "name":"みなそら多摩川園",
    "address":"大田区田園調布１－６－３　早川ビル２階",
    "lat":35.58781,
    "lon":139.674556
  },
  {
    "id":153,
    "name":"発達支援教室スマイル久が原",
    "address":"大田区久が原三丁目３７番１号　ＮＹビル２階",
    "lat":35.580295,
    "lon":139.687088
  },
  {
    "id":154,
    "name":"アインクラブ",
    "address":"大田区池上５－２８－１",
    "lat":35.573496,
    "lon":139.711917
  },
  {
    "id":155,
    "name":"かたつむりクラブ",
    "address":"大田区池上三丁目３１番１４号　ファミールクボタ１階",
    "lat":35.57384,
    "lon":139.703054
  },
  {
    "id":156,
    "name":"ゆめクラブ",
    "address":"大田区池上六丁目１３番１１号　不二美ビル１階",
    "lat":35.570724,
    "lon":139.703954
  },
  {
    "id":157,
    "name":"このこのリーフ池上",
    "address":"大田区池上３－２５－５　グリーンパレス１階",
    "lat":35.574851,
    "lon":139.700923
  },
  {
    "id":158,
    "name":"あかしろきいろ発達支援るーむⅡ",
    "address":"大田区池上４－３０－９－２０１",
    "lat":35.573232,
    "lon":139.705203
  },
  {
    "id":159,
    "name":"こどもプラスほしのこジュニア",
    "address":"大田区池上３－３９－１２　常盤ビル２階",
    "lat":35.572937,
    "lon":139.701459
  },
  {
    "id":160,
    "name":"発達支援教室にじいろＬａｂｏ池上",
    "address":"大田区池上５－１４－４　小宮ビル１階",
    "lat":35.572285,
    "lon":139.70677
  },
  {
    "id":161,
    "name":"このこのリーフ千鳥町駅前",
    "address":"大田区千鳥１－１９－５　フラット千鳥１階",
    "lat":35.572677,
    "lon":139.692702
  },
  {
    "id":162,
    "name":"発達支援教室スマイル千鳥",
    "address":"大田区千鳥１－３－１９",
    "lat":35.572954,
    "lon":139.691952
  },
  {
    "id":163,
    "name":"テラス児童デイサービス千鳥",
    "address":"大田区千鳥一丁目１７番６号　千鳥コラージュ１階",
    "lat":35.572196,
    "lon":139.694272
  },
  {
    "id":164,
    "name":"ハーティーパーチ久が原",
    "address":"大田区南久が原二丁目１９番２９号　植松ビル２階",
    "lat":35.577556,
    "lon":139.68367
  },
  {
    "id":165,
    "name":"発達支援教室スマイル久が原プラス",
    "address":"大田区南久が原２－１２－１４　三立ビル１階",
    "lat":35.578215,
    "lon":139.685866
  },
  {
    "id":166,
    "name":"ゆめクラブ２",
    "address":"大田区下丸子１－１９－２３　ＣＳソレイユ１階",
    "lat":35.566017,
    "lon":139.689103
  },
  {
    "id":167,
    "name":"みなそら矢口園",
    "address":"大田区東矢口３－３０－１２　祥明ビル２Ｆ",
    "lat":35.560575,
    "lon":139.707382
  },
  {
    "id":168,
    "name":"LITALICOジュニア駒沢教室",
    "address":"世田谷区野沢２－３４－２　サンワイズ野沢２階",
    "lat":35.635348,
    "lon":139.665279
  },
  {
    "id":169,
    "name":"わんぱくクラブ三軒茶屋",
    "address":"世田谷区太子堂２－１７－１　太子堂複合施設４階",
    "lat":35.644778,
    "lon":139.671098
  },
  {
    "id":170,
    "name":"あおぞら縁",
    "address":"世田谷区三宿二丁目３８番地７号　加納屋ビル２０１",
    "lat":35.653377,
    "lon":139.672475
  },
  {
    "id":171,
    "name":"わんぱくクラブ三宿",
    "address":"世田谷区三宿１－３－２０　１階",
    "lat":35.648856,
    "lon":139.677442
  },
  {
    "id":172,
    "name":"ハッピーテラス駒沢公園教室",
    "address":"世田谷区上馬４－４１－１　米勢ビル１階",
    "lat":35.63972,
    "lon":139.661038
  },
  {
    "id":173,
    "name":"アプリ児童デイサービス駒沢",
    "address":"世田谷区駒沢三丁目１４番３号　フィル・パーク駒沢大学",
    "lat":35.630863,
    "lon":139.6549
  },
  {
    "id":174,
    "name":"わんぱくクラブ駒沢",
    "address":"世田谷区新町１－３－３２",
    "lat":35.626751,
    "lon":139.652759
  },
  {
    "id":175,
    "name":"子育てステーション桜新町　発達相談室",
    "address":"世田谷区桜新町２－８－１　世田谷目黒農協本店ビル内１階",
    "lat":35.631965,
    "lon":139.645112
  },
  {
    "id":176,
    "name":"プレミア・ケア・ジュニア世田谷店",
    "address":"世田谷区弦巻１－４６－１５",
    "lat":35.639795,
    "lon":139.648692
  },
  {
    "id":177,
    "name":"そらのいろ梅丘",
    "address":"世田谷区梅丘一丁目２２番４号　グローリア初穂梅ヶ丘１０１",
    "lat":35.655421,
    "lon":139.653194
  },
  {
    "id":178,
    "name":"アプリ児童デイサービス若林",
    "address":"世田谷区若林四丁目２番５号",
    "lat":35.646514,
    "lon":139.659405
  },
  {
    "id":179,
    "name":"ウイングせたがや代田",
    "address":"世田谷区若林５－４１－１５　アーヴェイン世田谷２０１",
    "lat":35.651049,
    "lon":139.659724
  },
  {
    "id":180,
    "name":"スタジオそら北沢",
    "address":"世田谷区北沢３－１－３　ＳＦビル２階",
    "lat":35.665981,
    "lon":139.673203
  },
  {
    "id":181,
    "name":"放課後等デイサービス　らしさ",
    "address":"世田谷区松原５－１６－８",
    "lat":35.660881,
    "lon":139.648238
  },
  {
    "id":182,
    "name":"デイサービスにじのこ赤堤",
    "address":"世田谷区赤堤１－８－１９　第１居成ビル２F",
    "lat":35.656959,
    "lon":139.643756
  },
  {
    "id":183,
    "name":"アプリ児童デイサービス桜丘",
    "address":"世田谷区桜丘二丁目２１番３号",
    "lat":35.64606,
    "lon":139.623752
  },
  {
    "id":184,
    "name":"プレイ＆リズム希望丘",
    "address":"世田谷区船橋７－８－３",
    "lat":35.658378,
    "lon":139.619799
  },
  {
    "id":185,
    "name":"テラス児童デイサービス烏山",
    "address":"世田谷区北烏山九丁目３番４号　ピアサン烏山１階１Ａ号室",
    "lat":35.670012,
    "lon":139.595437
  },
  {
    "id":186,
    "name":"児童デイサービスここから",
    "address":"世田谷区北烏山３丁目１１番５号",
    "lat":35.673914,
    "lon":139.60245
  },
  {
    "id":187,
    "name":"アプリ児童デイサービス北烏山",
    "address":"世田谷区北烏山４－３４－１８",
    "lat":35.680397,
    "lon":139.597895
  },
  {
    "id":188,
    "name":"子育てステーション烏山発達相談室",
    "address":"世田谷区南烏山５－１７－５",
    "lat":35.666924,
    "lon":139.601297
  },
  {
    "id":189,
    "name":"プレミア・ケア・ジュニア芦花公園店",
    "address":"世田谷区南烏山１－１６－１９－１階",
    "lat":35.668207,
    "lon":139.612491
  },
  {
    "id":190,
    "name":"はぴねす",
    "address":"世田谷区南烏山６－３３－３３　ウィスタリアハウス２－１階",
    "lat":35.670268,
    "lon":139.600017
  },
  {
    "id":191,
    "name":"凸凹Ｋｉｄｓすぺいす",
    "address":"世田谷区粕谷四丁目１３番１６号",
    "lat":35.663671,
    "lon":139.604225
  },
  {
    "id":192,
    "name":"デイサービスにじのこ給田",
    "address":"世田谷区給田３－１４－７　給田地区会館内",
    "lat":35.664896,
    "lon":139.590679
  },
  {
    "id":193,
    "name":"スタジオそら喜多見",
    "address":"世田谷区喜多見八丁目１５番２５号　キタミフォーラム１階",
    "lat":35.635858,
    "lon":139.588472
  },
  {
    "id":194,
    "name":"こどもデイうぃず",
    "address":"世田谷区喜多見７－２５－１７",
    "lat":35.634097,
    "lon":139.592027
  },
  {
    "id":195,
    "name":"アプリ児童デイサービス千歳台",
    "address":"世田谷区千歳台３－３１－２０",
    "lat":35.653731,
    "lon":139.612419
  },
  {
    "id":196,
    "name":"児童デイサービス　プラス砧",
    "address":"世田谷区砧４－１０－１７－１階",
    "lat":35.640408,
    "lon":139.613234
  },
  {
    "id":197,
    "name":"ＴＡＫＵＭＩ　祖師ヶ谷大蔵",
    "address":"世田谷区砧２－１７－７　Ｅ・スペース２階",
    "lat":35.644565,
    "lon":139.615581
  },
  {
    "id":198,
    "name":"世田谷区発達障害相談・療育センター",
    "address":"世田谷区大蔵２－１０－１８",
    "lat":35.634633,
    "lon":139.612803
  },
  {
    "id":199,
    "name":"イクツアルポック",
    "address":"世田谷区野毛２－２８－２３　Ｂ棟",
    "lat":35.602849,
    "lon":139.639944
  },
  {
    "id":200,
    "name":"発達支援ルーム　琉りゅう",
    "address":"世田谷区上野毛２－２２－１４　Ａ－２階",
    "lat":35.609468,
    "lon":139.635089
  },
  {
    "id":201,
    "name":"運動療育スパークスタジオ世田谷",
    "address":"世田谷区瀬田４－２７－９　ＡＭビル２階",
    "lat":35.621691,
    "lon":139.630011
  },
  {
    "id":202,
    "name":"ウイング用賀",
    "address":"世田谷区用賀２－４０－２",
    "lat":35.625871,
    "lon":139.634549
  },
  {
    "id":203,
    "name":"スタジオそら用賀",
    "address":"世田谷区用賀２－３６－１７　林ビル２階",
    "lat":35.627263,
    "lon":139.635735
  },
  {
    "id":204,
    "name":"広尾てくてく",
    "address":"渋谷区広尾四丁目２番１２号",
    "lat":35.655159,
    "lon":139.722279
  },
  {
    "id":205,
    "name":"特別支援教育研究所　Ｗｉｓh",
    "address":"渋谷区神泉町１５－１１",
    "lat":35.657005,
    "lon":139.691963
  },
  {
    "id":206,
    "name":"よよこ～クラブ",
    "address":"渋谷区千駄ヶ谷５－８－２",
    "lat":35.681647,
    "lon":139.705038
  },
  {
    "id":207,
    "name":"スタジオそら原宿",
    "address":"渋谷区千駄ヶ谷３－５１－６　原宿ＭＯＡ１階",
    "lat":35.675037,
    "lon":139.706133
  },
  {
    "id":208,
    "name":"渋谷区障害者福祉センター代々木の杜",
    "address":"渋谷区代々木２－３５－１",
    "lat":35.684158,
    "lon":139.697725
  },
  {
    "id":209,
    "name":"スタジオそら代々木公園",
    "address":"渋谷区富ヶ谷一丁目２番１号",
    "lat":35.670367,
    "lon":139.690043
  },
  {
    "id":210,
    "name":"放課後等デイサービス　あいだっく",
    "address":"渋谷区上原３－２３－５　オーガストハウス１階",
    "lat":35.66427,
    "lon":139.676789
  },
  {
    "id":211,
    "name":"デイサービスなかよし",
    "address":"渋谷区西原２－３６－７",
    "lat":35.674441,
    "lon":139.675613
  },
  {
    "id":212,
    "name":"児童発達支援・放課後等デイサービス　マリリン　スポーツ塾　初台",
    "address":"渋谷区本町２－５－１１　三山ビル1階",
    "lat":35.684004,
    "lon":139.683515
  },
  {
    "id":213,
    "name":"Ａｒｔ＆Ｍｕｓｉｃ　豆庭　Ｍａｍｅ－Ｎｉｗａ",
    "address":"渋谷区幡ヶ谷１－８－４　リッツパラシオ２０２",
    "lat":35.675572,
    "lon":139.672291
  },
  {
    "id":214,
    "name":"ハッピー・テラス中野",
    "address":"中野区中野４－７－１　野口ビル７階",
    "lat":35.709726,
    "lon":139.66348
  },
  {
    "id":215,
    "name":"Ｐｕｒ　ａｉｌｅ　新井薬師",
    "address":"中野区上高田５－３５－９－１階",
    "lat":35.716528,
    "lon":139.673759
  },
  {
    "id":216,
    "name":"スタジオそら東中野",
    "address":"中野区東中野４－２７－３３　エムエス東中野ビル１階",
    "lat":35.710963,
    "lon":139.689136
  },
  {
    "id":217,
    "name":"発達支援センタージョイナス東中野教室",
    "address":"中野区東中野１－５０－２　オクト森ビル１階",
    "lat":35.705694,
    "lon":139.686381
  },
  {
    "id":218,
    "name":"フリップ",
    "address":"中野区中央５－３８－１３　エスエス１０Ａ２０２",
    "lat":35.699649,
    "lon":139.667274
  },
  {
    "id":219,
    "name":"パソコンあいだっく",
    "address":"中野区本町２－４５－１３　山手ビル７階",
    "lat":35.695861,
    "lon":139.682392
  },
  {
    "id":220,
    "name":"アトリエあいだっく新中野",
    "address":"中野区本町６－３５－１４　アダチビル３階",
    "lat":35.697244,
    "lon":139.662461
  },
  {
    "id":221,
    "name":"おでんくらぶ",
    "address":"中野区本町６－３６－５　シーアイマンション新中野１０２号",
    "lat":35.697261,
    "lon":139.662286
  },
  {
    "id":222,
    "name":"アトリエあいだっく",
    "address":"中野区弥生町２－１０－１　霜田ビル１階",
    "lat":35.692992,
    "lon":139.675802
  },
  {
    "id":223,
    "name":"中野区療育センターゆめなりあ",
    "address":"中野区弥生町５－５－２",
    "lat":35.686165,
    "lon":139.666333
  },
  {
    "id":224,
    "name":"スパーク中野センター",
    "address":"中野区弥生町４－２５－１",
    "lat":35.686345,
    "lon":139.669297
  },
  {
    "id":225,
    "name":"中野区　放課後デイサービスセンター　みずいろ",
    "address":"中野区丸山一丁目１７番２号",
    "lat":35.725683,
    "lon":139.657739
  },
  {
    "id":226,
    "name":"中野区子ども発達センター　たんぽぽ",
    "address":"中野区丸山一丁目１７番２号",
    "lat":35.725683,
    "lon":139.657739
  },
  {
    "id":227,
    "name":"Ｃａｔｃｈ　ａｎｄ　Ｓｍｉｌｅ",
    "address":"中野区江古田４－７－３　金子ビル２階",
    "lat":35.724363,
    "lon":139.662826
  },
  {
    "id":228,
    "name":"さくらそうキッズ",
    "address":"中野区沼袋一丁目２番地７号",
    "lat":35.717864,
    "lon":139.666968
  },
  {
    "id":229,
    "name":"アプリ児童デイサービス沼袋",
    "address":"中野区沼袋２－２８－３４",
    "lat":35.722075,
    "lon":139.665684
  },
  {
    "id":230,
    "name":"space",
    "address":"中野区上鷺宮４－６－２０　イサカビル２階",
    "lat":35.733861,
    "lon":139.630162
  },
  {
    "id":231,
    "name":"ｓｐａｃｅ　Ｋｉｄ’ｓ．ｃｏｎ　鷺ノ宮",
    "address":"中野区上鷺宮５－８－５　ベル・ヴィベール１０２号",
    "lat":35.727484,
    "lon":139.627135
  },
  {
    "id":232,
    "name":"発達支援ルーム　にこっと",
    "address":"杉並区高円寺北３－４０－１３　ＢＩＧ　ＶＡＬＬＥＹ２階",
    "lat":35.710514,
    "lon":139.64657
  },
  {
    "id":233,
    "name":"スタジオあいだっく",
    "address":"杉並区高円寺南３－１－４　キングスコートⅡ４階",
    "lat":35.697955,
    "lon":139.646929
  },
  {
    "id":234,
    "name":"アンソレイユ",
    "address":"杉並区高円寺南２－３５－１５　花月第一ビル２階",
    "lat":35.699241,
    "lon":139.65442
  },
  {
    "id":235,
    "name":"カノン",
    "address":"杉並区高円寺南３－１６－２０",
    "lat":35.700299,
    "lon":139.645509
  },
  {
    "id":236,
    "name":"プレミア･ケア･ジュニア阿佐ヶ谷店",
    "address":"杉並区阿佐谷南２－３２－９－１階",
    "lat":35.704443,
    "lon":139.644173
  },
  {
    "id":237,
    "name":"ハッピーテラス荻窪教室",
    "address":"杉並区阿佐谷南３－１２－４",
    "lat":35.702762,
    "lon":139.628675
  },
  {
    "id":238,
    "name":"バンブーワァオ阿佐ヶ谷校",
    "address":"杉並区阿佐谷南１－１５－１８　伊藤ビル２０１－Ｂ号室",
    "lat":35.699937,
    "lon":139.636905
  },
  {
    "id":239,
    "name":"フェイト",
    "address":"杉並区梅里２－４０－１５－３０１",
    "lat":35.697946,
    "lon":139.639313
  },
  {
    "id":240,
    "name":"フォスター",
    "address":"杉並区和田２－４１－７",
    "lat":35.691728,
    "lon":139.655017
  },
  {
    "id":241,
    "name":"よりみちくらぶ　ネコのトランク",
    "address":"杉並区成田東４－１－２６－２階",
    "lat":35.695118,
    "lon":139.63363
  },
  {
    "id":242,
    "name":"ドルフィンキッズ",
    "address":"杉並区天沼２－４－１　井上ビル２０３",
    "lat":35.705323,
    "lon":139.623386
  },
  {
    "id":243,
    "name":"よりみちくらぶ　トラのながぐつ",
    "address":"杉並区清水１－２３－２３",
    "lat":35.710822,
    "lon":139.617953
  },
  {
    "id":244,
    "name":"コロロ杉並少年隊",
    "address":"杉並区西荻北３－３３－９",
    "lat":35.706547,
    "lon":139.600343
  },
  {
    "id":245,
    "name":"プレミア・ケア・ジュニア西荻窪店",
    "address":"杉並区上荻３－５－４　１階",
    "lat":35.706864,
    "lon":139.607918
  },
  {
    "id":246,
    "name":"みかんの木",
    "address":"杉並区南荻窪１－５－１１　１階",
    "lat":35.694962,
    "lon":139.617259
  },
  {
    "id":247,
    "name":"放課後等デイサービスくじら",
    "address":"杉並区和泉３－２２－１５　グランヴェール和泉１０１",
    "lat":35.677813,
    "lon":139.647741
  },
  {
    "id":248,
    "name":"プレミア・ケア・ジュニア代田橋店",
    "address":"杉並区和泉１－１９－１３",
    "lat":35.674624,
    "lon":139.65859
  },
  {
    "id":249,
    "name":"まぁぶる高井戸",
    "address":"杉並区高井戸東３－２８－４０　小向高井戸ビル２階",
    "lat":35.686774,
    "lon":139.616573
  },
  {
    "id":250,
    "name":"くるみの木",
    "address":"杉並区上高井戸３－１１－９",
    "lat":35.676506,
    "lon":139.614629
  },
  {
    "id":251,
    "name":"よりみちくらぶ　ヤギのサンダル",
    "address":"杉並区宮前２－１０－４２　宮前ヴィレッジＡ棟１０４",
    "lat":35.692521,
    "lon":139.612157
  },
  {
    "id":252,
    "name":"手話でいきる子どもの児童発達支援・放課後等デイサービス　あ～とん塾",
    "address":"豊島区巣鴨３－６－１２　藤ビル２階",
    "lat":35.734014,
    "lon":139.734409
  },
  {
    "id":253,
    "name":"ハッピーキッズスペースみんと大塚",
    "address":"豊島区北大塚３－１０－４　岩田ビル１階",
    "lat":35.734308,
    "lon":139.722004
  },
  {
    "id":254,
    "name":"space",
    "address":"豊島区南大塚１－５０－１２　糸原ビル２階",
    "lat":35.730137,
    "lon":139.731812
  },
  {
    "id":255,
    "name":"児童デイサービス・アニマートいけぶくろ",
    "address":"豊島区東池袋３－１１－７",
    "lat":35.732178,
    "lon":139.718835
  },
  {
    "id":256,
    "name":"LITALICOジュニア池袋西口教室",
    "address":"豊島区池袋２－４６－３　２階",
    "lat":35.733719,
    "lon":139.710436
  },
  {
    "id":257,
    "name":"オリーブキッズ　せんかわ",
    "address":"豊島区千川２－１２－１１　府川ビル１階",
    "lat":35.741868,
    "lon":139.693395
  },
  {
    "id":258,
    "name":"エントランス池袋教室",
    "address":"豊島区要町２－９－１２　要町ホワイトビル２階Ｅ号",
    "lat":35.735316,
    "lon":139.692765
  },
  {
    "id":259,
    "name":"アフタースクールの会",
    "address":"豊島区長崎６－３５－８",
    "lat":35.735601,
    "lon":139.683005
  },
  {
    "id":260,
    "name":"ジャックと豆の樹デイサービスセンター星",
    "address":"豊島区南長崎６－３４－７　風の樹ビル１Ｆ",
    "lat":35.731899,
    "lon":139.679333
  },
  {
    "id":261,
    "name":"放課後デイサービス　ホウェイルリゾート落合南長崎",
    "address":"豊島区南長崎３－６－１４",
    "lat":35.724172,
    "lon":139.687166
  },
  {
    "id":262,
    "name":"放課後等デイサービス　ライトハウス",
    "address":"豊島区南長崎５－１０－１０　エラール１階",
    "lat":35.727174,
    "lon":139.68293
  },
  {
    "id":263,
    "name":"運動発達支援スタジオＵＮＩＭＯ南長崎",
    "address":"豊島区南長崎４－１－１　ＢＡＪビル１階",
    "lat":35.723014,
    "lon":139.685841
  },
  {
    "id":264,
    "name":"つみき第３",
    "address":"北区王子４－２４－１２－３０１",
    "lat":35.76158,
    "lon":139.737196
  },
  {
    "id":265,
    "name":"つみき第５",
    "address":"北区豊島１－１７－４－１００",
    "lat":35.758939,
    "lon":139.73871
  },
  {
    "id":266,
    "name":"放課後等デイサービス　あんプラス",
    "address":"北区栄町５０－３",
    "lat":35.751298,
    "lon":139.746207
  },
  {
    "id":267,
    "name":"こどもプラス１",
    "address":"北区田端新町３－３４－１",
    "lat":35.742334,
    "lon":139.764337
  },
  {
    "id":268,
    "name":"つみき第２",
    "address":"北区王子本町１－１９－１",
    "lat":35.753856,
    "lon":139.733005
  },
  {
    "id":269,
    "name":"放課後デイサービス勉強レストランそうなんだ！！",
    "address":"北区滝野川１－６８－７　早稲田ビル２階",
    "lat":35.748068,
    "lon":139.733955
  },
  {
    "id":270,
    "name":"このこのリーフ　滝野川",
    "address":"北区滝野川五丁目４１番３号",
    "lat":35.748126,
    "lon":139.723126
  },
  {
    "id":271,
    "name":"このこのリーフ滝野川　第２",
    "address":"北区滝野川７－２０－１　笹岡ビル１階",
    "lat":35.742496,
    "lon":139.720329
  },
  {
    "id":272,
    "name":"飛鳥晴山苑　放課後等デイサービスさくら",
    "address":"北区西ケ原４－５１－１",
    "lat":35.74141,
    "lon":139.735978
  },
  {
    "id":273,
    "name":"スキップランド　西ヶ原",
    "address":"北区西ケ原四丁目２番１９号",
    "lat":35.742396,
    "lon":139.739591
  },
  {
    "id":274,
    "name":"つみき第６",
    "address":"北区西ケ原３－５４－８－１０１",
    "lat":35.744193,
    "lon":139.737508
  },
  {
    "id":275,
    "name":"つみき第１",
    "address":"北区上十条１－１９－６",
    "lat":35.759352,
    "lon":139.723289
  },
  {
    "id":276,
    "name":"放課後等デイサービス　ぴーす",
    "address":"北区上十条５－４－１　サンタケビル１階",
    "lat":35.764799,
    "lon":139.717381
  },
  {
    "id":277,
    "name":"スキップランド　神谷",
    "address":"北区神谷二丁目２３番１５号",
    "lat":35.771257,
    "lon":139.728288
  },
  {
    "id":278,
    "name":"特定非営利活動法人クレセール心の相談室",
    "address":"北区赤羽１－４１－５　ＡＴエミネンス２階２０１号室",
    "lat":35.781599,
    "lon":139.719725
  },
  {
    "id":279,
    "name":"第２特定非営利活動法人クレセール心の相談室",
    "address":"北区赤羽２－６９－４　ヴェルメゾン赤羽１階",
    "lat":35.782555,
    "lon":139.722752
  },
  {
    "id":280,
    "name":"児童デイサービス　まぁる",
    "address":"北区浮間四丁目３２番２０号　松岡ビル２階",
    "lat":35.791195,
    "lon":139.691607
  },
  {
    "id":281,
    "name":"つみき第４",
    "address":"北区浮間４－５－５－１０１",
    "lat":35.789051,
    "lon":139.697532
  },
  {
    "id":282,
    "name":"放課後等デイサービスしらゆり　あそぼーよ　みんなで",
    "address":"北区赤羽北３丁目２１番２０－１０２号",
    "lat":35.779105,
    "lon":139.705468
  },
  {
    "id":283,
    "name":"わいわいプラス荒川教室",
    "address":"荒川区町屋５－５－１９　コーポアポロン１階",
    "lat":35.749828,
    "lon":139.779288
  },
  {
    "id":284,
    "name":"スキップランド　町屋",
    "address":"荒川区荒川５－４０－１",
    "lat":35.739618,
    "lon":139.7763
  },
  {
    "id":285,
    "name":"つばめクラブ児童デイサービス",
    "address":"荒川区荒川６－６１－１　ヒロマチヤ１０１号室",
    "lat":35.742154,
    "lon":139.775114
  },
  {
    "id":286,
    "name":"アトリエ　Ｌｏｐ",
    "address":"荒川区荒川４－８－１－１０１　アルビオン宮地",
    "lat":35.737035,
    "lon":139.77772
  },
  {
    "id":287,
    "name":"放課後等デイサービス　あんプラス三ノ輪",
    "address":"荒川区南千住１－１９－１",
    "lat":35.73338,
    "lon":139.790266
  },
  {
    "id":288,
    "name":"放課後等デイサービスハート",
    "address":"荒川区西尾久７丁目５番１１号　マンションシリウスオグ１階",
    "lat":35.750424,
    "lon":139.757787
  },
  {
    "id":289,
    "name":"療養通所それいゆ",
    "address":"荒川区東尾久３－１９－６",
    "lat":35.747125,
    "lon":139.771147
  },
  {
    "id":290,
    "name":"ハッピーテラス尾久教室",
    "address":"荒川区東尾久４－８－１４　鈴木ビル１階",
    "lat":35.742973,
    "lon":139.768661
  },
  {
    "id":291,
    "name":"ＺＩＰＰＹＫＩＤＳ　ＡＮＮＥＸ　荒川",
    "address":"荒川区東尾久３－６－８　２階",
    "lat":35.744825,
    "lon":139.772414
  },
  {
    "id":292,
    "name":"こぱんはうす　さくら",
    "address":"荒川区西日暮里６－２３－５　光ビル１階",
    "lat":35.736071,
    "lon":139.770115
  },
  {
    "id":293,
    "name":"スマイルスイッチＯＮ",
    "address":"荒川区東日暮里６－４５－３",
    "lat":35.728811,
    "lon":139.775542
  },
  {
    "id":294,
    "name":"かすみくらぶ",
    "address":"荒川区東日暮里６－２９－５　サンハイツ磯山１０１",
    "lat":35.732927,
    "lon":139.775417
  },
  {
    "id":295,
    "name":"このこのリーフ　板橋区役所前",
    "address":"板橋区板橋２－６４－１３　Ｙ＆Ｉビル２階",
    "lat":35.750331,
    "lon":139.709543
  },
  {
    "id":296,
    "name":"フォレストケア",
    "address":"板橋区弥生町４９－１１　NYビル中板橋１Ｆ",
    "lat":35.755088,
    "lon":139.692495
  },
  {
    "id":297,
    "name":"ライブリーライフそよかぜ",
    "address":"板橋区大山町３０－１８　大澤ビル２階",
    "lat":35.748673,
    "lon":139.700764
  },
  {
    "id":298,
    "name":"クローバー　よつばのいえ",
    "address":"板橋区熊野町１５－５",
    "lat":35.742585,
    "lon":139.707197
  },
  {
    "id":299,
    "name":"レインボー熊野町",
    "address":"板橋区熊野町１５－１　パレ・ドール池袋北１０１",
    "lat":35.742546,
    "lon":139.707477
  },
  {
    "id":300,
    "name":"児童デイサービス　悠湯館",
    "address":"板橋区大谷口北町７８－６",
    "lat":35.749205,
    "lon":139.685779
  },
  {
    "id":301,
    "name":"東京ＹＷＣＡキッズガーデン",
    "address":"板橋区坂下１－３４－２５",
    "lat":35.780993,
    "lon":139.684505
  },
  {
    "id":302,
    "name":"児童デイサービス・アニマート蓮根駅前",
    "address":"板橋区坂下２－１６－８",
    "lat":35.784001,
    "lon":139.679436
  },
  {
    "id":303,
    "name":"放課後等デイサービス事業所　ウイング・ケアサービス",
    "address":"板橋区蓮根２－２１－５　計良ビル２０１",
    "lat":35.782679,
    "lon":139.676834
  },
  {
    "id":304,
    "name":"板橋ゆめの園　はすねっこ",
    "address":"板橋区蓮根３－６－３　",
    "lat":35.785912,
    "lon":139.6759
  },
  {
    "id":305,
    "name":"児童放課後等デイサービス　ノア",
    "address":"板橋区蓮根２－１９－４　足立ビル１階１０１号室",
    "lat":35.782473,
    "lon":139.678448
  },
  {
    "id":306,
    "name":"フォレストケア板橋本町",
    "address":"板橋区宮本町１－１　健生ビル１階",
    "lat":35.762391,
    "lon":139.704829
  },
  {
    "id":307,
    "name":"放課後等デイサービス　第２もちの木",
    "address":"板橋区富士見町７－１１",
    "lat":35.761388,
    "lon":139.700691
  },
  {
    "id":308,
    "name":"このこのランド上板橋",
    "address":"板橋区中台１丁目４１－１２",
    "lat":35.767039,
    "lon":139.677079
  },
  {
    "id":309,
    "name":"若葉ゆめの園多機能型事業所",
    "address":"板橋区若木３－１５－１",
    "lat":35.772105,
    "lon":139.674201
  },
  {
    "id":310,
    "name":"ドリームボックスときわ台",
    "address":"板橋区南常盤台２－９－１３　キャッスルミナミときわ台１階",
    "lat":35.756963,
    "lon":139.685409
  },
  {
    "id":311,
    "name":"キッズステーションフレンズ",
    "address":"板橋区桜川２－２８－３１",
    "lat":35.759937,
    "lon":139.678362
  },
  {
    "id":312,
    "name":"このこのランド桜川五本けやき",
    "address":"板橋区桜川３－２３－９　ヒルトップＹＳ１階",
    "lat":35.761112,
    "lon":139.673843
  },
  {
    "id":313,
    "name":"キャプテンキッズ",
    "address":"板橋区上板橋２－１３－３　ライオンズマンション１F",
    "lat":35.762376,
    "lon":139.670993
  },
  {
    "id":314,
    "name":"放課後サポートわくわく",
    "address":"板橋区西台４－４－１１　キャッスル西台",
    "lat":35.769708,
    "lon":139.667493
  },
  {
    "id":315,
    "name":"児童デイサービス　もちの木",
    "address":"板橋区高島平１－３４－７",
    "lat":35.783648,
    "lon":139.670179
  },
  {
    "id":316,
    "name":"放課後等デイサービス事業所　てんとう虫",
    "address":"板橋区高島平９－２８－７　技興舎ビル１０１",
    "lat":35.7899,
    "lon":139.670137
  },
  {
    "id":317,
    "name":"アプリ児童デイサービス高島平",
    "address":"板橋区高島平７－４３－２　Ｆｏｒｔｒｅｓｓ．Ｕ１０１号室",
    "lat":35.792108,
    "lon":139.65788
  },
  {
    "id":318,
    "name":"ドリームボックス高島平",
    "address":"板橋区高島平四丁目２３番１５号　ハイネス新高１階",
    "lat":35.789402,
    "lon":139.652444
  },
  {
    "id":319,
    "name":"このこのリーフ西台駅前",
    "address":"板橋区高島平１丁目８０番１３号",
    "lat":35.786764,
    "lon":139.673181
  },
  {
    "id":320,
    "name":"アプリ児童デイサービス高島平２号館",
    "address":"板橋区高島平７丁目１８番１８号　高島平セントラルコート",
    "lat":35.790916,
    "lon":139.656538
  },
  {
    "id":321,
    "name":"放課後等デイサービス　オレンジスイート",
    "address":"板橋区徳丸七丁目２４番１５号　徳丸ビル２階",
    "lat":35.781287,
    "lon":139.665215
  },
  {
    "id":322,
    "name":"このこのリーフ",
    "address":"板橋区成増１－１４－１５　アーバンスパークビル１０２号",
    "lat":35.775829,
    "lon":139.632402
  },
  {
    "id":323,
    "name":"シルバーハート放課後デイサービスひまわり　成増",
    "address":"板橋区成増１－５－１１　第一相互マンション１階",
    "lat":35.773251,
    "lon":139.632588
  },
  {
    "id":324,
    "name":"ＮＰＯ法人ふれあい学童　空",
    "address":"練馬区豊玉北２－１６－３　セントローズ江古田１階",
    "lat":35.734612,
    "lon":139.664853
  },
  {
    "id":325,
    "name":"発達支援室あかねっこ　練馬教室",
    "address":"練馬区豊玉北４－２７－２　練馬民団ビル１階",
    "lat":35.736917,
    "lon":139.657093
  },
  {
    "id":326,
    "name":"かめの子教室",
    "address":"練馬区貫井３－２８－６",
    "lat":35.738183,
    "lon":139.626095
  },
  {
    "id":327,
    "name":"運動発達支援スタジオＵＮＩＭＯ中村橋",
    "address":"練馬区貫井１－２－１　中村橋サンパレス１１１",
    "lat":35.73713,
    "lon":139.637711
  },
  {
    "id":328,
    "name":"発達支援センタージョイナス　向山教室",
    "address":"練馬区向山一丁目１５番２号　上野ビル３階",
    "lat":35.737122,
    "lon":139.639158
  },
  {
    "id":329,
    "name":"発達支援センタージョイナス中村橋教室",
    "address":"練馬区中村北３－９－８　第２真ビル２０１",
    "lat":35.736372,
    "lon":139.640475
  },
  {
    "id":330,
    "name":"放課後等デイサービス　ぱれっと",
    "address":"練馬区三原台２－１８－２　グリーンビル１階",
    "lat":35.755747,
    "lon":139.604369
  },
  {
    "id":331,
    "name":"ラフカｋｉｄｓ",
    "address":"練馬区谷原４－２０－３１　ディアコート・アクア１階",
    "lat":35.757977,
    "lon":139.614412
  },
  {
    "id":332,
    "name":"すまいる・キッズ＆すまいる・ツリー",
    "address":"練馬区谷原５－２２－２　ＭＫＬビル２階",
    "lat":35.750212,
    "lon":139.608163
  },
  {
    "id":333,
    "name":"このこのリーフ谷原",
    "address":"練馬区谷原６－３－５",
    "lat":35.754128,
    "lon":139.610152
  },
  {
    "id":334,
    "name":"すまいる・ステップ",
    "address":"練馬区高野台３－１２－９　メゾンドサントロペ１階",
    "lat":35.743174,
    "lon":139.615796
  },
  {
    "id":335,
    "name":"たまみずき",
    "address":"練馬区石神井町７－３２－７　１階",
    "lat":35.745462,
    "lon":139.596162
  },
  {
    "id":336,
    "name":"児童デイサービス　陽（てぃーら）",
    "address":"練馬区石神井台７－２６－６",
    "lat":35.731557,
    "lon":139.577958
  },
  {
    "id":337,
    "name":"くまさん",
    "address":"練馬区石神井台５－２５－２７",
    "lat":35.738748,
    "lon":139.587363
  },
  {
    "id":338,
    "name":"児童デイ　月のうさぎ",
    "address":"練馬区石神井台８－７－１６",
    "lat":35.735735,
    "lon":139.580149
  },
  {
    "id":339,
    "name":"このこのリーフ練馬",
    "address":"練馬区石神井台５－２２－４１　フォーラム石神井１０６",
    "lat":35.737085,
    "lon":139.588804
  },
  {
    "id":340,
    "name":"ふるーれプラス",
    "address":"練馬区石神井台３－２４－３５",
    "lat":35.743659,
    "lon":139.590209
  },
  {
    "id":341,
    "name":"放課後デイサービス　うぃんくる",
    "address":"練馬区関町北３－１－３　ＭＳビル１階",
    "lat":35.723272,
    "lon":139.572712
  },
  {
    "id":342,
    "name":"発達支援研究所スプラウト武蔵関教室",
    "address":"練馬区関町北２－２４－１０　ＬＵＣＥ関町００１号",
    "lat":35.726927,
    "lon":139.5757
  },
  {
    "id":343,
    "name":"あいの風キッズステーション",
    "address":"練馬区関町東２－１５－８　マンション柚子１０１号",
    "lat":35.728452,
    "lon":139.579008
  },
  {
    "id":344,
    "name":"いまここ大泉学園",
    "address":"練馬区大泉学園町８－７－３５",
    "lat":35.771986,
    "lon":139.594167
  },
  {
    "id":345,
    "name":"児童デイサービス　ＯＨＡＮＡ　ＫＩＤＳ大泉学園",
    "address":"練馬区大泉学園町８－２５－１８　エスファルド１０２",
    "lat":35.774869,
    "lon":139.595297
  },
  {
    "id":346,
    "name":"療育ルーム　りんごの木",
    "address":"練馬区大泉学園町１－２８－５",
    "lat":35.760268,
    "lon":139.588723
  },
  {
    "id":347,
    "name":"ふれあい学童　空",
    "address":"練馬区大泉町５－３５－１　ジョイハウス北園１階",
    "lat":35.758096,
    "lon":139.590462
  },
  {
    "id":348,
    "name":"発達支援室あかねっこ　大泉教室",
    "address":"練馬区東大泉３－１９－６　第一豊田ビル２階",
    "lat":35.7515,
    "lon":139.585854
  },
  {
    "id":349,
    "name":"でぃあな",
    "address":"練馬区東大泉４－２５－１６",
    "lat":35.752022,
    "lon":139.583354
  },
  {
    "id":350,
    "name":"はつらつ",
    "address":"練馬区南大泉５－３－３",
    "lat":35.749653,
    "lon":139.578802
  },
  {
    "id":351,
    "name":"ハーモニー",
    "address":"練馬区西大泉３－１１－４",
    "lat":35.753955,
    "lon":139.581637
  },
  {
    "id":352,
    "name":"このこのリーフ光が丘",
    "address":"練馬区旭町１－４１－１２",
    "lat":35.766268,
    "lon":139.620131
  },
  {
    "id":353,
    "name":"練馬区立こども発達支援センター",
    "address":"練馬区光が丘３－１－１",
    "lat":35.754201,
    "lon":139.630961
  },
  {
    "id":354,
    "name":"みかん",
    "address":"練馬区春日町３－１－１２　クリスタルエム１階",
    "lat":35.748121,
    "lon":139.644566
  },
  {
    "id":355,
    "name":"はじめのいっぽ春日町",
    "address":"練馬区春日町２－２８－３　春日町児童館１階",
    "lat":35.757087,
    "lon":139.646351
  },
  {
    "id":356,
    "name":"シルバーハート放課後デイサービスひまわり",
    "address":"練馬区春日町５－３３－３０－２Ｆ",
    "lat":35.751223,
    "lon":139.637419
  },
  {
    "id":357,
    "name":"春日びより",
    "address":"練馬区春日町５－３３－３３　春日町ＮＣビル１階",
    "lat":35.751326,
    "lon":139.637855
  },
  {
    "id":358,
    "name":"発達支援室あかねっこ　春日町教室",
    "address":"練馬区高松２－２６－６　サングリーン高松２階",
    "lat":35.750937,
    "lon":139.631497
  },
  {
    "id":359,
    "name":"にじ色くらぶ",
    "address":"練馬区高松６－５－８　フジハイムⅡ１０２",
    "lat":35.756694,
    "lon":139.618098
  },
  {
    "id":360,
    "name":"あんしぇる",
    "address":"練馬区北町６－２７－１１　パチェフォレスタ１階",
    "lat":35.760114,
    "lon":139.652831
  },
  {
    "id":361,
    "name":"つむぎの里　雅　錦",
    "address":"練馬区錦１－１６－１０",
    "lat":35.757665,
    "lon":139.670308
  },
  {
    "id":362,
    "name":"白い鳥",
    "address":"足立区大谷田４－１－１８",
    "lat":35.777295,
    "lon":139.83809
  },
  {
    "id":363,
    "name":"あしたも笑顔　谷中公園",
    "address":"足立区東和５－１４－１８－１Ｆ",
    "lat":35.775939,
    "lon":139.838676
  },
  {
    "id":364,
    "name":"児童デイサービス　にじいろ東和",
    "address":"足立区東和４－４－２０",
    "lat":35.771046,
    "lon":139.84307
  },
  {
    "id":365,
    "name":"からふるＫids綾瀬",
    "address":"足立区綾瀬２－４６－６　河合ビル１階",
    "lat":35.762183,
    "lon":139.830591
  },
  {
    "id":366,
    "name":"あしたも笑顔　北綾瀬",
    "address":"足立区谷中２－１０－１　小倉ビル１階",
    "lat":35.776212,
    "lon":139.832429
  },
  {
    "id":367,
    "name":"放課後等デイサービスおはな",
    "address":"足立区谷中２－１４－３　皐月マンション１０２",
    "lat":35.775345,
    "lon":139.832329
  },
  {
    "id":368,
    "name":"放課後等デイサービス　笑がお",
    "address":"足立区青井三丁目５番２６号１０１号室",
    "lat":35.770298,
    "lon":139.818159
  },
  {
    "id":369,
    "name":"まつぼっくりツリー",
    "address":"足立区足立３－１０－６　ヴァロービル２階",
    "lat":35.764746,
    "lon":139.809093
  },
  {
    "id":370,
    "name":"児童デイサービスＫｏＭｏＲｅＢｉ北千住",
    "address":"足立区千住曙町３７－１０　段上ビル２階",
    "lat":35.741827,
    "lon":139.816091
  },
  {
    "id":371,
    "name":"発達支援室あかねっこ　北千住教室　サポートワン",
    "address":"足立区千住旭町７－２５",
    "lat":35.746968,
    "lon":139.806125
  },
  {
    "id":372,
    "name":"きたせんじゅステップ第３",
    "address":"足立区千住大川町３７－２",
    "lat":35.755477,
    "lon":139.798011
  },
  {
    "id":373,
    "name":"きたせんじゅステップ第２",
    "address":"足立区千住寿町３８－８",
    "lat":35.754939,
    "lon":139.800241
  },
  {
    "id":374,
    "name":"きたせんじゅステップ",
    "address":"足立区千住龍田町３－１３",
    "lat":35.750734,
    "lon":139.796278
  },
  {
    "id":375,
    "name":"えにし　こどもプラス",
    "address":"足立区神明２－２－１１",
    "lat":35.793165,
    "lon":139.831742
  },
  {
    "id":376,
    "name":"放課後等デイサービスあおぞら六木",
    "address":"足立区六木１－４－１７",
    "lat":35.789746,
    "lon":139.837667
  },
  {
    "id":377,
    "name":"ぷらちな児童デイ",
    "address":"足立区加平１－８－２３",
    "lat":35.774848,
    "lon":139.826032
  },
  {
    "id":378,
    "name":"あある　まつりかフラワー",
    "address":"足立区花畑４－２３－８　グリーンパーク花畑Ⅳ１０１号室",
    "lat":35.804494,
    "lon":139.810277
  },
  {
    "id":379,
    "name":"あったかいデイ　花畑",
    "address":"足立区花畑５－１２－１　花畑団地８２号棟１０２号",
    "lat":35.807,
    "lon":139.809927
  },
  {
    "id":380,
    "name":"キッズの森第３　南花畑",
    "address":"足立区南花畑４－３１－４　ＭＹ第２ビル１０１号室",
    "lat":35.799053,
    "lon":139.817896
  },
  {
    "id":381,
    "name":"あある　まつりか",
    "address":"足立区東保木間２－６－８",
    "lat":35.794351,
    "lon":139.81158
  },
  {
    "id":382,
    "name":"児童デイサービス　ハートぽっぽ　ＥＡＳＴ",
    "address":"足立区東保木間２－２３－５",
    "lat":35.794601,
    "lon":139.814166
  },
  {
    "id":383,
    "name":"児童デイサービスハートぽっぽ",
    "address":"足立区保木間１－５－２１",
    "lat":35.789587,
    "lon":139.805111
  },
  {
    "id":384,
    "name":"キッズの森",
    "address":"足立区保木間２－２－１　オオサキ竹ノ塚マンション１階",
    "lat":35.793867,
    "lon":139.802675
  },
  {
    "id":385,
    "name":"にこにこキッズ",
    "address":"足立区保木間三丁目３３番８号　第１２６新井ビル１０２号室",
    "lat":35.795308,
    "lon":139.809947
  },
  {
    "id":386,
    "name":"児童デイサービス　リズム東伊興",
    "address":"足立区東伊興３－１４－２３　第二佐藤ビル１階",
    "lat":35.802777,
    "lon":139.791804
  },
  {
    "id":387,
    "name":"すかいきっず",
    "address":"足立区西保木間１－２１－７－１０１",
    "lat":35.796695,
    "lon":139.798414
  },
  {
    "id":388,
    "name":"パワフルキッズ西保木間",
    "address":"足立区西保木間２－５－５",
    "lat":35.798978,
    "lon":139.797856
  },
  {
    "id":389,
    "name":"ハッピートライアングル竹ノ塚",
    "address":"足立区竹の塚１－３０－１－１階",
    "lat":35.791567,
    "lon":139.792187
  },
  {
    "id":390,
    "name":"児童デイサービス　たのしー",
    "address":"足立区六月３－３－４",
    "lat":35.785737,
    "lon":139.790796
  },
  {
    "id":391,
    "name":"みつばちはうす",
    "address":"足立区六月３－３－５",
    "lat":35.785824,
    "lon":139.790624
  },
  {
    "id":392,
    "name":"キッズの森　六月",
    "address":"足立区六月１－５－２８　相川ビル１階",
    "lat":35.785702,
    "lon":139.801015
  },
  {
    "id":393,
    "name":"でいじいすまいる",
    "address":"足立区島根２－２－１　島根グリーンフォレスト",
    "lat":35.780641,
    "lon":139.802892
  },
  {
    "id":394,
    "name":"Ｏｎｌｙ　Ｏｎｅ足立",
    "address":"足立区島根３－１－１０",
    "lat":35.7791,
    "lon":139.796996
  },
  {
    "id":395,
    "name":"パワフルキッズ",
    "address":"足立区入谷１－１６－１３",
    "lat":35.805459,
    "lon":139.766872
  },
  {
    "id":396,
    "name":"すかいきっずぷらす",
    "address":"足立区西新井１－３８－１１　オリエント第６ビル１０２号",
    "lat":35.78246,
    "lon":139.780333
  },
  {
    "id":397,
    "name":"児童デイサービス　リズム西新井",
    "address":"足立区西新井本町１－１９－１１　１階",
    "lat":35.776388,
    "lon":139.776911
  },
  {
    "id":398,
    "name":"キッズの森第２",
    "address":"足立区梅田１－１５－９－１階",
    "lat":35.764387,
    "lon":139.800157
  },
  {
    "id":399,
    "name":"わいわいプラス足立教室",
    "address":"足立区関原３－２－１８",
    "lat":35.769814,
    "lon":139.79133
  },
  {
    "id":400,
    "name":"ゆうゆうらいふアカデミー西新井",
    "address":"足立区関原１－１９－６　メゾンセンチュリー２０２",
    "lat":35.76369,
    "lon":139.787333
  },
  {
    "id":401,
    "name":"ふきのとう",
    "address":"足立区本木１－２１－１５",
    "lat":35.762426,
    "lon":139.784609
  },
  {
    "id":402,
    "name":"ふきのとう２",
    "address":"足立区本木１－１９－５－１０１",
    "lat":35.762576,
    "lon":139.784767
  },
  {
    "id":403,
    "name":"こぱんはうすさくら　本木教室",
    "address":"足立区本木西町１－２０　宮内サンハイツ１Ｆ",
    "lat":35.760068,
    "lon":139.780676
  },
  {
    "id":404,
    "name":"縁カレッジ",
    "address":"足立区鹿浜４－２６－４　トーボービル１号室",
    "lat":35.783473,
    "lon":139.756716
  },
  {
    "id":405,
    "name":"療育室つばさ",
    "address":"足立区扇１－４４－１５",
    "lat":35.766673,
    "lon":139.776915
  },
  {
    "id":406,
    "name":"放課後等デイサービス　キッズパーク",
    "address":"葛飾区小菅４－１０－６　下井ビル２階",
    "lat":35.761924,
    "lon":139.825061
  },
  {
    "id":407,
    "name":"アポロキッズクラブお花茶屋",
    "address":"葛飾区お花茶屋２－４－１８",
    "lat":35.751745,
    "lon":139.839849
  },
  {
    "id":408,
    "name":"アポロキッズクラブ東堀切",
    "address":"葛飾区東堀切３－７－３",
    "lat":35.7561,
    "lon":139.836146
  },
  {
    "id":409,
    "name":"放課後等デイサービスつぼみ",
    "address":"葛飾区堀切７－２３－４－１階",
    "lat":35.75602,
    "lon":139.832113
  },
  {
    "id":410,
    "name":"縁ジェルキッズ",
    "address":"葛飾区堀切５－５０－９　吉田ビル１階",
    "lat":35.751084,
    "lon":139.828494
  },
  {
    "id":411,
    "name":"ゆりのねこどもDayさぽーとⅡ",
    "address":"葛飾区四つ木１－２９－１５　１F",
    "lat":35.734529,
    "lon":139.834856
  },
  {
    "id":412,
    "name":"児童デイサービス　にじいろ立石",
    "address":"葛飾区立石８－５３－４",
    "lat":35.738689,
    "lon":139.858067
  },
  {
    "id":413,
    "name":"広伸会　奥戸教室",
    "address":"葛飾区奥戸１－１８－１８　１階",
    "lat":35.729184,
    "lon":139.856585
  },
  {
    "id":414,
    "name":"広伸会　東新小岩教室",
    "address":"葛飾区東新小岩５－１８－１　１階",
    "lat":35.72331,
    "lon":139.857049
  },
  {
    "id":415,
    "name":"広伸会　西新小岩教室",
    "address":"葛飾区西新小岩４－２９－８　１階",
    "lat":35.720688,
    "lon":139.85306
  },
  {
    "id":416,
    "name":"児童デイサービス「優」",
    "address":"葛飾区西水元１－１８－１",
    "lat":35.7806,
    "lon":139.851652
  },
  {
    "id":417,
    "name":"かつしか風の子クラブ",
    "address":"葛飾区西水元５－１１－３",
    "lat":35.78446,
    "lon":139.854533
  },
  {
    "id":418,
    "name":"スマートキッズプラス水元",
    "address":"葛飾区水元４－６－１９　プリンス２階",
    "lat":35.787874,
    "lon":139.860271
  },
  {
    "id":419,
    "name":"児童発達支援・放課後等デイサービス　つばさクラブ東水元",
    "address":"葛飾区東水元５－２４－１",
    "lat":35.792273,
    "lon":139.864376
  },
  {
    "id":420,
    "name":"児童デイサービス　あい",
    "address":"葛飾区南水元２－５－８",
    "lat":35.779328,
    "lon":139.852644
  },
  {
    "id":421,
    "name":"あしたも笑顔　金町",
    "address":"葛飾区東金町２－１１－６　１階",
    "lat":35.776009,
    "lon":139.867082
  },
  {
    "id":422,
    "name":"このこのリーフ葛飾",
    "address":"葛飾区東金町１－４０－４　金町北口ビル２階",
    "lat":35.770673,
    "lon":139.872335
  },
  {
    "id":423,
    "name":"ぷれゾンクラブ金町",
    "address":"葛飾区東金町３－４１－１８",
    "lat":35.77517,
    "lon":139.87234
  },
  {
    "id":424,
    "name":"児童発達支援・放課後等デイサービス　もなか",
    "address":"葛飾区新宿二丁目１２番２５号",
    "lat":35.761836,
    "lon":139.856783
  },
  {
    "id":425,
    "name":"児童デイサービス　にじいろ柴又",
    "address":"葛飾区柴又７－１４－４",
    "lat":35.759842,
    "lon":139.879159
  },
  {
    "id":426,
    "name":"のぞみ発達支援室たかさご",
    "address":"葛飾区高砂７－２６－３",
    "lat":35.756995,
    "lon":139.867121
  },
  {
    "id":427,
    "name":"児童発達支援・放課後等デイサービス　つばさクラブ高砂",
    "address":"葛飾区高砂８－２８－１２",
    "lat":35.752754,
    "lon":139.870768
  },
  {
    "id":428,
    "name":"ハッピーテラス葛飾高砂",
    "address":"葛飾区高砂３－１１－１４　ステーションハイツ高砂１０６号",
    "lat":35.750426,
    "lon":139.867633
  },
  {
    "id":429,
    "name":"スマートキッズプラス亀有",
    "address":"葛飾区亀有３－１３－２　亀有鞠子ビル２階",
    "lat":35.763133,
    "lon":139.847781
  },
  {
    "id":430,
    "name":"ＬＤサポート・療育　ソラアルＳＳＥ",
    "address":"葛飾区亀有五丁目３４番１０－２０１号",
    "lat":35.767505,
    "lon":139.848792
  },
  {
    "id":431,
    "name":"のぞみ学園かめあり",
    "address":"葛飾区亀有２－２２－１１",
    "lat":35.760067,
    "lon":139.852535
  },
  {
    "id":432,
    "name":"広伸会　亀有教室",
    "address":"葛飾区亀有２－７３－１０　Ｙビル１階",
    "lat":35.76195,
    "lon":139.852536
  },
  {
    "id":433,
    "name":"放課後等デイサービス　ゆめ",
    "address":"葛飾区青戸一丁目９番２３号　ジュネパレス葛飾第１　１階",
    "lat":35.744407,
    "lon":139.855712
  },
  {
    "id":434,
    "name":"児童デイ　お花ちゃや",
    "address":"葛飾区白鳥３－１５－１２　１階",
    "lat":35.75239,
    "lon":139.843718
  },
  {
    "id":435,
    "name":"アポロキッズクラブ",
    "address":"葛飾区白鳥三丁目３１番９号",
    "lat":35.754709,
    "lon":139.843754
  },
  {
    "id":436,
    "name":"広伸会　白鳥教室",
    "address":"葛飾区白鳥３－６－１２　１階",
    "lat":35.750032,
    "lon":139.846121
  },
  {
    "id":437,
    "name":"ファーストドリーム新堀",
    "address":"江戸川区新堀１－９－１８",
    "lat":35.704909,
    "lon":139.885891
  },
  {
    "id":438,
    "name":"たいよう　児童デイサービス瑞江",
    "address":"江戸川区瑞江２丁目２４番８号　シェアヴィ瑞江１階",
    "lat":35.696858,
    "lon":139.898101
  },
  {
    "id":439,
    "name":"ＤＲＥＡＭ　ＫＩＤＳ　ＣＬＵＢ",
    "address":"江戸川区瑞江１－５６－４",
    "lat":35.6979,
    "lon":139.895674
  },
  {
    "id":440,
    "name":"スマートキッズプラス瑞江",
    "address":"江戸川区東瑞江３－５５－１８",
    "lat":35.690136,
    "lon":139.897413
  },
  {
    "id":441,
    "name":"スタジオｐｌｕｓ＋瑞江教室",
    "address":"江戸川区東瑞江３－４１－６　ＵＨＲビル２０１号室",
    "lat":35.691533,
    "lon":139.895141
  },
  {
    "id":442,
    "name":"コアンティ",
    "address":"江戸川区大杉１－２３－１６",
    "lat":35.707668,
    "lon":139.876003
  },
  {
    "id":443,
    "name":"ハッピーテラス一之江教室",
    "address":"江戸川区一之江８－１７－１７　ＰＲＩＭＯＮＤ２階",
    "lat":35.686477,
    "lon":139.883587
  },
  {
    "id":444,
    "name":"ＧＲＩＰ　キッズ　一之江校",
    "address":"江戸川区一之江７－３０－６　カーサクレセール１０２号",
    "lat":35.688612,
    "lon":139.880734
  },
  {
    "id":445,
    "name":"スマートキッズプラス船堀",
    "address":"江戸川区松江４－１２－７　山種小松川ビル２階",
    "lat":35.695566,
    "lon":139.871507
  },
  {
    "id":446,
    "name":"ＪＮＣ松江",
    "address":"江戸川区松江４－１３－６",
    "lat":35.695341,
    "lon":139.871804
  },
  {
    "id":447,
    "name":"こいわステップ",
    "address":"江戸川区松島４－４６－１６",
    "lat":35.713666,
    "lon":139.860235
  },
  {
    "id":448,
    "name":"こいわステップ第２",
    "address":"江戸川区松島１－２０－２１－１階・２階",
    "lat":35.702684,
    "lon":139.864627
  },
  {
    "id":449,
    "name":"広伸会　江戸川教室",
    "address":"江戸川区松島３－４６－１０－１０２",
    "lat":35.709844,
    "lon":139.865904
  },
  {
    "id":450,
    "name":"児童デイサービスばんびーの",
    "address":"江戸川区東小松川２－３１－６　レジデンシャル五洋１０３",
    "lat":35.695924,
    "lon":139.867557
  },
  {
    "id":451,
    "name":"スマートキッズプラス平井",
    "address":"江戸川区平井５－２４－８　リバースポイント２Ｆ号室",
    "lat":35.707627,
    "lon":139.843634
  },
  {
    "id":452,
    "name":"放課後デイサービス　キッズピース平井",
    "address":"江戸川区平井６丁目１４番１０号　にしきビル２階",
    "lat":35.706952,
    "lon":139.839993
  },
  {
    "id":453,
    "name":"コラゾン平井",
    "address":"江戸川区平井４－８－１４　高橋ビル１階",
    "lat":35.705683,
    "lon":139.844915
  },
  {
    "id":454,
    "name":"ファーストドリーム上一色",
    "address":"江戸川区上一色１－４－１７",
    "lat":35.723682,
    "lon":139.870867
  },
  {
    "id":455,
    "name":"にじ北小岩",
    "address":"江戸川区北小岩６－１１－４　ホテルスカイコート小岩１０１",
    "lat":35.742933,
    "lon":139.883426
  },
  {
    "id":456,
    "name":"児童デイあみりあ北",
    "address":"江戸川区北小岩１－１５－２",
    "lat":35.736653,
    "lon":139.891159
  },
  {
    "id":457,
    "name":"放課後等デイサービス　あんず　江戸川",
    "address":"江戸川区東小岩１－９－９　長寿メディカルセンター２０２",
    "lat":35.72363,
    "lon":139.889785
  },
  {
    "id":458,
    "name":"児童デイあみりあ",
    "address":"江戸川区南小岩４－１０－１１",
    "lat":35.723697,
    "lon":139.882485
  },
  {
    "id":459,
    "name":"児童デイサービス　生活塾みずならの木　南小岩",
    "address":"江戸川区南小岩７－３７－１８　クレドハイツ小岩１０２号室",
    "lat":35.728482,
    "lon":139.88584
  },
  {
    "id":460,
    "name":"オレンジスクール　小岩教室",
    "address":"江戸川区西小岩２－２０－１６",
    "lat":35.734106,
    "lon":139.877921
  },
  {
    "id":461,
    "name":"児童デイサービス　ばんびーのしのざき",
    "address":"江戸川区篠崎町一丁目７番２号",
    "lat":35.708728,
    "lon":139.903928
  },
  {
    "id":462,
    "name":"スマートキッズプラス南篠崎",
    "address":"江戸川区南篠崎町２－１６－１　第５ストークマンション１階",
    "lat":35.692661,
    "lon":139.900468
  },
  {
    "id":463,
    "name":"スマートキッズプラス南篠崎第二",
    "address":"江戸川区南篠崎町三丁目２４番７号　島村事務所１階",
    "lat":35.694619,
    "lon":139.900365
  },
  {
    "id":464,
    "name":"ファーストドリーム瑞江",
    "address":"江戸川区南篠崎町２－９－２",
    "lat":35.692103,
    "lon":139.900165
  },
  {
    "id":465,
    "name":"ファーストドリーム南篠崎",
    "address":"江戸川区南篠崎町２－９－２",
    "lat":35.692103,
    "lon":139.900165
  },
  {
    "id":466,
    "name":"おおぞら・子どもデイセンター",
    "address":"江戸川区東松本２－１７－１５",
    "lat":35.722189,
    "lon":139.881002
  },
  {
    "id":467,
    "name":"児童デイサービス「ぷくぷく」",
    "address":"江戸川区鹿骨３－１２－１７　ロンジェヴィテえどがわ１階",
    "lat":35.71386,
    "lon":139.891749
  },
  {
    "id":468,
    "name":"ククルの実",
    "address":"江戸川区鹿骨一丁目５９番１２号　鹿骨センターハイツ１０１",
    "lat":35.710089,
    "lon":139.890013
  },
  {
    "id":469,
    "name":"キッズランド",
    "address":"江戸川区鹿骨５－２９－１　山田貸事務所１階",
    "lat":35.716026,
    "lon":139.885299
  },
  {
    "id":470,
    "name":"わくわくＧＡＴＥ江戸川",
    "address":"江戸川区江戸川３－５０－２０",
    "lat":35.682775,
    "lon":139.889058
  },
  {
    "id":471,
    "name":"スマートキッズジュニア船掘",
    "address":"江戸川区北葛西４－５－７",
    "lat":35.673785,
    "lon":139.863233
  },
  {
    "id":472,
    "name":"スマートキッズプラス北葛西",
    "address":"江戸川区北葛西四丁目２２－１１号　ＹＳビル１階",
    "lat":35.670694,
    "lon":139.866486
  },
  {
    "id":473,
    "name":"たいよう　児童デイサービス船堀",
    "address":"江戸川区北葛西一丁目２１番１８号　リカーハイツ１階",
    "lat":35.680342,
    "lon":139.861197
  },
  {
    "id":474,
    "name":"放課後等デイサービス　キッズピース西葛西",
    "address":"江戸川区北葛西４－１３－３０　佐藤ビル１階",
    "lat":35.669683,
    "lon":139.861589
  },
  {
    "id":475,
    "name":"日本重症心身障害児支援協会　多機能型ステーション　望",
    "address":"江戸川区中葛西５－４－４",
    "lat":35.662948,
    "lon":139.865281
  },
  {
    "id":476,
    "name":"ハッピーテラス葛西教室",
    "address":"江戸川区中葛西３－１６－１７　パネフリアドビル２階",
    "lat":35.664395,
    "lon":139.869447
  },
  {
    "id":477,
    "name":"ふるーる",
    "address":"江戸川区東葛西６－４８－１８",
    "lat":35.661951,
    "lon":139.880754
  },
  {
    "id":478,
    "name":"ふるーるの森",
    "address":"江戸川区東葛西５－２－２　ゾンネンハイム葛西",
    "lat":35.665075,
    "lon":139.873577
  },
  {
    "id":479,
    "name":"スマートキッズプラス葛西",
    "address":"江戸川区東葛西６－４－３　第３ロイヤルシラコビル３０１",
    "lat":35.663337,
    "lon":139.874097
  },
  {
    "id":480,
    "name":"ひまわり学習教室",
    "address":"江戸川区東葛西６－１－５",
    "lat":35.661098,
    "lon":139.873255
  },
  {
    "id":481,
    "name":"ハッピーテラス東葛西教室",
    "address":"江戸川区東葛西５－１３－１３　フローラル東葛西Ⅱ２０３号",
    "lat":35.663773,
    "lon":139.874899
  },
  {
    "id":482,
    "name":"くすのき放課後等デイサービス葛西",
    "address":"江戸川区南葛西１－１０－６　Ａ－ＹＵ１階",
    "lat":35.654446,
    "lon":139.870772
  },
  {
    "id":483,
    "name":"くすのき放課後等デイサービス葛西南",
    "address":"江戸川区南葛西３－２４－４　小林久商店貸事務所１階",
    "lat":35.649074,
    "lon":139.871531
  },
  {
    "id":484,
    "name":"スマートキッズプラス西葛西",
    "address":"江戸川区西葛西６－２２－１６　",
    "lat":35.663867,
    "lon":139.862731
  },
  {
    "id":485,
    "name":"ハッピーテラス西葛西",
    "address":"江戸川区西葛西７－３－１０　ＢＫＮ西葛西５階",
    "lat":35.662017,
    "lon":139.859542
  },
  {
    "id":486,
    "name":"パオパオくらぶ",
    "address":"江戸川区船堀１－１－２",
    "lat":35.685364,
    "lon":139.860461
  },
  {
    "id":487,
    "name":"児童デイサービス南風",
    "address":"江戸川区船堀２－１８－５",
    "lat":35.682342,
    "lon":139.86035
  },
  {
    "id":488,
    "name":"児童デイサービス　ばんびーのふなぼり",
    "address":"江戸川区船堀１－８－１９－０００２号",
    "lat":35.683784,
    "lon":139.86338
  },
  {
    "id":489,
    "name":"戸吹の杜",
    "address":"八王子市戸吹町３９１－５",
    "lat":35.709816,
    "lon":139.289617
  },
  {
    "id":490,
    "name":"いくをくらＢｏｏ",
    "address":"八王子市石川町９３－１　ＴＩＫビル１階",
    "lat":35.681224,
    "lon":139.357979
  },
  {
    "id":491,
    "name":"ベアーズハウス　中野上町",
    "address":"八王子市中野上町１－１１－５",
    "lat":35.668178,
    "lon":139.32826
  },
  {
    "id":492,
    "name":"運動療育で生きる力を育む　シエル",
    "address":"八王子市中野山王１丁目１２番地２号　オガタビル２０２号室",
    "lat":35.673322,
    "lon":139.328582
  },
  {
    "id":493,
    "name":"ぽんぽこクラブ",
    "address":"八王子市大和田町２－２０－７",
    "lat":35.665101,
    "lon":139.359596
  },
  {
    "id":494,
    "name":"Ｂａｍｂｏｕ",
    "address":"八王子市大和田町４－５－４　",
    "lat":35.662793,
    "lon":139.354096
  },
  {
    "id":495,
    "name":"青空クラブ",
    "address":"八王子市元本郷町４－２０－２６",
    "lat":35.665906,
    "lon":139.31458
  },
  {
    "id":496,
    "name":"「あそび」「運動」「学習」で笑顔溢れる発達支援教室",
    "address":"八王子市天神町２４－３　プラムフィールド２０２号",
    "lat":35.657446,
    "lon":139.328374
  },
  {
    "id":497,
    "name":"ばんびーの",
    "address":"八王子市西寺方町１０９０－５",
    "lat":35.682933,
    "lon":139.268125
  },
  {
    "id":498,
    "name":"こぱん",
    "address":"八王子市西寺方町４４９－１",
    "lat":35.676186,
    "lon":139.268653
  },
  {
    "id":499,
    "name":"こどもでいさーびす　はるいろ",
    "address":"八王子市下恩方町７６６　ジュネス２番館１階",
    "lat":35.679133,
    "lon":139.263532
  },
  {
    "id":500,
    "name":"ドリームボックス",
    "address":"八王子市東中野１２５５－１",
    "lat":35.632506,
    "lon":139.405652
  },
  {
    "id":501,
    "name":"放課後等デイサービス　おひさま",
    "address":"八王子市大塚１６５",
    "lat":35.639475,
    "lon":139.417906
  },
  {
    "id":502,
    "name":"あんふぁん大塚事業所",
    "address":"八王子市大塚６２３番地３　かざまビル４０１号室",
    "lat":35.638156,
    "lon":139.418395
  },
  {
    "id":503,
    "name":"通所支援ベルテール八王子大塚園",
    "address":"八王子市大塚４９４－１",
    "lat":35.638695,
    "lon":139.421431
  },
  {
    "id":504,
    "name":"あんふぁん由木事業所",
    "address":"八王子市大塚６２７－１８　フォースフロンティア１階",
    "lat":35.637081,
    "lon":139.419984
  },
  {
    "id":505,
    "name":"コラソンキッズ八王子",
    "address":"八王子市堀之内２－１７－１　",
    "lat":35.629481,
    "lon":139.402741
  },
  {
    "id":506,
    "name":"ハッピーテラス堀之内教室",
    "address":"八王子市越野２５－３１　プランドール美鶴１階",
    "lat":35.62809,
    "lon":139.392686
  },
  {
    "id":507,
    "name":"オリーブ芸術療法研究所",
    "address":"八王子市南大沢１－２２－２",
    "lat":35.617018,
    "lon":139.384843
  },
  {
    "id":508,
    "name":"セントスクエア",
    "address":"八王子市南大沢２－２７　フレスコ南大沢５F",
    "lat":35.611941,
    "lon":139.37926
  },
  {
    "id":509,
    "name":"ビバーチェ",
    "address":"八王子市南大沢２－２１２－３　三協ビル２階",
    "lat":35.611014,
    "lon":139.384865
  },
  {
    "id":510,
    "name":"通所支援ベルテール八王子第二南大沢園",
    "address":"八王子市南大沢２－１３－４　田中ビル２０１号室",
    "lat":35.612144,
    "lon":139.38316
  },
  {
    "id":511,
    "name":"通所支援ベルテール　八王子南大沢園",
    "address":"八王子市下柚木３－６",
    "lat":35.621115,
    "lon":139.380618
  },
  {
    "id":512,
    "name":"こころみの会",
    "address":"八王子市上野町１０３－１　レジデンス富士森１階",
    "lat":35.653232,
    "lon":139.327563
  },
  {
    "id":513,
    "name":"リュミエール",
    "address":"八王子市上野町２７－３　コスモス八王子１０１、２０２",
    "lat":35.653899,
    "lon":139.327821
  },
  {
    "id":514,
    "name":"ドリームボックス北野",
    "address":"八王子市北野町５５７－１９　メゾン根来１階１０１号室",
    "lat":35.645584,
    "lon":139.359116
  },
  {
    "id":515,
    "name":"放課後等デイサービス　ハートマーク",
    "address":"八王子市北野町５５５－１６",
    "lat":35.646239,
    "lon":139.356941
  },
  {
    "id":516,
    "name":"スポーツひろばプレイス八王子教室",
    "address":"八王子市打越町３４４－４　北野シティプラザ２０１",
    "lat":35.644551,
    "lon":139.355028
  },
  {
    "id":517,
    "name":"クローバーハウス片倉町本店",
    "address":"八王子市片倉町４３９－４",
    "lat":35.642698,
    "lon":139.339329
  },
  {
    "id":518,
    "name":"わんぱくキッズ",
    "address":"八王子市片倉町３５９－４",
    "lat":35.642803,
    "lon":139.338226
  },
  {
    "id":519,
    "name":"たから",
    "address":"八王子市片倉町３０１－２",
    "lat":35.643414,
    "lon":139.334532
  },
  {
    "id":520,
    "name":"スパークスタジオみなみ野　Ｒａｉｎｂｏｗ　Ｋｉｄｓ",
    "address":"八王子市みなみ野３－３１－１７　ボヌールＡ",
    "lat":35.629407,
    "lon":139.322039
  },
  {
    "id":521,
    "name":"通所支援ベルテール八王子みなみ野園",
    "address":"八王子市みなみ野１－７－１",
    "lat":35.632335,
    "lon":139.328228
  },
  {
    "id":522,
    "name":"ハッピーテラス八王子みなみ野",
    "address":"八王子市みなみ野３－３１－１７　ボヌールＢ",
    "lat":35.629407,
    "lon":139.322039
  },
  {
    "id":523,
    "name":"チャレンジぴぴ",
    "address":"八王子市犬目町４４番１",
    "lat":35.688142,
    "lon":139.306541
  },
  {
    "id":524,
    "name":"ベアーズハウス",
    "address":"八王子市散田町５－６－１４　第１サンダファイブ１階",
    "lat":35.649015,
    "lon":139.299293
  },
  {
    "id":525,
    "name":"ベアーズハウス　西八王子",
    "address":"八王子市散田町４－１６－１３　クレール西八王子Ｂ棟１階",
    "lat":35.652174,
    "lon":139.307817
  },
  {
    "id":526,
    "name":"脳を育てる療育プログラム　チャイルド・ブレイン",
    "address":"八王子市東浅川町１番地１１",
    "lat":35.650596,
    "lon":139.298571
  },
  {
    "id":527,
    "name":"ころぽっくる",
    "address":"八王子市東浅川町６２９番地１",
    "lat":35.643111,
    "lon":139.299827
  },
  {
    "id":528,
    "name":"Ｐｅａｃｅ",
    "address":"八王子市東浅川町３３６－１１",
    "lat":35.646074,
    "lon":139.287772
  },
  {
    "id":529,
    "name":"Ｒａｃｉｎｅ",
    "address":"八王子市千人町４－６－５　プラムグローブ１階",
    "lat":35.657151,
    "lon":139.307087
  },
  {
    "id":530,
    "name":"みんなのひろば",
    "address":"八王子市千人町１－６－２　杉本マンション１階",
    "lat":35.65979,
    "lon":139.315694
  },
  {
    "id":531,
    "name":"放課後デイサービスわくわく",
    "address":"八王子市千人町２－６－５　プライムコート千人町１階",
    "lat":35.659481,
    "lon":139.31225
  },
  {
    "id":532,
    "name":"ハッピーテラス西八王子教室",
    "address":"八王子市日吉町１８－６",
    "lat":35.661606,
    "lon":139.314653
  },
  {
    "id":533,
    "name":"Ｅａｒｔｈ　Ｃｈｉｌｄｒｅｎ",
    "address":"八王子市台町４－１９－１２",
    "lat":35.656898,
    "lon":139.320522
  },
  {
    "id":534,
    "name":"すぎな愛育園こすもす",
    "address":"八王子市台町２－７－２２",
    "lat":35.649091,
    "lon":139.321239
  },
  {
    "id":535,
    "name":"こあらくらぶ",
    "address":"八王子市台町４－３３－１２　ヴィレッジ木下",
    "lat":35.657551,
    "lon":139.318078
  },
  {
    "id":536,
    "name":"すぎな愛育園あみぃ",
    "address":"八王子市椚田町５３９－９",
    "lat":35.637453,
    "lon":139.308785
  },
  {
    "id":537,
    "name":"立川らびっとくらぶ",
    "address":"立川市幸町三丁目２５番地１　立川けやき台ハイツ１階",
    "lat":35.722405,
    "lon":139.430171
  },
  {
    "id":538,
    "name":"トライきっず・プロ",
    "address":"立川市幸町１－１０－６",
    "lat":35.719996,
    "lon":139.422258
  },
  {
    "id":539,
    "name":"こどもプラス立川幸町教室",
    "address":"立川市幸町５－１－７　フルミエールメゾン１階Ｂ",
    "lat":35.723318,
    "lon":139.418386
  },
  {
    "id":540,
    "name":"こぱんはうすさくら　立川幸町教室",
    "address":"立川市幸町３－１３－１４　矢島ビル１階",
    "lat":35.720646,
    "lon":139.430252
  },
  {
    "id":541,
    "name":"デイサービス事業　みんなの広場　１",
    "address":"立川市栄町４－２－１　ジュネスイトウ１階",
    "lat":35.710745,
    "lon":139.423464
  },
  {
    "id":542,
    "name":"スマイルJr",
    "address":"立川市高松町３－２５－１０　富士永ハイツ１０１",
    "lat":35.701754,
    "lon":139.418376
  },
  {
    "id":543,
    "name":"テイクオフ",
    "address":"立川市高松町１－２０－５",
    "lat":35.709347,
    "lon":139.415695
  },
  {
    "id":544,
    "name":"ジョブサＵ１８立川北口教室",
    "address":"立川市曙町１－２４－１１　橋本ビル７階",
    "lat":35.700415,
    "lon":139.408838
  },
  {
    "id":545,
    "name":"あにものいえ",
    "address":"立川市羽衣町２－２３－６",
    "lat":35.694502,
    "lon":139.428589
  },
  {
    "id":546,
    "name":"ゆいまーる",
    "address":"立川市羽衣町１丁目６番１０号　小川ビル２階",
    "lat":35.696324,
    "lon":139.423839
  },
  {
    "id":547,
    "name":"ＬＩＴＡＬＩＣＯジュニア立川南口教室",
    "address":"立川市柴崎町２－３－１３　エイティエイト立川デュオ２階",
    "lat":35.696563,
    "lon":139.410807
  },
  {
    "id":548,
    "name":"ドリームボックス立川",
    "address":"立川市柴崎町５－８－１　リバーサイドアプス１階",
    "lat":35.689241,
    "lon":139.40123
  },
  {
    "id":549,
    "name":"ジョブサＵ１８立川南口教室",
    "address":"立川市柴崎町２－４－１５　ほまれ屋本社ビル２０１号室",
    "lat":35.696849,
    "lon":139.409916
  },
  {
    "id":550,
    "name":"デイサービス事業　みんなの広場　２",
    "address":"立川市一番町３－１７－１１　ローズシャトル２号館１階",
    "lat":35.730344,
    "lon":139.378481
  },
  {
    "id":551,
    "name":"児童デイサービス　サンフラワー",
    "address":"立川市一番町５－１－５　ネクサス立川１階",
    "lat":35.73038,
    "lon":139.379831
  },
  {
    "id":552,
    "name":"子ども発達支援ルームおれんじ学園",
    "address":"武蔵野市吉祥寺北町３－５－８　イトーピア吉祥寺１階－１１０",
    "lat":35.710487,
    "lon":139.57104
  },
  {
    "id":553,
    "name":"ビーキッズむさしの",
    "address":"武蔵野市吉祥寺南町３－７－１　プランドールサンリョウ２階",
    "lat":35.699553,
    "lon":139.58637
  },
  {
    "id":554,
    "name":"児童発達支援・放課後等デイサービス　ささえ",
    "address":"武蔵野市吉祥寺本町一丁目３５番１４号",
    "lat":35.703736,
    "lon":139.584806
  },
  {
    "id":555,
    "name":"ＴＥＥＮＳ吉祥寺",
    "address":"武蔵野市吉祥寺本町２－２５－１２　Ｓａｎｔａ　Ｆｅ　１－Ｃ",
    "lat":35.703874,
    "lon":139.574673
  },
  {
    "id":556,
    "name":"スタジオそら武蔵野",
    "address":"武蔵野市中町１－２３－１２　クレール武蔵野１階",
    "lat":35.704513,
    "lon":139.563458
  },
  {
    "id":557,
    "name":"子ども発達支援ルームおれんじ学園ｎｉｃｏ",
    "address":"武蔵野市中町１－１９－８　シティハイツ武蔵野１階",
    "lat":35.704999,
    "lon":139.562672
  },
  {
    "id":558,
    "name":"あすはＫｉｄｓ",
    "address":"武蔵野市八幡町１－６－１",
    "lat":35.715089,
    "lon":139.55435
  },
  {
    "id":559,
    "name":"千川さくらんぼクラブ",
    "address":"武蔵野市八幡町２－５－３　武蔵野中央公園　北ホール１階",
    "lat":35.7214,
    "lon":139.559666
  },
  {
    "id":560,
    "name":"ｗａｃｃａ",
    "address":"武蔵野市八幡町３－８－６　ニューハイツ武蔵野１階",
    "lat":35.716425,
    "lon":139.549872
  },
  {
    "id":561,
    "name":"児童発達センター　ぽこあぽこ",
    "address":"武蔵野市境２－４－３　スヤマ武蔵野１Ｆ",
    "lat":35.706223,
    "lon":139.543173
  },
  {
    "id":562,
    "name":"ロゼット",
    "address":"武蔵野市境１－４－５",
    "lat":35.704085,
    "lon":139.544659
  },
  {
    "id":563,
    "name":"手毬塾ウノ",
    "address":"武蔵野市境南町３－２２－２２",
    "lat":35.698927,
    "lon":139.540029
  },
  {
    "id":564,
    "name":"ウイングむさしの",
    "address":"武蔵野市境南町２－１３－５　グレーハイツ泉妻",
    "lat":35.698619,
    "lon":139.543821
  },
  {
    "id":565,
    "name":"なかよし教室",
    "address":"三鷹市井の頭二丁目２１番１８号",
    "lat":35.691187,
    "lon":139.584342
  },
  {
    "id":566,
    "name":"にじアート児童デイサービス",
    "address":"三鷹市新川４－１１－１３",
    "lat":35.673208,
    "lon":139.57133
  },
  {
    "id":567,
    "name":"こどもデイサービス　らびぃ",
    "address":"三鷹市新川４－１２－６",
    "lat":35.673436,
    "lon":139.572072
  },
  {
    "id":568,
    "name":"まぁーる",
    "address":"三鷹市新川３－２１－１９　はなはなテラス１階",
    "lat":35.678271,
    "lon":139.569528
  },
  {
    "id":569,
    "name":"ＴＡＫＵＭＩ",
    "address":"三鷹市下連雀３－１７－２０　１０１号室",
    "lat":35.699052,
    "lon":139.562461
  },
  {
    "id":570,
    "name":"東京ヘルスケア学習運動センター",
    "address":"三鷹市下連雀２－２４－８",
    "lat":35.695519,
    "lon":139.56575
  },
  {
    "id":571,
    "name":"ＴＥＥＮＳ三鷹",
    "address":"三鷹市下連雀３－４２－１０　イニシア三鷹下連雀２階",
    "lat":35.699202,
    "lon":139.559294
  },
  {
    "id":572,
    "name":"ウイングみたか",
    "address":"三鷹市野崎１－７－２１　ユニパレス三鷹１階",
    "lat":35.683609,
    "lon":139.555229
  },
  {
    "id":573,
    "name":"Ｇｒｅｅｎ　Ａｐｐｌｅ",
    "address":"三鷹市深大寺三丁目１０番１号",
    "lat":35.689186,
    "lon":139.537797
  },
  {
    "id":574,
    "name":"友愛こどもクラブとことこ",
    "address":"青梅市成木２－１０７",
    "lat":35.832282,
    "lon":139.271068
  },
  {
    "id":575,
    "name":"きらきらすばる",
    "address":"青梅市大門２－２８１－１",
    "lat":35.796084,
    "lon":139.290447
  },
  {
    "id":576,
    "name":"らんらんすばる",
    "address":"青梅市新町３－２０－３　ダイヤパレス１階",
    "lat":35.78002,
    "lon":139.302077
  },
  {
    "id":577,
    "name":"オルオルハウスかすみ",
    "address":"青梅市新町１－４３－６",
    "lat":35.791196,
    "lon":139.296172
  },
  {
    "id":578,
    "name":"おひさま放課後デイサービス",
    "address":"青梅市新町５－２４－３",
    "lat":35.789733,
    "lon":139.308771
  },
  {
    "id":579,
    "name":"ポラリスキッズ",
    "address":"青梅市新町７－５－５",
    "lat":35.783836,
    "lon":139.315835
  },
  {
    "id":580,
    "name":"ドリームボックス河辺",
    "address":"青梅市師岡町４－１１－１　ヴィラ・エイジ１０１",
    "lat":35.787377,
    "lon":139.285726
  },
  {
    "id":581,
    "name":"こどもプラス青梅教室",
    "address":"青梅市野上町２－１０－２　平沼ビル１階１０１",
    "lat":35.793248,
    "lon":139.28997
  },
  {
    "id":582,
    "name":"オルオルネクストかべ",
    "address":"青梅市河辺町５－２３－７",
    "lat":35.782891,
    "lon":139.287531
  },
  {
    "id":583,
    "name":"ありえす",
    "address":"青梅市千ケ瀬町４－５７２－６",
    "lat":35.786726,
    "lon":139.266619
  },
  {
    "id":584,
    "name":"ドリームボックス浅間町",
    "address":"府中市浅間町２－２－１６　メゾンモンフレール１階",
    "lat":35.683977,
    "lon":139.495703
  },
  {
    "id":585,
    "name":"児童デイサービス　めろでぃ",
    "address":"府中市朝日町１－２２－６５",
    "lat":35.672302,
    "lon":139.516438
  },
  {
    "id":586,
    "name":"放課後等デイサービス　オンリーワン",
    "address":"府中市若松町１－７－３３　Ｋ＆Ｙ東府中ビル２階",
    "lat":35.670212,
    "lon":139.497859
  },
  {
    "id":587,
    "name":"運動療育で生きる力を育む　シエル　府中教室",
    "address":"府中市緑町３－５－７　第二木城ビル５階",
    "lat":35.669685,
    "lon":139.494376
  },
  {
    "id":588,
    "name":"放課後デイサービス　ぽーと",
    "address":"府中市緑町３－５－７　第二木城ビル４階",
    "lat":35.669685,
    "lon":139.494376
  },
  {
    "id":589,
    "name":"放課後等デイサービスリアン府中緑町",
    "address":"府中市緑町１－１０－２　ＰＡＬＡＳＴ緑町１０２",
    "lat":35.671912,
    "lon":139.486518
  },
  {
    "id":590,
    "name":"ちゃいくろ児童デイサービス府中",
    "address":"府中市白糸台６－５－１０",
    "lat":35.663317,
    "lon":139.520252
  },
  {
    "id":591,
    "name":"放課後等デイサービスリアン府中白糸台",
    "address":"府中市白糸台２－３－６　ブリリアントウイン白糸台１階Ａ号",
    "lat":35.666785,
    "lon":139.50983
  },
  {
    "id":592,
    "name":"ハッピーテラス東府中",
    "address":"府中市清水が丘１－１－３　第一勇心ビル２０１",
    "lat":35.669304,
    "lon":139.494404
  },
  {
    "id":593,
    "name":"ポップシップ",
    "address":"府中市本町１－１５－３　宮ノ森コーポ１０２",
    "lat":35.666671,
    "lon":139.478636
  },
  {
    "id":594,
    "name":"放課後デイサービス　プティ　フォンティーヌ",
    "address":"府中市本町１－１－２２　ブラーヴハウス２階",
    "lat":35.668676,
    "lon":139.477911
  },
  {
    "id":595,
    "name":"児童デイサービス　サンフラワー府中",
    "address":"府中市本宿町２－２０－８",
    "lat":35.672631,
    "lon":139.459357
  },
  {
    "id":596,
    "name":"ドリームボックス武蔵台",
    "address":"府中市武蔵台１－２７－７",
    "lat":35.688112,
    "lon":139.461831
  },
  {
    "id":597,
    "name":"ナイスデイ・キッズ",
    "address":"府中市美好町１－２４－３　ハイツコグチ１階",
    "lat":35.672248,
    "lon":139.469653
  },
  {
    "id":598,
    "name":"こもれび",
    "address":"府中市美好町１－１８－５　萩原ビル３階",
    "lat":35.67345,
    "lon":139.470128
  },
  {
    "id":599,
    "name":"放課後等デイサービスリアン府中美好教室",
    "address":"府中市美好町３丁目１３－３　第一グリーンテラス２号室",
    "lat":35.671917,
    "lon":139.466048
  },
  {
    "id":600,
    "name":"根っこくらぶ",
    "address":"府中市美好町３－１７－４　マテリアル府中１階Ｂ号室",
    "lat":35.671698,
    "lon":139.46467
  },
  {
    "id":601,
    "name":"リボン",
    "address":"府中市美好町３－５７－１６　１階",
    "lat":35.668278,
    "lon":139.460426
  },
  {
    "id":602,
    "name":"リボン　第２教室",
    "address":"府中市美好町３－５１－１１　１階",
    "lat":35.669039,
    "lon":139.46329
  },
  {
    "id":603,
    "name":"きぼうクラブ",
    "address":"府中市栄町３－１２－１　メディカルビル・グレイス４階",
    "lat":35.687604,
    "lon":139.469405
  },
  {
    "id":604,
    "name":"放課後等デイサービス　ふぁんふぁん天神町",
    "address":"府中市天神町２－１－７　ベルテ堀江１０１号室",
    "lat":35.678736,
    "lon":139.489157
  },
  {
    "id":605,
    "name":"スポーツひろば　プレイス　府中教室",
    "address":"府中市府中町１－８－１３－１F",
    "lat":35.672784,
    "lon":139.481327
  },
  {
    "id":606,
    "name":"放課後等デイサービス　ふぁんふぁん府中町",
    "address":"府中市府中町１－３２－５　シャルマン府中１０３号室",
    "lat":35.67695,
    "lon":139.479497
  },
  {
    "id":607,
    "name":"キッズサポートてんとうむし",
    "address":"昭島市上川原町３－８－２２",
    "lat":35.708302,
    "lon":139.35957
  },
  {
    "id":608,
    "name":"特定非営利活動法人昭島ひよこ教室",
    "address":"昭島市昭和町４－７－１",
    "lat":35.710835,
    "lon":139.364125
  },
  {
    "id":609,
    "name":"放課後等デイサービス　つむぐ　中神第２教室",
    "address":"昭島市中神町１２２８－２０　ミリューヴィラージュ１０６",
    "lat":35.708858,
    "lon":139.37794
  },
  {
    "id":610,
    "name":"放課後等デイサービス　つむぐ　中神教室",
    "address":"昭島市朝日町３－１８－９　大正第４ビル１階",
    "lat":35.708124,
    "lon":139.373024
  },
  {
    "id":611,
    "name":"脳を育てる運動療育センター　ピースマイル　中神教室",
    "address":"昭島市朝日町１－４－３　ＳＫビル２階Ｂ",
    "lat":35.70806,
    "lon":139.375643
  },
  {
    "id":612,
    "name":"ドリームボックス中神",
    "address":"昭島市玉川町２－４－１１　ヴェルシャトウ１階",
    "lat":35.706738,
    "lon":139.378887
  },
  {
    "id":613,
    "name":"放課後等デイサービス　わかば",
    "address":"調布市若葉町二丁目２６番２９号　ミタムラビル１階",
    "lat":35.65698,
    "lon":139.589565
  },
  {
    "id":614,
    "name":"ポコポコ・ホッピング神代団地",
    "address":"調布市西つつじケ丘４－２３　神代団地３３－１０３",
    "lat":35.650103,
    "lon":139.576936
  },
  {
    "id":615,
    "name":"アーリーバード　柴崎",
    "address":"調布市菊野台一丁目５２番地４　三高家ビル２Ａ",
    "lat":35.655399,
    "lon":139.56567
  },
  {
    "id":616,
    "name":"ゆうゆうくらぶ",
    "address":"調布市柴崎１－５６－１　サニーハイツ１階",
    "lat":35.659268,
    "lon":139.564973
  },
  {
    "id":617,
    "name":"Green",
    "address":"調布市調布ケ丘４－４１－２",
    "lat":35.662459,
    "lon":139.545539
  },
  {
    "id":618,
    "name":"ちょうふの風",
    "address":"調布市国領町３－８－１５　くすのきアパート５号棟１１４号",
    "lat":35.648614,
    "lon":139.560591
  },
  {
    "id":619,
    "name":"ふくふく",
    "address":"調布市国領町５－７４－１－１０３",
    "lat":35.648969,
    "lon":139.551247
  },
  {
    "id":620,
    "name":"ハッピーテラス調布教室",
    "address":"調布市国領町１－９－３　小谷田ビル１階１０３号室",
    "lat":35.651158,
    "lon":139.551969
  },
  {
    "id":621,
    "name":"ふみ月チャレンジ染地",
    "address":"調布市染地１－１７－１５",
    "lat":35.641979,
    "lon":139.548582
  },
  {
    "id":622,
    "name":"クレヨンキッズ",
    "address":"調布市布田２－４－１０　布田ビル１Ｆ",
    "lat":35.65391,
    "lon":139.548575
  },
  {
    "id":623,
    "name":"たんぽぽ",
    "address":"調布市布田２－５１－１０　トービル調布２０１",
    "lat":35.650366,
    "lon":139.550092
  },
  {
    "id":624,
    "name":"ドリームボックス　布田",
    "address":"調布市布田３－５５－１７",
    "lat":35.646725,
    "lon":139.550353
  },
  {
    "id":625,
    "name":"アーリーバード",
    "address":"調布市多摩川５－７－４",
    "lat":35.644337,
    "lon":139.537185
  },
  {
    "id":626,
    "name":"ふみ月チャレンジたま川",
    "address":"調布市多摩川５－２４－１８",
    "lat":35.643379,
    "lon":139.536647
  },
  {
    "id":627,
    "name":"調布市総合福祉センター　放課後等デイサービス　ぴっころ",
    "address":"調布市小島町２－４７－１",
    "lat":35.651397,
    "lon":139.542753
  },
  {
    "id":628,
    "name":"通所運動療育障がい児リハビリセンター調布",
    "address":"調布市小島町３－８８－２",
    "lat":35.645701,
    "lon":139.541104
  },
  {
    "id":629,
    "name":"ポコポコ・ホッピング富士見町",
    "address":"調布市富士見町２－１７－１７",
    "lat":35.659376,
    "lon":139.54015
  },
  {
    "id":630,
    "name":"れいんぼー",
    "address":"調布市富士見町４－３０－２０",
    "lat":35.668591,
    "lon":139.536136
  },
  {
    "id":631,
    "name":"にこにこキッズルーム",
    "address":"調布市下石原１－２－４　ヤシマビル２階",
    "lat":35.657687,
    "lon":139.53409
  },
  {
    "id":632,
    "name":"ドリームボックス下石原",
    "address":"調布市下石原一丁目３２番地６　下石原プラザ１０１号室",
    "lat":35.656426,
    "lon":139.534535
  },
  {
    "id":633,
    "name":"放課後等デイサービス　わかば　西調布店",
    "address":"調布市下石原１－８－１　西谷調布ビル１０２",
    "lat":35.657979,
    "lon":139.536137
  },
  {
    "id":634,
    "name":"つくしんぼ",
    "address":"町田市南つくし野１－１１－３",
    "lat":35.520513,
    "lon":139.473808
  },
  {
    "id":635,
    "name":"トゥモローフィールド町田",
    "address":"町田市原町田５－３－１７　小井土ビル２Ｆ",
    "lat":35.54542,
    "lon":139.449806
  },
  {
    "id":636,
    "name":"星の王子",
    "address":"町田市中町３－６－１２　町田向井田ビル１階",
    "lat":35.551558,
    "lon":139.446637
  },
  {
    "id":637,
    "name":"ぴっころもんど",
    "address":"町田市中町４－１３－１　１階",
    "lat":35.553638,
    "lon":139.447973
  },
  {
    "id":638,
    "name":"運動療育で生きる力を育む　シエル　中町教室",
    "address":"町田市中町３－１０－９　アーバン第３ビル　ラ・ヴィ２０１",
    "lat":35.551,
    "lon":139.449001
  },
  {
    "id":639,
    "name":"ハッピーテラス町田駅前",
    "address":"町田市森野２丁目２番３６号　Ｗａｌｄ２０２　２階",
    "lat":35.547008,
    "lon":139.439735
  },
  {
    "id":640,
    "name":"Ｋｉｄｓテラス森野",
    "address":"町田市森野５－１４－１９　１階",
    "lat":35.548391,
    "lon":139.436543
  },
  {
    "id":641,
    "name":"放課後等デイサービス　アイ・ランド町田",
    "address":"町田市旭町二丁目１２番２号",
    "lat":35.557835,
    "lon":139.435735
  },
  {
    "id":642,
    "name":"運動療育で生きる力を育む　シエル　町田教室",
    "address":"町田市旭町２－１３－３　サンライズ旭町２階",
    "lat":35.557652,
    "lon":139.437021
  },
  {
    "id":643,
    "name":"でんでん虫の家・町田",
    "address":"町田市本町田９７　イ－４号棟　０－１号室",
    "lat":35.559552,
    "lon":139.452664
  },
  {
    "id":644,
    "name":"つぼみクラブ",
    "address":"町田市本町田２９７３－７　本町田マリノビル２０２号",
    "lat":35.572164,
    "lon":139.441809
  },
  {
    "id":645,
    "name":"ナカミチ児童デイサービス本町田",
    "address":"町田市本町田２０２０－５",
    "lat":35.563365,
    "lon":139.434513
  },
  {
    "id":646,
    "name":"つぼみ　アウラ",
    "address":"町田市本町田２９７７－３",
    "lat":35.571822,
    "lon":139.440423
  },
  {
    "id":647,
    "name":"わいわいプラス町田教室",
    "address":"町田市本町田１２９７－１　ラ・ベルチュ町田１－３号室",
    "lat":35.56407,
    "lon":139.444917
  },
  {
    "id":648,
    "name":"ボワ・フルール",
    "address":"町田市木曽西３－１１－１０",
    "lat":35.573777,
    "lon":139.417214
  },
  {
    "id":649,
    "name":"ボワ・コンサール",
    "address":"町田市木曽西２－６－１２",
    "lat":35.570272,
    "lon":139.412745
  },
  {
    "id":650,
    "name":"リハビリらんど",
    "address":"町田市木曽西１－３－３０　セゾンコリーヌ１０１",
    "lat":35.56384,
    "lon":139.420342
  },
  {
    "id":651,
    "name":"重症心身障がい児放課後等デイサービスきらら",
    "address":"町田市木曽西５－２０－１０",
    "lat":35.56862,
    "lon":139.422852
  },
  {
    "id":652,
    "name":"おもちゃ箱まちだ",
    "address":"町田市木曽西３－１８－２－２階",
    "lat":35.572972,
    "lon":139.419116
  },
  {
    "id":653,
    "name":"Ｋｉｄｓテラス木曽西",
    "address":"町田市木曽西４－５－２　１階",
    "lat":35.565278,
    "lon":139.422455
  },
  {
    "id":654,
    "name":"レ・マーニ",
    "address":"町田市玉川学園１－５－２１",
    "lat":35.558268,
    "lon":139.458216
  },
  {
    "id":655,
    "name":"なかよし共和国",
    "address":"町田市成瀬台２丁目１６－２　ウィル成瀬台Ａ棟１階",
    "lat":35.554112,
    "lon":139.477388
  },
  {
    "id":656,
    "name":"アイ・らんど成瀬",
    "address":"町田市成瀬７－１０－６－１１０",
    "lat":35.541638,
    "lon":139.474391
  },
  {
    "id":657,
    "name":"ウイングまちだ成瀬",
    "address":"町田市南成瀬６－１－１",
    "lat":35.534761,
    "lon":139.474258
  },
  {
    "id":658,
    "name":"あらぐさ",
    "address":"町田市下小山田町２３１－１",
    "lat":35.596091,
    "lon":139.411411
  },
  {
    "id":659,
    "name":"ボワ・エール",
    "address":"町田市下小山田町３２６７－２",
    "lat":35.585665,
    "lon":139.410634
  },
  {
    "id":660,
    "name":"プラナスデイサービスセンター",
    "address":"町田市小山町４３１９－２",
    "lat":35.599606,
    "lon":139.358607
  },
  {
    "id":661,
    "name":"児童デイサービスかのん",
    "address":"町田市鶴川２－１４－２４",
    "lat":35.589972,
    "lon":139.469465
  },
  {
    "id":662,
    "name":"放課後等デイサービス　キンダー",
    "address":"町田市大蔵町５３０－１６　プランドール須崎Ｂ",
    "lat":35.589305,
    "lon":139.460777
  },
  {
    "id":663,
    "name":"放課後等デイサービス　キンダーハウス",
    "address":"町田市金井３－２４－１",
    "lat":35.579586,
    "lon":139.458941
  },
  {
    "id":664,
    "name":"アイ・らんど忠生",
    "address":"町田市山崎町２０５５－２　Ｃ－１１３",
    "lat":35.571336,
    "lon":139.431738
  },
  {
    "id":665,
    "name":"小金井市児童発達支援センター　きらり",
    "address":"小金井市梶野町１－２－３",
    "lat":35.701987,
    "lon":139.528755
  },
  {
    "id":666,
    "name":"おもちゃ箱上水桜",
    "address":"小金井市桜町２－１２－３１",
    "lat":35.712219,
    "lon":139.504571
  },
  {
    "id":667,
    "name":"おもちゃ箱なかまち",
    "address":"小金井市中町４－１７－１３",
    "lat":35.697726,
    "lon":139.50894
  },
  {
    "id":668,
    "name":"木馬の会（小金井おもちゃライブラリー学童クラブ）",
    "address":"小金井市前原町２－１４－４",
    "lat":35.692316,
    "lon":139.511824
  },
  {
    "id":669,
    "name":"児童発達センター　びぃぼ",
    "address":"小金井市貫井北町１－６－２２",
    "lat":35.701981,
    "lon":139.494733
  },
  {
    "id":670,
    "name":"おもちゃ箱こがねい",
    "address":"小金井市貫井北町一丁目２４番９号",
    "lat":35.703103,
    "lon":139.49745
  },
  {
    "id":671,
    "name":"みんなの家７７",
    "address":"小平市大沼町６－７－２５",
    "lat":35.731578,
    "lon":139.501567
  },
  {
    "id":672,
    "name":"小平福祉園",
    "address":"小平市花小金井８－１－１０",
    "lat":35.731692,
    "lon":139.50204
  },
  {
    "id":673,
    "name":"ゆうやけ第３子どもクラブ",
    "address":"小平市鈴木町１－２９１－２",
    "lat":35.723145,
    "lon":139.50104
  },
  {
    "id":674,
    "name":"放課後等デイサービス　ラソ",
    "address":"小平市小川東町４－６－１７",
    "lat":35.735293,
    "lon":139.476828
  },
  {
    "id":675,
    "name":"ゆうやけ子どもクラブ",
    "address":"小平市小川町１－９８３",
    "lat":35.72653,
    "lon":139.458244
  },
  {
    "id":676,
    "name":"放課後等デイサービスＳＴＥＰ小平",
    "address":"小平市栄町１－１－４",
    "lat":35.733915,
    "lon":139.437323
  },
  {
    "id":677,
    "name":"あすなろの家",
    "address":"小平市小川西町５－１３－２４",
    "lat":35.736793,
    "lon":139.458488
  },
  {
    "id":678,
    "name":"あい",
    "address":"小平市小川西町５－２２－１２",
    "lat":35.734376,
    "lon":139.458429
  },
  {
    "id":679,
    "name":"整育園通所センター",
    "address":"小平市小川西町２－３５－１",
    "lat":35.737176,
    "lon":139.461124
  },
  {
    "id":680,
    "name":"ゆうやけ第２子どもクラブ",
    "address":"小平市学園東町３－３－１８　メゾンセサミ１階",
    "lat":35.723273,
    "lon":139.490624
  },
  {
    "id":681,
    "name":"アート療育FACT小平",
    "address":"小平市喜平町１－１２－１４",
    "lat":35.716749,
    "lon":139.489075
  },
  {
    "id":682,
    "name":"小平ＪＡＭきっず事業所　ポップコーン",
    "address":"小平市学園西町３－９－３",
    "lat":35.724939,
    "lon":139.47097
  },
  {
    "id":683,
    "name":"放課後等デイサービス　ＷＩＮＧ日野駅前",
    "address":"日野市日野本町３－１１－５　ＩＭビル２０２",
    "lat":35.67907,
    "lon":139.394379
  },
  {
    "id":684,
    "name":"児童デイサービス　サンフラワー　高幡",
    "address":"日野市新井７３２　ヌーヴ高幡１０２",
    "lat":35.663997,
    "lon":139.41748
  },
  {
    "id":685,
    "name":"カラコル・アイリー",
    "address":"日野市万願寺４－１４－１４",
    "lat":35.671555,
    "lon":139.417158
  },
  {
    "id":686,
    "name":"つきのおあしす",
    "address":"日野市百草１０４２の２０　石坂ビル２階",
    "lat":35.646305,
    "lon":139.424588
  },
  {
    "id":687,
    "name":"遊び・運動療育・学びの場　発達支援教室　アルファーラ百草教室",
    "address":"日野市百草２２２－６　ソレイユモグサ１階",
    "lat":35.657187,
    "lon":139.431524
  },
  {
    "id":688,
    "name":"運動療育・学びの場　こもれび聖蹟桜ヶ丘教室",
    "address":"日野市落川１１３６－２　アーバンシティ宝蔵橋　２階",
    "lat":35.649941,
    "lon":139.437682
  },
  {
    "id":689,
    "name":"ぷらたなす",
    "address":"日野市南平９－３６－２３　スカイハイツ１０１",
    "lat":35.650809,
    "lon":139.390052
  },
  {
    "id":690,
    "name":"南平ギフト",
    "address":"日野市南平６－１４－２７",
    "lat":35.654803,
    "lon":139.391752
  },
  {
    "id":691,
    "name":"障害児放課後クラブ",
    "address":"日野市平山２－１－１",
    "lat":35.640974,
    "lon":139.387136
  },
  {
    "id":692,
    "name":"ベアーズハウス　東豊田",
    "address":"日野市東豊田１－１７－１　あずまや１ＦＡ号室",
    "lat":35.663335,
    "lon":139.394618
  },
  {
    "id":693,
    "name":"ナーシングデイ山の上",
    "address":"日野市豊田２－４７－１　ルネッサンスコート・とよだ１階",
    "lat":35.655394,
    "lon":139.383033
  },
  {
    "id":694,
    "name":"運動療育で生きる力を育む　シエル　日野教室",
    "address":"日野市西平山２－１１－２１",
    "lat":35.645887,
    "lon":139.368507
  },
  {
    "id":695,
    "name":"脳を育てる運動療育センター　こどもプラス　豊田教室",
    "address":"日野市多摩平３丁目２－１　２階",
    "lat":35.666457,
    "lon":139.377594
  },
  {
    "id":696,
    "name":"脳を育てる運動療育センター　こどもプラス　多摩平教室",
    "address":"日野市多摩平４－１－１４　内田ビル２階",
    "lat":35.66546,
    "lon":139.378811
  },
  {
    "id":697,
    "name":"クリッパーズ",
    "address":"日野市旭が丘一丁目１５番地の９　２階",
    "lat":35.657108,
    "lon":139.372276
  },
  {
    "id":698,
    "name":"やまだこども教室",
    "address":"東村山市秋津町５－１３－３　セゾン新秋津２階",
    "lat":35.778311,
    "lon":139.494094
  },
  {
    "id":699,
    "name":"トーコロあおば就労サポートセンター",
    "address":"東村山市青葉町２－３９－１０",
    "lat":35.765318,
    "lon":139.490695
  },
  {
    "id":700,
    "name":"山鳩訓練室",
    "address":"東村山市久米川町３－１２－３１",
    "lat":35.765895,
    "lon":139.473002
  },
  {
    "id":701,
    "name":"楽しい放課後みんな",
    "address":"東村山市久米川町２－３１－６－１０２",
    "lat":35.761424,
    "lon":139.482748
  },
  {
    "id":702,
    "name":"ひまわり",
    "address":"東村山市富士見町１－５－１３",
    "lat":35.741734,
    "lon":139.459646
  },
  {
    "id":703,
    "name":"ＥＴ教室",
    "address":"国分寺市東戸倉２－１０－３４",
    "lat":35.711662,
    "lon":139.464127
  },
  {
    "id":704,
    "name":"たけのこ",
    "address":"国分寺市戸倉１－８－４３　千歳サンライズ１０７",
    "lat":35.709513,
    "lon":139.461933
  },
  {
    "id":705,
    "name":"「ツリーハウス」",
    "address":"国分寺市戸倉１－２３－３",
    "lat":35.711971,
    "lon":139.461277
  },
  {
    "id":706,
    "name":"「ツリーハウス」Ｌｉｋｏ",
    "address":"国分寺市戸倉３－４６－７",
    "lat":35.710182,
    "lon":139.451128
  },
  {
    "id":707,
    "name":"ハッピーテラス国分寺",
    "address":"国分寺市南町２－１７－４　国分寺南町ビューハイツ１０１号",
    "lat":35.69987,
    "lon":139.483573
  },
  {
    "id":708,
    "name":"放課後等デイサービス　ルーチェ",
    "address":"国分寺市南町３－４－１９　京美ビル３階",
    "lat":35.698009,
    "lon":139.479276
  },
  {
    "id":709,
    "name":"福祉の杜とくら地域福祉事業所すてっぷ",
    "address":"国分寺市富士本１－２５－２９",
    "lat":35.703174,
    "lon":139.449815
  },
  {
    "id":710,
    "name":"デイサービス事業クラブかたつむり",
    "address":"国分寺市日吉町４－２９－１２",
    "lat":35.705732,
    "lon":139.460078
  },
  {
    "id":711,
    "name":"メリーランド国分寺",
    "address":"国分寺市西町二丁目２番３号　第五東財ビル３階",
    "lat":35.705412,
    "lon":139.439055
  },
  {
    "id":712,
    "name":"ハッピーテラス国立駅前",
    "address":"国立市北１－５－８　プラース壱番館２階　店舗Ｅ",
    "lat":35.699974,
    "lon":139.44686
  },
  {
    "id":713,
    "name":"メリーランド",
    "address":"国立市北３丁目４０番３号",
    "lat":35.699296,
    "lon":139.42842
  },
  {
    "id":714,
    "name":"ＴＡＳＵＣ国立教室",
    "address":"国立市東１－４－９　ザ・ダイマス５階",
    "lat":35.698436,
    "lon":139.447246
  },
  {
    "id":715,
    "name":"ドリームボックス国立",
    "address":"国立市東３丁目６－１５　エスポワール国立１階",
    "lat":35.69452,
    "lon":139.452645
  },
  {
    "id":716,
    "name":"東京ＹＭＣＡさくら国立",
    "address":"国立市東１－４－２０－１０２",
    "lat":35.698813,
    "lon":139.448496
  },
  {
    "id":717,
    "name":"ハイビスカス",
    "address":"国立市富士見台４－１０－６",
    "lat":35.685859,
    "lon":139.431484
  },
  {
    "id":718,
    "name":"くじらっこ",
    "address":"国立市富士見台２－３－２　メゾンエクセル１Ｆ",
    "lat":35.685759,
    "lon":139.446402
  },
  {
    "id":719,
    "name":"放課後等デイサービス　バモノス",
    "address":"国立市富士見台１－７－１－１－１１４",
    "lat":35.684604,
    "lon":139.448785
  },
  {
    "id":720,
    "name":"放課後等デイサービスいもむしクラブ",
    "address":"国立市富士見台１－１７－２９　アップスタイルビルⅠ２階",
    "lat":35.681274,
    "lon":139.448041
  },
  {
    "id":721,
    "name":"ハッピー・テラス国立",
    "address":"国立市中２－３－６６　タキイシビル１階",
    "lat":35.695494,
    "lon":139.439913
  },
  {
    "id":722,
    "name":"滝乃川学園　放課後等デイサービス",
    "address":"国立市谷保６３１２",
    "lat":35.680959,
    "lon":139.429501
  },
  {
    "id":723,
    "name":"スマイルともにー",
    "address":"国立市泉５－２０－４",
    "lat":35.677954,
    "lon":139.43815
  },
  {
    "id":724,
    "name":"ドリームボックス拝島",
    "address":"福生市大字熊川２０２－１　ホワイトパレス１階",
    "lat":35.716614,
    "lon":139.336693
  },
  {
    "id":725,
    "name":"あそぼーよ",
    "address":"福生市南田園３－５－２１　森田ビルＡ号",
    "lat":35.729482,
    "lon":139.330405
  },
  {
    "id":726,
    "name":"つなごーよ",
    "address":"福生市南田園３－１８－１５　ユタカビル１階",
    "lat":35.731323,
    "lon":139.328238
  },
  {
    "id":727,
    "name":"ぶどうの木",
    "address":"福生市福生１０６２－１２　ＡＭＴビル２階２０３号",
    "lat":35.742922,
    "lon":139.32483
  },
  {
    "id":728,
    "name":"ＦＵＳＳＡ地域福祉事業所　歩っ歩",
    "address":"福生市武蔵野台２－３－２０",
    "lat":35.745391,
    "lon":139.331032
  },
  {
    "id":729,
    "name":"こども教室えるぶ",
    "address":"狛江市東野川２－１－１０－１０２．１０３",
    "lat":35.642234,
    "lon":139.580042
  },
  {
    "id":730,
    "name":"はっぴぃハウス",
    "address":"狛江市和泉本町４－７－２７－１０３",
    "lat":35.643051,
    "lon":139.568946
  },
  {
    "id":731,
    "name":"こどもデイサービスほっぷ",
    "address":"狛江市和泉本町４－２－１３　ＳＡＮＴＥ　ＳＡＫＡＥ２０２",
    "lat":35.641318,
    "lon":139.569443
  },
  {
    "id":732,
    "name":"こどもデイサービス　すてっぷ",
    "address":"狛江市和泉本町４－２－１３　",
    "lat":35.641318,
    "lon":139.569443
  },
  {
    "id":733,
    "name":"ウイングこまえ",
    "address":"狛江市岩戸北三丁目２２番１３号",
    "lat":35.632275,
    "lon":139.583237
  },
  {
    "id":734,
    "name":"ゆめぽっと",
    "address":"狛江市中和泉２－１０－１",
    "lat":35.638782,
    "lon":139.572912
  },
  {
    "id":735,
    "name":"デイグループほっと",
    "address":"東大和市清水３－７８５－２",
    "lat":35.753785,
    "lon":139.442872
  },
  {
    "id":736,
    "name":"デイグループぱーく",
    "address":"東大和市清水３－８５５－２",
    "lat":35.753549,
    "lon":139.443224
  },
  {
    "id":737,
    "name":"放課後等デイサービス　ぽっぷ",
    "address":"東大和市南街２－１１０－７",
    "lat":35.738519,
    "lon":139.432059
  },
  {
    "id":738,
    "name":"放課後デイ　ゆうハウス",
    "address":"東大和市中央３－８５５－１０　中央ビル１階ＡＤ号室",
    "lat":35.744846,
    "lon":139.42827
  },
  {
    "id":739,
    "name":"きずな",
    "address":"清瀬市下清戸２丁目５１８番２",
    "lat":35.784972,
    "lon":139.536413
  },
  {
    "id":740,
    "name":"障害者福祉センター　学童クラブのびのび",
    "address":"清瀬市上清戸１－１６－６２",
    "lat":35.773265,
    "lon":139.527664
  },
  {
    "id":741,
    "name":"放課後等デイサービスＡＡＯ！",
    "address":"清瀬市上清戸２－３－４　１－Ｂ",
    "lat":35.777334,
    "lon":139.521422
  },
  {
    "id":742,
    "name":"マイスペ児童デイサービス清瀬",
    "address":"清瀬市元町一丁目１３番２０号　ブリックヒル１階",
    "lat":35.774854,
    "lon":139.518223
  },
  {
    "id":743,
    "name":"たまみずき清瀬",
    "address":"清瀬市松山２－２－１５　清瀬シティハイム２階",
    "lat":35.769838,
    "lon":139.516287
  },
  {
    "id":744,
    "name":"わかば　第１学童クラブ",
    "address":"清瀬市竹丘１－１１－１－１０１",
    "lat":35.765877,
    "lon":139.511649
  },
  {
    "id":745,
    "name":"放課後等デイサービス　ラビットハウス",
    "address":"清瀬市竹丘２－１６－９",
    "lat":35.762758,
    "lon":139.507691
  },
  {
    "id":746,
    "name":"ビーキッズきよせ",
    "address":"清瀬市梅園３－４－２５　１階",
    "lat":35.771068,
    "lon":139.499949
  },
  {
    "id":747,
    "name":"アプリ児童デイサービス清瀬",
    "address":"清瀬市梅園３－２－２１",
    "lat":35.768885,
    "lon":139.501919
  },
  {
    "id":748,
    "name":"あいる",
    "address":"東久留米市新川町１－９－２６",
    "lat":35.761545,
    "lon":139.536855
  },
  {
    "id":749,
    "name":"てんとうむし",
    "address":"東久留米市南町４－９－２１",
    "lat":35.744366,
    "lon":139.52214
  },
  {
    "id":750,
    "name":"だっく",
    "address":"東久留米市八幡町１－１－１２",
    "lat":35.757436,
    "lon":139.513174
  },
  {
    "id":751,
    "name":"ぐ～す",
    "address":"東久留米市八幡町２－１３－２９",
    "lat":35.755661,
    "lon":139.513543
  },
  {
    "id":752,
    "name":"シュプロス東久留米教室",
    "address":"東久留米市八幡町２－４－１８　グランドール１階店舗",
    "lat":35.754612,
    "lon":139.513713
  },
  {
    "id":753,
    "name":"しおん学園",
    "address":"東久留米市下里７－８－２０",
    "lat":35.759916,
    "lon":139.502927
  },
  {
    "id":754,
    "name":"放課後等デイサービス　カーリッジ東久留米",
    "address":"東久留米市下里３－２３－１３　アズセナ１０１号室",
    "lat":35.753425,
    "lon":139.500275
  },
  {
    "id":755,
    "name":"このみ",
    "address":"東久留米市幸町３－８－２３",
    "lat":35.758264,
    "lon":139.51912
  },
  {
    "id":756,
    "name":"放課後等デイサービス　あかぐみ",
    "address":"武蔵村山市中央１－２５－１４　ハウスオブブーケＣ棟１０１",
    "lat":35.753247,
    "lon":139.389335
  },
  {
    "id":757,
    "name":"放課後デイサービスひだまり",
    "address":"武蔵村山市本町１－６３－１",
    "lat":35.753064,
    "lon":139.385857
  },
  {
    "id":758,
    "name":"クローバー",
    "address":"武蔵村山市学園１－１１２－８",
    "lat":35.746232,
    "lon":139.396723
  },
  {
    "id":759,
    "name":"放課後等デイサービス　トライきっず",
    "address":"武蔵村山市大南３－７２－１　柏木マンション１０２号",
    "lat":35.735569,
    "lon":139.405404
  },
  {
    "id":760,
    "name":"放課後デイサービス　せせらぎ",
    "address":"武蔵村山市大南１－１１１－２３",
    "lat":35.736438,
    "lon":139.396896
  },
  {
    "id":761,
    "name":"放課後等デイサービス　どりーむ",
    "address":"武蔵村山市三ツ藤２丁目２７番地４",
    "lat":35.752008,
    "lon":139.375195
  },
  {
    "id":762,
    "name":"妖精の杜",
    "address":"武蔵村山市残堀１－１１０－９",
    "lat":35.744628,
    "lon":139.37552
  },
  {
    "id":763,
    "name":"あい武蔵村山",
    "address":"武蔵村山市中原４－３－２",
    "lat":35.752699,
    "lon":139.363795
  },
  {
    "id":764,
    "name":"遊び・運動療育・学びの場　発達支援教室　アルファーラ聖蹟桜ヶ丘教室",
    "address":"多摩市一ノ宮２－１９－２７　太喜ビル第一　１階",
    "lat":35.653096,
    "lon":139.44345
  },
  {
    "id":765,
    "name":"グラシアス聖蹟桜ヶ丘駅前教室",
    "address":"多摩市関戸１－１２－４　糀屋ビル６階",
    "lat":35.650222,
    "lon":139.448186
  },
  {
    "id":766,
    "name":"キャンビー",
    "address":"多摩市貝取４－３－１－１１０",
    "lat":35.61459,
    "lon":139.438525
  },
  {
    "id":767,
    "name":"メロディ",
    "address":"多摩市聖ヶ丘二丁目　第２１街区第３号棟第４号室",
    "lat":35.631336,
    "lon":139.457585
  },
  {
    "id":768,
    "name":"ドリームボックス馬引沢",
    "address":"多摩市馬引沢２－３－９　レジデンス永山１階Ａ号室",
    "lat":35.633118,
    "lon":139.452681
  },
  {
    "id":769,
    "name":"ドリームボックス諏訪",
    "address":"多摩市諏訪１－５３－２　ハウスアメニティ１階B号室",
    "lat":35.629647,
    "lon":139.454475
  },
  {
    "id":770,
    "name":"子どもクラブ",
    "address":"多摩市永山４－２－４－１０６・２０６",
    "lat":35.621103,
    "lon":139.449676
  },
  {
    "id":771,
    "name":"くぬぎ",
    "address":"多摩市永山３－９　東永山複合施設",
    "lat":35.623381,
    "lon":139.449454
  },
  {
    "id":772,
    "name":"ジョイフル",
    "address":"多摩市永山１－８－１７　ボヌール永山２０８",
    "lat":35.631968,
    "lon":139.44722
  },
  {
    "id":773,
    "name":"こどもデイサービス　ラフ",
    "address":"多摩市永山２－１４－６　アドラブールＫ　店舗Ｂ",
    "lat":35.630021,
    "lon":139.443362
  },
  {
    "id":774,
    "name":"発達相談支援センター　ＣＯＲＯＮＯＡＨ",
    "address":"多摩市落合３－１７－１、１０５号",
    "lat":35.616514,
    "lon":139.430489
  },
  {
    "id":775,
    "name":"ドリームボックス鶴牧",
    "address":"多摩市鶴牧２－２３－２１　コンフォート鶴牧１階",
    "lat":35.618233,
    "lon":139.414282
  },
  {
    "id":776,
    "name":"島田療育センター",
    "address":"多摩市中沢１－３１－１",
    "lat":35.621988,
    "lon":139.411496
  },
  {
    "id":777,
    "name":"あんふぁん愛宕事業所",
    "address":"多摩市愛宕四丁目９番２２号　池田ビル２階２０１号室",
    "lat":35.628657,
    "lon":139.428953
  },
  {
    "id":778,
    "name":"ドリームボックス多摩センター",
    "address":"多摩市山王下１－１３－１２　パールプラザ１０３",
    "lat":35.62536,
    "lon":139.419904
  },
  {
    "id":779,
    "name":"友遊クラブＩ合",
    "address":"稲城市大丸９５１－１４",
    "lat":35.64924,
    "lon":139.493088
  },
  {
    "id":780,
    "name":"地域生活支援センター「える」",
    "address":"稲城市東長沼１５５９番地",
    "lat":35.640934,
    "lon":139.507338
  },
  {
    "id":781,
    "name":"ウイング稲城",
    "address":"稲城市百村１６２３－１　パストラルハイム稲城Ｅ－２",
    "lat":35.635585,
    "lon":139.501475
  },
  {
    "id":782,
    "name":"友遊クラブⅡ合",
    "address":"稲城市矢野口３１０－１　２階",
    "lat":35.641523,
    "lon":139.521396
  },
  {
    "id":783,
    "name":"りあん",
    "address":"羽村市栄町二丁目７番地２７　ユウヒハイム１０６",
    "lat":35.772457,
    "lon":139.310455
  },
  {
    "id":784,
    "name":"五乃神学園",
    "address":"羽村市五ノ神３４５",
    "lat":35.768052,
    "lon":139.332695
  },
  {
    "id":785,
    "name":"パレットルーム羽村教室",
    "address":"羽村市五ノ神４－１－８　日芳ビル２階",
    "lat":35.760311,
    "lon":139.314758
  },
  {
    "id":786,
    "name":"わくわくプレイス",
    "address":"羽村市富士見平１－３－１　エムマンション１０１",
    "lat":35.765961,
    "lon":139.322854
  },
  {
    "id":787,
    "name":"リアン羽西店",
    "address":"羽村市羽西２－６－９－１階",
    "lat":35.769987,
    "lon":139.298028
  },
  {
    "id":788,
    "name":"放課後等デイサービス　悠友キッズ",
    "address":"あきる野市瀬戸岡７８３－１",
    "lat":35.739405,
    "lon":139.290485
  },
  {
    "id":789,
    "name":"わいわいくらぶ",
    "address":"あきる野市秋川２－７－１５",
    "lat":35.729297,
    "lon":139.286222
  },
  {
    "id":790,
    "name":"みらいクラブ",
    "address":"あきる野市秋川１－７－７　エスポワールⅡ番館２階",
    "lat":35.729478,
    "lon":139.286969
  },
  {
    "id":791,
    "name":"放課後等デイサービス　コア",
    "address":"あきる野市秋川４－１４－１２",
    "lat":35.73385,
    "lon":139.288988
  },
  {
    "id":792,
    "name":"こどもプラスグループ　あきる野教室",
    "address":"あきる野市秋川１－２－１　阿伎留ビル１階１０２号室",
    "lat":35.728145,
    "lon":139.288064
  },
  {
    "id":793,
    "name":"子笑",
    "address":"あきる野市油平８７－３　シャルマンルーフ２階－ＡＢ",
    "lat":35.727586,
    "lon":139.28693
  },
  {
    "id":794,
    "name":"シュプロスひばりヶ丘教室",
    "address":"西東京市谷戸町二丁目１５番１３号　",
    "lat":35.748988,
    "lon":139.543105
  },
  {
    "id":795,
    "name":"たまみずきひばり",
    "address":"西東京市北原町１－３８－２",
    "lat":35.738011,
    "lon":139.545997
  },
  {
    "id":796,
    "name":"療育型児童デイサービスさざんか第１",
    "address":"西東京市田無町７－８－１４",
    "lat":35.732873,
    "lon":139.530581
  },
  {
    "id":797,
    "name":"くろーばーきっず",
    "address":"西東京市田無町４－１７－１４",
    "lat":35.729365,
    "lon":139.535556
  },
  {
    "id":798,
    "name":"療育型児童デイサービスさざんか第５",
    "address":"西東京市田無町５－５－１２",
    "lat":35.731809,
    "lon":139.536209
  },
  {
    "id":799,
    "name":"放課後等デイサービス　らぷあ田無",
    "address":"西東京市向台町１－１６－２０　ふじマンション２階Ｂ号",
    "lat":35.719558,
    "lon":139.543331
  },
  {
    "id":800,
    "name":"ととろクラブ",
    "address":"西東京市芝久保町２－２２－３３",
    "lat":35.725984,
    "lon":139.520824
  },
  {
    "id":801,
    "name":"ととろキッズ",
    "address":"西東京市芝久保町２－２２－３２－１０２",
    "lat":35.726248,
    "lon":139.52061
  },
  {
    "id":802,
    "name":"ジョブチャレンジひばり",
    "address":"西東京市ひばりが丘３－１－２３",
    "lat":35.745766,
    "lon":139.537066
  },
  {
    "id":803,
    "name":"シュプロスひばりヶ丘教室Ⅱ",
    "address":"西東京市ひばりが丘１－８－２４",
    "lat":35.750663,
    "lon":139.542288
  },
  {
    "id":804,
    "name":"Pur　aile　ひばりが丘",
    "address":"西東京市ひばりが丘北３－７－１４　メゾンウィステリア１階",
    "lat":35.75269,
    "lon":139.547988
  },
  {
    "id":805,
    "name":"くまさん　保谷教室",
    "address":"西東京市東町二丁目９番７号",
    "lat":35.746577,
    "lon":139.561434
  },
  {
    "id":806,
    "name":"ＳＴＥＰ保谷",
    "address":"西東京市東町３－５－５",
    "lat":35.747408,
    "lon":139.56625
  },
  {
    "id":807,
    "name":"りぼん",
    "address":"西東京市保谷町２－１０－１２　菊池ビル１０２号",
    "lat":35.73036,
    "lon":139.554699
  },
  {
    "id":808,
    "name":"ＳＴＥＰ西東京",
    "address":"西東京市保谷町１－８－４",
    "lat":35.734434,
    "lon":139.555735
  },
  {
    "id":809,
    "name":"ウイング西東京",
    "address":"西東京市東伏見２－４－１０",
    "lat":35.728263,
    "lon":139.563515
  },
  {
    "id":810,
    "name":"りぼんＵ",
    "address":"西東京市柳沢６－４－３－１０６",
    "lat":35.72736,
    "lon":139.552658
  },
  {
    "id":811,
    "name":"スウィング",
    "address":"西多摩郡瑞穂町箱根ケ崎字武蔵野９３８－１",
    "lat":35.791956,
    "lon":139.331379
  },
  {
    "id":812,
    "name":"こどもデイサービス　Poco　a　Poco",
    "address":"西多摩郡日の出町大久野１６２８－７",
    "lat":35.744387,
    "lon":139.233581
  },
  {
    "id":813,
    "name":"こどもデイサービス　Poco　a　Poco　第２",
    "address":"西多摩郡日の出町大字平井字三吉野欠上１５－１５",
    "lat":35.738615,
    "lon":139.283147
  }
]